[
  {
    "type": "node",
    "id": 493379178,
    "lat": 43.3705314,
    "lon": -5.8304755,
    "timestamp": "2024-01-15T09:40:27Z",
    "version": 10,
    "changeset": 146273435,
    "user": "Oviedo1997",
    "uid": 17349438,
    "tags": {
      "amenity": "fast_food",
      "brand": "McDonald's",
      "brand:wikidata": "Q38076",
      "cuisine": "burger",
      "name": "McDonald's",
      "takeaway": "yes",
      "wheelchair": "yes"
    }
  },
  {
    "type": "node",
    "id": 569123425,
    "lat": 43.327295,
    "lon": -5.9138419,
    "timestamp": "2024-11-02T10:51:33Z",
    "version": 2,
    "changeset": 158652864,
    "user": "Oviedo1997",
    "uid": 17349438,
    "tags": {
      "amenity": "cafe"
    }
  },
  {
    "type": "node",
    "id": 673425611,
    "lat": 43.3710057,
    "lon": -5.8299307,
    "timestamp": "2024-01-15T09:40:27Z",
    "version": 5,
    "changeset": 146273435,
    "user": "Oviedo1997",
    "uid": 17349438,
    "tags": {
      "addr:city": "Oviedo",
      "amenity": "restaurant",
      "cuisine": "japanese",
      "level": "1",
      "name": "Sushitokyo",
      "wheelchair": "yes"
    }
  },
  {
    "type": "node",
    "id": 861114730,
    "lat": 43.3636365,
    "lon": -5.8505289,
    "timestamp": "2024-02-11T17:50:03Z",
    "version": 9,
    "changeset": 147337380,
    "user": "Oviedo1997",
    "uid": 17349438,
    "tags": {
      "addr:city": "Oviedo",
      "addr:housenumber": "26",
      "addr:postcode": "33003",
      "addr:street": "Calle Uría / Cai Uría",
      "amenity": "fast_food",
      "brand": "McDonald's",
      "brand:wikidata": "Q38076",
      "brand:wikipedia": "es:McDonald's",
      "cuisine": "burger",
      "indoor_seating": "yes",
      "name": "McDonald's",
      "outdoor_seating": "no",
      "takeaway": "yes"
    }
  },
  {
    "type": "node",
    "id": 995060797,
    "lat": 43.3602512,
    "lon": -5.844526,
    "timestamp": "2020-09-05T14:43:54Z",
    "version": 5,
    "changeset": 90455464,
    "user": "DaniSagan",
    "uid": 2327451,
    "tags": {
      "addr:city": "Oviedo / Uviéu",
      "addr:housename": "Copas Rotas",
      "addr:housenumber": "11",
      "addr:postcode": "33009",
      "addr:street": "Plaza de la Constitución",
      "amenity": "bar",
      "brewery": "yes",
      "name": "La Tía Paca",
      "outdoor_seating": "yes",
      "phone": "+34 615 86 29 28"
    }
  },
  {
    "type": "node",
    "id": 995060814,
    "lat": 43.3597693,
    "lon": -5.8398202,
    "timestamp": "2024-01-09T09:55:54Z",
    "version": 3,
    "changeset": 146059697,
    "user": "Oviedo1997",
    "uid": 17349438,
    "tags": {
      "addr:city": "Oviedo",
      "addr:postcode": "33009",
      "addr:street": "Plaza Benito Gallego Casado",
      "amenity": "bar",
      "name": "Cervecería Café Tamargo"
    }
  },
  {
    "type": "node",
    "id": 995060816,
    "lat": 43.3602347,
    "lon": -5.8399853,
    "timestamp": "2024-02-21T07:24:03Z",
    "version": 5,
    "changeset": 147720458,
    "user": "bermiego",
    "uid": 3699758,
    "tags": {
      "addr:city": "Oviedo / Uviéu",
      "amenity": "bar",
      "indoor_seating": "yes",
      "name": "La CBB",
      "outdoor_seating": "yes"
    }
  },
  {
    "type": "node",
    "id": 1485609800,
    "lat": 43.3629476,
    "lon": -5.8501257,
    "timestamp": "2023-10-08T11:05:55Z",
    "version": 8,
    "changeset": 142299853,
    "user": "vsuarezp",
    "uid": 3406892,
    "tags": {
      "addr:city": "Oviedo",
      "addr:street": "Paseo de Los Álamos",
      "amenity": "ice_cream",
      "diet:halal": "no",
      "diet:kosher": "no",
      "diet:vegan": "no",
      "indoor_seating": "no",
      "name": "Heladeria",
      "name:en": "Ice Cream Shop",
      "outdoor_seating": "no",
      "takeaway": "only"
    }
  },
  {
    "type": "node",
    "id": 1670998172,
    "lat": 43.3595851,
    "lon": -5.850595,
    "timestamp": "2023-10-25T18:05:38Z",
    "version": 14,
    "changeset": 143128550,
    "user": "vsuarezp",
    "uid": 3406892,
    "tags": {
      "addr:city": "Oviedo / Uviéu",
      "air_conditioning": "yes",
      "amenity": "cafe",
      "diet:halal": "no",
      "diet:kosher": "no",
      "diet:vegan": "no",
      "diet:vegetarian": "yes",
      "indoor_seating": "yes",
      "name": "Cafetería Munich",
      "opening_hours:signed": "no",
      "outdoor_seating": "no",
      "payment:credit_cards": "yes",
      "payment:debit_cards": "yes",
      "smoking": "no",
      "wheelchair": "no"
    }
  },
  {
    "type": "node",
    "id": 1939665717,
    "lat": 43.3147518,
    "lon": -5.9552079,
    "timestamp": "2012-09-30T13:07:59Z",
    "version": 1,
    "changeset": 13309164,
    "user": "Kalvy",
    "uid": 849121,
    "tags": {
      "amenity": "restaurant",
      "name": "Casa Inés"
    }
  },
  {
    "type": "node",
    "id": 1968932926,
    "lat": 43.3614436,
    "lon": -5.8540764,
    "timestamp": "2023-06-28T16:31:04Z",
    "version": 6,
    "changeset": 137886587,
    "user": "vsuarezp",
    "uid": 3406892,
    "tags": {
      "addr:city": "Oviedo / Uviéu",
      "amenity": "restaurant",
      "indoor_seating": "yes",
      "name": "Sidreria La Gran Vía",
      "outdoor_seating": "yes"
    }
  },
  {
    "type": "node",
    "id": 1968933715,
    "lat": 43.3633703,
    "lon": -5.8555378,
    "timestamp": "2017-02-05T02:02:54Z",
    "version": 3,
    "changeset": 45819249,
    "user": "bermiego",
    "uid": 3699758,
    "tags": {
      "amenity": "cafe",
      "name": "Nuevo Ayala"
    }
  },
  {
    "type": "node",
    "id": 1975113630,
    "lat": 43.3318385,
    "lon": -5.93346,
    "timestamp": "2021-02-08T00:26:25Z",
    "version": 4,
    "changeset": 98869779,
    "user": "bermiego",
    "uid": 3699758,
    "tags": {
      "addr:city": "Caces",
      "amenity": "bar",
      "name": "Restaurante Casa Eleuterio"
    }
  },
  {
    "type": "node",
    "id": 1993161524,
    "lat": 43.3618494,
    "lon": -5.8470707,
    "timestamp": "2017-03-26T16:30:19Z",
    "version": 2,
    "changeset": 47179255,
    "user": "bermiego",
    "uid": 3699758,
    "tags": {
      "amenity": "cafe",
      "name": "Cafetería Oxford"
    }
  },
  {
    "type": "node",
    "id": 2006593009,
    "lat": 43.3601965,
    "lon": -5.8441086,
    "timestamp": "2023-06-28T16:33:49Z",
    "version": 5,
    "changeset": 137886587,
    "user": "vsuarezp",
    "uid": 3406892,
    "tags": {
      "addr:city": "Oviedo / Uviéu",
      "amenity": "cafe",
      "indoor_seating": "yes",
      "name": "El Cafe Julio",
      "outdoor_seating": "yes",
      "wheelchair": "no"
    }
  },
  {
    "type": "node",
    "id": 2085228813,
    "lat": 43.3678825,
    "lon": -5.8506127,
    "timestamp": "2023-09-21T20:23:53Z",
    "version": 6,
    "changeset": 141576724,
    "user": "Hugoren Martinako",
    "uid": 3392826,
    "tags": {
      "addr:housenumber": "4",
      "addr:street": "Jerónimo Ibrán",
      "amenity": "restaurant",
      "cuisine": "chinese",
      "indoor_seating": "yes",
      "name": "Joya de Oriente",
      "outdoor_seating": "no",
      "website": "https://restaurantechino.wixsite.com/joyadeoriente2012"
    }
  },
  {
    "type": "node",
    "id": 2197112482,
    "lat": 43.3316619,
    "lon": -5.9337356,
    "timestamp": "2021-02-08T00:37:36Z",
    "version": 3,
    "changeset": 98869928,
    "user": "bermiego",
    "uid": 3699758,
    "tags": {
      "addr:city": "Caces",
      "amenity": "bar",
      "name": "Restaurante La Senda"
    }
  },
  {
    "type": "node",
    "id": 2197125588,
    "lat": 43.3314614,
    "lon": -5.9258634,
    "timestamp": "2020-11-08T23:49:38Z",
    "version": 2,
    "changeset": 93760461,
    "user": "bermiego",
    "uid": 3699758,
    "tags": {
      "amenity": "bar",
      "name": "Bar El Peón"
    }
  },
  {
    "type": "node",
    "id": 2225581146,
    "lat": 43.358762,
    "lon": -5.9203588,
    "timestamp": "2023-05-28T10:41:25Z",
    "version": 4,
    "changeset": 136651502,
    "user": "bermiego",
    "uid": 3699758,
    "tags": {
      "addr:city": "San Claudio/San Cloyo",
      "addr:housenumber": "10",
      "addr:postcode": "33191",
      "addr:street": "Vallina",
      "amenity": "restaurant",
      "internet_access": "no",
      "name": "Ca'San Roque",
      "outdoor_seating": "yes",
      "smoking": "outside",
      "wheelchair": "yes"
    }
  },
  {
    "type": "node",
    "id": 2225581147,
    "lat": 43.3554339,
    "lon": -5.9180954,
    "timestamp": "2013-03-26T16:13:11Z",
    "version": 1,
    "changeset": 15504614,
    "user": "naranco",
    "uid": 1186279,
    "tags": {
      "addr:housenumber": "51",
      "addr:postcode": "33191",
      "addr:street": "Carretera Estación",
      "amenity": "bar",
      "name": "Bar La Estación"
    }
  },
  {
    "type": "node",
    "id": 2244479852,
    "lat": 43.3590574,
    "lon": -5.9177781,
    "timestamp": "2023-07-04T07:39:30Z",
    "version": 3,
    "changeset": 138093853,
    "user": "bermiego",
    "uid": 3699758,
    "tags": {
      "addr:city": "San Claudio/San Cloyo",
      "addr:housenumber": "5",
      "addr:postcode": "33191",
      "addr:street": "Carretera la Estacion",
      "amenity": "bar",
      "name": "Las Palmeras"
    }
  },
  {
    "type": "node",
    "id": 2244479853,
    "lat": 43.362424,
    "lon": -5.9169157,
    "timestamp": "2021-06-02T20:38:25Z",
    "version": 2,
    "changeset": 105740300,
    "user": "Note Control",
    "uid": 10953870,
    "tags": {
      "addr:housenumber": "31",
      "addr:postcode": "33191",
      "addr:street": "Lugar El Torollo",
      "amenity": "restaurant",
      "name": "Casa El Gaiterin",
      "outdoor_seating": "yes"
    }
  },
  {
    "type": "node",
    "id": 2270431779,
    "lat": 43.3796838,
    "lon": -5.9262267,
    "timestamp": "2013-04-17T09:31:10Z",
    "version": 1,
    "changeset": 15760229,
    "user": "naranco",
    "uid": 1186279,
    "tags": {
      "amenity": "bar",
      "name": "Bar Restaurante Casa Valdes"
    }
  },
  {
    "type": "node",
    "id": 2272863355,
    "lat": 43.3570094,
    "lon": -5.9188252,
    "timestamp": "2013-04-19T17:25:30Z",
    "version": 1,
    "changeset": 15788095,
    "user": "naranco",
    "uid": 1186279,
    "tags": {
      "amenity": "bar",
      "name": "La Viña"
    }
  },
  {
    "type": "node",
    "id": 2272863413,
    "lat": 43.3582576,
    "lon": -5.9182199,
    "timestamp": "2024-07-21T07:49:58Z",
    "version": 3,
    "changeset": 154206712,
    "user": "DaniSagan",
    "uid": 2327451,
    "tags": {
      "amenity": "bar",
      "name": "Cafe Bar Isis"
    }
  },
  {
    "type": "node",
    "id": 2272863452,
    "lat": 43.3598119,
    "lon": -5.9177417,
    "timestamp": "2023-05-28T10:41:25Z",
    "version": 2,
    "changeset": 136651502,
    "user": "bermiego",
    "uid": 3699758,
    "tags": {
      "amenity": "bar",
      "name": "La Tapadera"
    }
  },
  {
    "type": "node",
    "id": 2274238216,
    "lat": 43.3596014,
    "lon": -5.9172167,
    "timestamp": "2023-07-07T07:20:58Z",
    "version": 3,
    "changeset": 138216239,
    "user": "bermiego",
    "uid": 3699758,
    "tags": {
      "addr:city": "San Claudio/San Cloyo",
      "amenity": "bar",
      "name": "Sidreria La Canciella",
      "wheelchair": "no"
    }
  },
  {
    "type": "node",
    "id": 2274238234,
    "lat": 43.3595703,
    "lon": -5.9173254,
    "timestamp": "2023-07-04T07:39:30Z",
    "version": 3,
    "changeset": 138093853,
    "user": "bermiego",
    "uid": 3699758,
    "tags": {
      "addr:city": "San Claudio/San Cloyo",
      "amenity": "bar",
      "name": "Bar Tahoces",
      "wheelchair": "no"
    }
  },
  {
    "type": "node",
    "id": 2294788078,
    "lat": 43.3605056,
    "lon": -5.8428242,
    "timestamp": "2014-04-15T21:34:10Z",
    "version": 2,
    "changeset": 21717744,
    "user": "wheelmap_android",
    "uid": 524500,
    "tags": {
      "addr:city": "Oviedo",
      "addr:street": "Calle del Postigo Alto",
      "amenity": "pub",
      "name": "Arde París",
      "wheelchair": "no"
    }
  },
  {
    "type": "node",
    "id": 2295886870,
    "lat": 43.3605336,
    "lon": -5.8427183,
    "timestamp": "2013-05-08T13:39:43Z",
    "version": 1,
    "changeset": 16029782,
    "user": "cafeole",
    "uid": 329082,
    "tags": {
      "addr:city": "Oviedo",
      "addr:street": "Calle del Postigo Alto",
      "amenity": "pub",
      "name": "La Perrera"
    }
  },
  {
    "type": "node",
    "id": 2295886873,
    "lat": 43.3605536,
    "lon": -5.8426251,
    "timestamp": "2019-10-11T16:46:43Z",
    "version": 4,
    "changeset": 75577206,
    "user": "kapazao_import",
    "uid": 8770019,
    "tags": {
      "addr:city": "Oviedo",
      "addr:street": "Calle del Postigo Alto",
      "amenity": "pub",
      "contact:facebook": "https://www.facebook.com/lalunauvieu/",
      "description": "Míticos del punk, clásicos del rock estatal y algo d'ska pa removese bien. Too col meyor calimochu d'Uviéu!",
      "name": "La Luna",
      "wheelchair": "no"
    }
  },
  {
    "type": "node",
    "id": 2295886877,
    "lat": 43.3603641,
    "lon": -5.8432036,
    "timestamp": "2014-04-15T21:34:47Z",
    "version": 2,
    "changeset": 21717744,
    "user": "wheelmap_android",
    "uid": 524500,
    "tags": {
      "addr:city": "Oviedo",
      "addr:street": "Calle del Postigo Alto",
      "amenity": "pub",
      "name": "La Factoría",
      "wheelchair": "no"
    }
  },
  {
    "type": "node",
    "id": 2295886880,
    "lat": 43.3603274,
    "lon": -5.8429005,
    "timestamp": "2025-03-14T11:57:25Z",
    "version": 3,
    "changeset": 163607082,
    "user": "bermiego",
    "uid": 3699758,
    "tags": {
      "addr:city": "Oviedo",
      "amenity": "pub",
      "name": "Radio",
      "wheelchair": "no"
    }
  },
  {
    "type": "node",
    "id": 2295886883,
    "lat": 43.3602886,
    "lon": -5.8440724,
    "timestamp": "2013-05-08T13:39:43Z",
    "version": 1,
    "changeset": 16029782,
    "user": "cafeole",
    "uid": 329082,
    "tags": {
      "addr:city": "Oviedo",
      "amenity": "bar",
      "name": "Campa"
    }
  },
  {
    "type": "node",
    "id": 2295893913,
    "lat": 43.3608881,
    "lon": -5.8424315,
    "timestamp": "2023-06-28T16:35:01Z",
    "version": 5,
    "changeset": 137886587,
    "user": "vsuarezp",
    "uid": 3406892,
    "tags": {
      "addr:city": "Oviedo",
      "amenity": "restaurant",
      "indoor_seating": "yes",
      "name": "Meraki",
      "outdoor_seating": "yes",
      "wheelchair": "no"
    }
  },
  {
    "type": "node",
    "id": 2295904413,
    "lat": 43.3606148,
    "lon": -5.8429255,
    "timestamp": "2013-05-08T13:55:53Z",
    "version": 1,
    "changeset": 16030087,
    "user": "cafeole",
    "uid": 329082,
    "tags": {
      "amenity": "pub",
      "name": "El Paraguas"
    }
  },
  {
    "type": "node",
    "id": 2297547626,
    "lat": 43.3595563,
    "lon": -5.9181209,
    "timestamp": "2018-08-29T18:56:05Z",
    "version": 4,
    "changeset": 62116550,
    "user": "rogorido",
    "uid": 2689851,
    "tags": {
      "amenity": "bar",
      "name": "El Roque",
      "wheelchair": "no"
    }
  },
  {
    "type": "node",
    "id": 2353292667,
    "lat": 43.3689912,
    "lon": -5.8428996,
    "timestamp": "2024-04-08T20:56:10Z",
    "version": 5,
    "changeset": 149752725,
    "user": "DaniSagan",
    "uid": 2327451,
    "tags": {
      "addr:city": "Oviedo / Uviéu",
      "amenity": "restaurant",
      "name": "La Chata"
    }
  },
  {
    "type": "node",
    "id": 2353292674,
    "lat": 43.3674657,
    "lon": -5.8445361,
    "timestamp": "2025-04-09T13:59:03Z",
    "version": 6,
    "changeset": 164726151,
    "user": "bermiego",
    "uid": 3699758,
    "tags": {
      "addr:city": "Oviedo / Uviéu",
      "addr:street": "Calle Joaquín Vaquero Palacios",
      "amenity": "bar",
      "check_date": "2025-04-09",
      "indoor_seating": "yes",
      "name": "Flandes",
      "outdoor_seating": "yes"
    }
  },
  {
    "type": "node",
    "id": 2353292675,
    "lat": 43.3676313,
    "lon": -5.8454906,
    "timestamp": "2023-05-26T21:32:37Z",
    "version": 5,
    "changeset": 136604517,
    "user": "bermiego",
    "uid": 3699758,
    "tags": {
      "addr:city": "Oviedo / Uviéu",
      "amenity": "bar",
      "check_date": "2023-05-26",
      "name": "Onde Rober"
    }
  },
  {
    "type": "node",
    "id": 2353297102,
    "lat": 43.3642881,
    "lon": -5.844445,
    "timestamp": "2023-07-04T17:28:04Z",
    "version": 6,
    "changeset": 138116945,
    "user": "vsuarezp",
    "uid": 3406892,
    "tags": {
      "addr:city": "Oviedo / Uviéu",
      "amenity": "restaurant",
      "check_date": "2023-05-04",
      "indoor_seating": "yes",
      "name": "Sidrería la Pumarada",
      "outdoor_seating": "yes"
    }
  },
  {
    "type": "node",
    "id": 2353298211,
    "lat": 43.3642234,
    "lon": -5.8446305,
    "timestamp": "2023-07-04T17:28:00Z",
    "version": 7,
    "changeset": 138116945,
    "user": "vsuarezp",
    "uid": 3406892,
    "tags": {
      "addr:city": "Oviedo / Uviéu",
      "amenity": "restaurant",
      "check_date": "2023-05-04",
      "indoor_seating": "yes",
      "name": "Sidrería Tierra Astur Parrilla",
      "outdoor_seating": "yes"
    }
  },
  {
    "type": "node",
    "id": 2353299591,
    "lat": 43.3639087,
    "lon": -5.8441777,
    "timestamp": "2024-01-20T13:03:58Z",
    "version": 9,
    "changeset": 146477879,
    "user": "bermiego",
    "uid": 3699758,
    "tags": {
      "addr:housenumber": "1",
      "addr:street": "Gascona",
      "amenity": "restaurant",
      "indoor_seating": "yes",
      "name": "Sidrería Tierra Astur",
      "outdoor_seating": "yes",
      "phone": "+34 985202502",
      "website": "https://www.tierra-astur.com/"
    }
  },
  {
    "type": "node",
    "id": 2353300272,
    "lat": 43.3640404,
    "lon": -5.8443688,
    "timestamp": "2025-04-17T13:43:23Z",
    "version": 11,
    "changeset": 165072843,
    "user": "Oviedo1997",
    "uid": 17349438,
    "tags": {
      "addr:city": "Oviedo / Uviéu",
      "addr:housenumber": "5",
      "addr:street": "Gascona",
      "amenity": "restaurant",
      "check_date": "2023-05-04",
      "indoor_seating": "yes",
      "name": "Sidrería El Ferroviario",
      "outdoor_seating": "yes",
      "phone": "+34 985225215"
    }
  },
  {
    "type": "node",
    "id": 2353301328,
    "lat": 43.3640796,
    "lon": -5.8444188,
    "timestamp": "2025-04-17T13:43:23Z",
    "version": 8,
    "changeset": 165072843,
    "user": "Oviedo1997",
    "uid": 17349438,
    "tags": {
      "addr:city": "Oviedo / Uviéu",
      "addr:housenumber": "7",
      "addr:postcode": "33001",
      "addr:street": "Calle Gascona",
      "amenity": "restaurant",
      "check_date": "2023-05-04",
      "indoor_seating": "yes",
      "name": "A Feira Pulperías",
      "outdoor_seating": "yes"
    }
  },
  {
    "type": "node",
    "id": 2353302065,
    "lat": 43.3644432,
    "lon": -5.843774,
    "timestamp": "2013-06-20T10:15:50Z",
    "version": 1,
    "changeset": 16627810,
    "user": "pabloa1973",
    "uid": 1565684,
    "tags": {
      "amenity": "restaurant",
      "name": "Sidrería la Tata"
    }
  },
  {
    "type": "node",
    "id": 2353303110,
    "lat": 43.3640819,
    "lon": -5.8421011,
    "timestamp": "2021-10-30T21:32:57Z",
    "version": 6,
    "changeset": 113175074,
    "user": "bermiego",
    "uid": 3699758,
    "tags": {
      "addr:city": "Oviedo / Uviéu",
      "addr:street": "Calle Martínez Vigil",
      "amenity": "pub",
      "name": "La Salvaje",
      "website": "https://www.lasalvajeoviedo.com/"
    }
  },
  {
    "type": "node",
    "id": 2353304489,
    "lat": 43.3643071,
    "lon": -5.8416023,
    "timestamp": "2023-08-11T09:01:34Z",
    "version": 7,
    "changeset": 139740467,
    "user": "DaniSagan",
    "uid": 2327451,
    "tags": {
      "addr:city": "Oviedo / Uviéu",
      "addr:street": "Calle Martínez Vigil",
      "amenity": "restaurant",
      "cuisine": "international;tapas;tea",
      "diet:vegan": "yes",
      "internet_access": "wlan",
      "name": "Manglar",
      "outdoor_seating": "yes",
      "phone": "+34 984 06 26 99"
    }
  },
  {
    "type": "node",
    "id": 2353323707,
    "lat": 43.344484,
    "lon": -5.9723323,
    "timestamp": "2023-08-15T21:30:54Z",
    "version": 2,
    "changeset": 139936594,
    "user": "daferto",
    "uid": 631226,
    "tags": {
      "addr:housenumber": "18",
      "addr:postcode": "33119",
      "addr:street": "Calle Aranjuez",
      "amenity": "bar",
      "contact:facebook": "100054523507569",
      "name": "El Duende",
      "opening_hours": "Tu-Su 09:00-00:00",
      "phone": "985 78 46 63"
    }
  },
  {
    "type": "node",
    "id": 2353467015,
    "lat": 43.3667806,
    "lon": -5.8432888,
    "timestamp": "2024-04-28T12:11:01Z",
    "version": 8,
    "changeset": 150615603,
    "user": "bermiego",
    "uid": 3699758,
    "tags": {
      "addr:city": "Oviedo / Uviéu",
      "addr:street": "Calle Fernando Vela",
      "amenity": "fast_food",
      "brand": "Domino's",
      "brand:wikidata": "Q839466",
      "brand:wikipedia": "en:Domino's Pizza",
      "cuisine": "pizza",
      "indoor_seating": "yes",
      "name": "Domino's",
      "outdoor_seating": "yes",
      "takeaway": "yes"
    }
  },
  {
    "type": "node",
    "id": 2353467098,
    "lat": 43.3659722,
    "lon": -5.8432375,
    "timestamp": "2023-07-23T17:38:46Z",
    "version": 6,
    "changeset": 138904459,
    "user": "bermiego",
    "uid": 3699758,
    "tags": {
      "addr:city": "Oviedo / Uviéu",
      "addr:housenumber": "21",
      "addr:postcode": "33001",
      "addr:street": "Calle General Elorza",
      "amenity": "fast_food",
      "brand": "Telepizza",
      "brand:wikidata": "Q2699863",
      "brand:wikipedia": "es:Telepizza",
      "cuisine": "pizza",
      "indoor_seating": "yes",
      "name": "Telepizza",
      "outdoor_seating": "no",
      "takeaway": "yes"
    }
  },
  {
    "type": "node",
    "id": 2361453869,
    "lat": 43.3639763,
    "lon": -5.8477442,
    "timestamp": "2019-07-16T22:41:16Z",
    "version": 6,
    "changeset": 72325127,
    "user": "Juan_Carlos_G_F-imports",
    "uid": 2802925,
    "tags": {
      "addr:city": "Oviedo",
      "addr:country": "ES",
      "amenity": "restaurant",
      "cuisine": "regional",
      "name": "A Carballeira",
      "outdoor_seating": "yes"
    }
  },
  {
    "type": "node",
    "id": 2361461905,
    "lat": 43.369573,
    "lon": -5.8423186,
    "timestamp": "2023-09-19T11:42:43Z",
    "version": 4,
    "changeset": 141465211,
    "user": "bermiego",
    "uid": 3699758,
    "tags": {
      "addr:city": "Oviedo / Uviéu",
      "addr:street": "Calle Historiador Juan Uria",
      "amenity": "cafe",
      "indoor_seating": "yes",
      "name": "Café Pertierra",
      "outdoor_seating": "yes"
    }
  },
  {
    "type": "node",
    "id": 2393970215,
    "lat": 43.3607421,
    "lon": -5.8445762,
    "timestamp": "2023-07-05T15:27:16Z",
    "version": 11,
    "changeset": 138152804,
    "user": "vsuarezp",
    "uid": 3406892,
    "tags": {
      "addr:city": "Oviedo",
      "addr:housename": "La Genuina",
      "addr:housenumber": "28",
      "addr:postcode": "33003",
      "addr:street": "Calle Cimadevilla",
      "air_conditioning": "yes",
      "amenity": "restaurant",
      "cuisine": "arrocería",
      "diet:halal": "no",
      "diet:kosher": "no",
      "diet:vegetarian": "no",
      "indoor_seating": "yes",
      "name": "La Genuina",
      "outdoor_seating": "no",
      "payment:credit_cards": "yes",
      "payment:debit_cards": "yes",
      "phone": "+34 985213606",
      "smoking": "no",
      "wheelchair": "no"
    }
  },
  {
    "type": "node",
    "id": 2393978639,
    "lat": 43.3555485,
    "lon": -5.8436666,
    "timestamp": "2021-01-12T13:50:11Z",
    "version": 4,
    "changeset": 97378312,
    "user": "bermiego",
    "uid": 3699758,
    "tags": {
      "addr:city": "Oviedo",
      "addr:housename": "Km 0",
      "addr:housenumber": "34",
      "addr:postcode": "33009",
      "addr:street": "Calle Arzobispo Guisasola",
      "amenity": "bar",
      "name": "Km 0",
      "phone": "+34 985219549"
    }
  },
  {
    "type": "node",
    "id": 2405561565,
    "lat": 43.3720524,
    "lon": -5.8493356,
    "timestamp": "2024-02-22T15:32:13Z",
    "version": 3,
    "changeset": 147778426,
    "user": "Oviedo1997",
    "uid": 17349438,
    "tags": {
      "addr:city": "Oviedo / Uviéu",
      "addr:postcode": "33012",
      "addr:street": "Calle Calderón de la Barca",
      "amenity": "bar",
      "name": "Ferreros"
    }
  },
  {
    "type": "node",
    "id": 2405563403,
    "lat": 43.3657246,
    "lon": -5.8695474,
    "timestamp": "2018-05-05T09:08:42Z",
    "version": 3,
    "changeset": 58702440,
    "user": "DaniSagan",
    "uid": 2327451,
    "tags": {
      "addr:street": "Favila",
      "amenity": "bar",
      "name": "El Choque"
    }
  },
  {
    "type": "node",
    "id": 2567894601,
    "lat": 43.3654785,
    "lon": -5.8857889,
    "timestamp": "2018-12-22T18:48:28Z",
    "version": 5,
    "changeset": 65700601,
    "user": "bermiego",
    "uid": 3699758,
    "tags": {
      "addr:housenumber": "6",
      "addr:street": "Proaza",
      "amenity": "restaurant",
      "name": "Restaurante El Pisón"
    }
  },
  {
    "type": "node",
    "id": 2567896642,
    "lat": 43.3714144,
    "lon": -5.8534969,
    "timestamp": "2022-03-17T12:47:59Z",
    "version": 5,
    "changeset": 118592389,
    "user": "vsuarezp",
    "uid": 3406892,
    "tags": {
      "addr:city": "Oviedo / Uviéu",
      "addr:housenumber": "10",
      "addr:street": "Menendez y Pelayo",
      "amenity": "restaurant",
      "name": "Restaurante Monte Naranco",
      "opening_hours": "Mo-Su 07:30-01:00"
    }
  },
  {
    "type": "node",
    "id": 2568332710,
    "lat": 43.3641721,
    "lon": -5.8564613,
    "timestamp": "2019-12-20T08:52:23Z",
    "version": 3,
    "changeset": 78674397,
    "user": "sanchi",
    "uid": 170106,
    "tags": {
      "addr:street": "Asturias",
      "amenity": "restaurant",
      "name": "Mesón Casa Pedro",
      "phone": "+34 985 24 39 59"
    }
  },
  {
    "type": "node",
    "id": 2568343239,
    "lat": 43.3635034,
    "lon": -5.8549082,
    "timestamp": "2013-12-06T17:51:34Z",
    "version": 1,
    "changeset": 19310042,
    "user": "Osmand+",
    "uid": 1433092,
    "tags": {
      "amenity": "cafe",
      "name": "La Cala"
    }
  },
  {
    "type": "node",
    "id": 2568421462,
    "lat": 43.3635694,
    "lon": -5.8461586,
    "timestamp": "2024-10-29T09:58:54Z",
    "version": 7,
    "changeset": 158490007,
    "user": "kapazao_import",
    "uid": 8770019,
    "tags": {
      "addr:city": "Oviedo / Uviéu",
      "addr:housenumber": "11",
      "addr:postcode": "33001",
      "addr:street": "Calle Luna",
      "amenity": "pub",
      "contact:facebook": "https://www.facebook.com/dannys.jazz",
      "contact:twitter": "dannysjazz",
      "email": "contacto@dannysjazz.es",
      "name": "ThunderBitch Club",
      "website": "http://www.dannysjazz.es/"
    }
  },
  {
    "type": "node",
    "id": 2675878448,
    "lat": 43.3639639,
    "lon": -5.8442501,
    "timestamp": "2025-04-17T13:43:23Z",
    "version": 6,
    "changeset": 165072843,
    "user": "Oviedo1997",
    "uid": 17349438,
    "tags": {
      "addr:housenumber": "3",
      "addr:street": "Gascona",
      "amenity": "restaurant",
      "cuisine": "regional",
      "name": "Las Güelas Parrilla"
    }
  },
  {
    "type": "node",
    "id": 2685452533,
    "lat": 43.3593692,
    "lon": -5.8431682,
    "timestamp": "2023-02-07T17:00:54Z",
    "version": 4,
    "changeset": 132216083,
    "user": "DaniSagan",
    "uid": 2327451,
    "tags": {
      "addr:city": "Uviéu - Oviedo",
      "addr:housenumber": "13",
      "addr:street": "Marqués de Gaztañaga",
      "amenity": "restaurant",
      "name": "Goya 13",
      "wheelchair": "no"
    }
  },
  {
    "type": "node",
    "id": 2685612257,
    "lat": 43.3662282,
    "lon": -5.8520322,
    "timestamp": "2023-11-13T13:28:34Z",
    "version": 7,
    "changeset": 143970947,
    "user": "bermiego",
    "uid": 3699758,
    "tags": {
      "addr:city": "Oviedo / Uviéu",
      "addr:housenumber": "3",
      "addr:street": "Manuel Pedregal",
      "amenity": "restaurant",
      "indoor_seating": "yes",
      "name": "Pizzería La Competencia",
      "outdoor_seating": "yes"
    }
  },
  {
    "type": "node",
    "id": 2694606960,
    "lat": 43.3648802,
    "lon": -5.8532771,
    "timestamp": "2025-02-23T14:58:43Z",
    "version": 6,
    "changeset": 162852279,
    "user": "Winzling2",
    "uid": 14703952,
    "tags": {
      "addr:city": "Oviedo",
      "addr:housenumber": "3",
      "addr:street": "Independencia",
      "amenity": "pub",
      "check_date": "2023-05-19",
      "indoor_seating": "yes",
      "name": "La Paloma",
      "outdoor_seating": "yes",
      "phone": "+34 985235397"
    }
  },
  {
    "type": "node",
    "id": 2694656049,
    "lat": 43.3665555,
    "lon": -5.8533694,
    "timestamp": "2023-04-17T07:55:32Z",
    "version": 5,
    "changeset": 135003440,
    "user": "bermiego",
    "uid": 3699758,
    "tags": {
      "addr:city": "Oviedo / Uviéu",
      "amenity": "pub",
      "name": "Café Sherlock"
    }
  },
  {
    "type": "node",
    "id": 2694657268,
    "lat": 43.3666755,
    "lon": -5.8532078,
    "timestamp": "2022-08-09T06:57:16Z",
    "version": 3,
    "changeset": 124669417,
    "user": "bermiego",
    "uid": 3699758,
    "tags": {
      "amenity": "pub",
      "name": "El Paripé"
    }
  },
  {
    "type": "node",
    "id": 2694658030,
    "lat": 43.3664567,
    "lon": -5.8529497,
    "timestamp": "2024-07-07T09:02:03Z",
    "version": 3,
    "changeset": 153651394,
    "user": "vsuarezp",
    "uid": 3406892,
    "tags": {
      "amenity": "pub",
      "indoor_seating": "yes",
      "name": "Oviedo Cocktail",
      "outdoor_seating": "yes"
    }
  },
  {
    "type": "node",
    "id": 2694658183,
    "lat": 43.3666307,
    "lon": -5.8530115,
    "timestamp": "2022-08-09T06:57:16Z",
    "version": 3,
    "changeset": 124669417,
    "user": "bermiego",
    "uid": 3699758,
    "tags": {
      "amenity": "pub",
      "name": "Bodega Avelino"
    }
  },
  {
    "type": "node",
    "id": 2694659036,
    "lat": 43.3665994,
    "lon": -5.8528649,
    "timestamp": "2024-07-07T09:02:35Z",
    "version": 4,
    "changeset": 153651394,
    "user": "vsuarezp",
    "uid": 3406892,
    "tags": {
      "amenity": "pub",
      "indoor_seating": "yes",
      "name": "El Antiguo Molinillo",
      "outdoor_seating": "yes"
    }
  },
  {
    "type": "node",
    "id": 2694659500,
    "lat": 43.3665518,
    "lon": -5.8526879,
    "timestamp": "2022-08-09T06:57:16Z",
    "version": 3,
    "changeset": 124669417,
    "user": "bermiego",
    "uid": 3699758,
    "tags": {
      "amenity": "pub",
      "name": "Secreto a voces"
    }
  },
  {
    "type": "node",
    "id": 2694660734,
    "lat": 43.3664948,
    "lon": -5.8524725,
    "timestamp": "2024-07-07T09:02:27Z",
    "version": 5,
    "changeset": 153651394,
    "user": "vsuarezp",
    "uid": 3406892,
    "tags": {
      "addr:housenumber": "6",
      "addr:street": "Calle Manuel Pedregal",
      "amenity": "pub",
      "indoor_seating": "yes",
      "name": "El Valle",
      "outdoor_seating": "yes"
    }
  },
  {
    "type": "node",
    "id": 2694661243,
    "lat": 43.3663966,
    "lon": -5.8527498,
    "timestamp": "2024-09-01T19:42:15Z",
    "version": 6,
    "changeset": 156069997,
    "user": "ray331",
    "uid": 11726860,
    "tags": {
      "addr:city": "Oviedo",
      "addr:housenumber": "15",
      "addr:postcode": "33001",
      "addr:street": "Calle Manuel Pedregal",
      "amenity": "restaurant",
      "cuisine": "spanish;asturian",
      "indoor_seating": "yes",
      "name": "La Comtienda",
      "outdoor_seating": "yes",
      "phone": "+34 984 493 018",
      "website": "https://lacomtiendaoviedo.es/"
    }
  },
  {
    "type": "node",
    "id": 2694661422,
    "lat": 43.3664469,
    "lon": -5.8523004,
    "timestamp": "2025-04-09T21:12:55Z",
    "version": 8,
    "changeset": 164743177,
    "user": "Oviedo1997",
    "uid": 17349438,
    "tags": {
      "addr:city": "Oviedo / Uviéu",
      "addr:street": "Calle Manuel Pedregal",
      "amenity": "restaurant",
      "cuisine": "regional;spanish;coffee_shop;tapas",
      "indoor_seating": "yes",
      "name": "La Lola",
      "opening_hours": "Mo-Th 11:00-01:30; Fr 11:00-02:30; Sa 12:00-02:30; Su 12:00-01:30",
      "outdoor_seating": "yes",
      "phone": "984 284 549",
      "website": "https://www.lalolaoviedo.com/"
    }
  },
  {
    "type": "node",
    "id": 2694672810,
    "lat": 43.3663058,
    "lon": -5.8523842,
    "timestamp": "2024-07-07T09:02:19Z",
    "version": 6,
    "changeset": 153651394,
    "user": "vsuarezp",
    "uid": 3406892,
    "tags": {
      "amenity": "pub",
      "indoor_seating": "yes",
      "name": "Monalisa",
      "outdoor_seating": "yes"
    }
  },
  {
    "type": "node",
    "id": 2707548398,
    "lat": 43.3649614,
    "lon": -5.8548978,
    "timestamp": "2023-04-18T04:26:19Z",
    "version": 4,
    "changeset": 135039705,
    "user": "HubMiner",
    "uid": 238419,
    "tags": {
      "addr:city": "Oviedo / Uviéu",
      "addr:housenumber": "18",
      "addr:postcode": "33004",
      "addr:street": "Independencia",
      "amenity": "restaurant",
      "name": "Independencia Coffee & Food",
      "opening_hours": "Mo-Fr 07:15-21:00; Sa 08:30-14:00",
      "phone": "+34 984 28 45 79"
    }
  },
  {
    "type": "node",
    "id": 2731792505,
    "lat": 43.3253463,
    "lon": -5.7896141,
    "timestamp": "2024-06-28T01:38:05Z",
    "version": 5,
    "changeset": 153271339,
    "user": "b-jazz-bot",
    "uid": 9451067,
    "tags": {
      "addr:city": "Anieves",
      "addr:housenumber": "28 bis",
      "addr:postcode": "33919",
      "addr:street": "Carretera General Tudela de Agüeria",
      "amenity": "restaurant",
      "cuisine": "regional",
      "name": "Bar Camacho",
      "opening_hours": "Mo-Su 09:00-23:00; Tu off",
      "phone": "+34 985 78 90 09",
      "website": "https://www.barcamacho.es/"
    }
  },
  {
    "type": "node",
    "id": 2746953572,
    "lat": 43.3711903,
    "lon": -5.8352208,
    "timestamp": "2022-12-29T13:45:29Z",
    "version": 3,
    "changeset": 130646664,
    "user": "bermiego",
    "uid": 3699758,
    "tags": {
      "addr:city": "Oviedo / Uviéu",
      "amenity": "bar",
      "name": "El Bodegón de Teatinos"
    }
  },
  {
    "type": "node",
    "id": 2746954335,
    "lat": 43.3715415,
    "lon": -5.8358592,
    "timestamp": "2023-09-09T13:14:18Z",
    "version": 3,
    "changeset": 141023858,
    "user": "Mateusz Konieczny - bot account",
    "uid": 3199858,
    "tags": {
      "addr:city": "Oviedo",
      "addr:postcode": "33011",
      "addr:street": "Calle Puerto de San Isidro",
      "amenity": "bar",
      "brewery": "yes",
      "name": "La Botica Indiana"
    }
  },
  {
    "type": "node",
    "id": 2746956047,
    "lat": 43.3715957,
    "lon": -5.8366872,
    "timestamp": "2023-11-29T18:42:26Z",
    "version": 3,
    "changeset": 144599952,
    "user": "Oviedo1997",
    "uid": 17349438,
    "tags": {
      "addr:city": "Oviedo",
      "addr:postcode": "33011",
      "addr:street": "Calle Bermúdez de Castro",
      "amenity": "bar",
      "name": "Casa Carmina",
      "note": "Sidrería"
    }
  },
  {
    "type": "node",
    "id": 2751582153,
    "lat": 43.3785357,
    "lon": -5.8630868,
    "timestamp": "2021-10-05T15:05:26Z",
    "version": 5,
    "changeset": 112127820,
    "user": "Hugoren Martinako",
    "uid": 3392826,
    "tags": {
      "addr:city": "Oviedo",
      "addr:postcode": "33012",
      "addr:street": "Carretera del Naranco",
      "amenity": "restaurant",
      "contact:phone": "+34 985 11 42 05",
      "cuisine": "regional",
      "name": "Restaurante Parrilla Sidrería El Mirador",
      "nohousenumber": "yes"
    }
  },
  {
    "type": "node",
    "id": 2751582156,
    "lat": 43.3785572,
    "lon": -5.8637978,
    "timestamp": "2023-09-04T10:17:43Z",
    "version": 3,
    "changeset": 140797152,
    "user": "Nordpfeil",
    "uid": 1337142,
    "tags": {
      "amenity": "restaurant",
      "indoor_seating": "yes",
      "name": "Restaurante Sidrería Vista Alegre",
      "outdoor_seating": "yes"
    }
  },
  {
    "type": "node",
    "id": 2751585035,
    "lat": 43.3616581,
    "lon": -5.8426051,
    "timestamp": "2024-01-07T13:39:22Z",
    "version": 5,
    "changeset": 145991545,
    "user": "Oviedo1997",
    "uid": 17349438,
    "tags": {
      "addr:city": "Uviéu - Oviedo",
      "addr:street": "Calle Canóniga",
      "amenity": "bar",
      "indoor_seating": "yes",
      "name": "Zoo",
      "outdoor_seating": "no"
    }
  },
  {
    "type": "node",
    "id": 2751585045,
    "lat": 43.3617671,
    "lon": -5.8422035,
    "timestamp": "2024-01-07T13:39:22Z",
    "version": 8,
    "changeset": 145991545,
    "user": "Oviedo1997",
    "uid": 17349438,
    "tags": {
      "addr:city": "Oviedo",
      "addr:housenumber": "18",
      "addr:postcode": "33003",
      "addr:street": "Calle Canóniga",
      "air_conditioning": "yes",
      "amenity": "pub",
      "indoor_seating": "yes",
      "name": "Per Se",
      "outdoor_seating": "yes",
      "payment:credit_cards": "yes",
      "payment:debit_cards": "no",
      "smoking": "no",
      "wheelchair": "no"
    }
  },
  {
    "type": "node",
    "id": 2751585047,
    "lat": 43.3615369,
    "lon": -5.8428884,
    "timestamp": "2024-07-07T08:52:51Z",
    "version": 6,
    "changeset": 153651394,
    "user": "vsuarezp",
    "uid": 3406892,
    "tags": {
      "addr:city": "Oviedo / Uviéu",
      "addr:housenumber": "8",
      "addr:postcode": "33003",
      "addr:street": "Calle Canóniga",
      "amenity": "pub",
      "indoor_seating": "yes",
      "name": "El Mami",
      "outdoor_seating": "no"
    }
  },
  {
    "type": "node",
    "id": 2751587220,
    "lat": 43.361404,
    "lon": -5.8441415,
    "timestamp": "2024-07-07T08:54:36Z",
    "version": 4,
    "changeset": 153651394,
    "user": "vsuarezp",
    "uid": 3406892,
    "tags": {
      "amenity": "pub",
      "indoor_seating": "no",
      "name": "Chevrolet",
      "outdoor_seating": "yes"
    }
  },
  {
    "type": "node",
    "id": 2751587224,
    "lat": 43.3616003,
    "lon": -5.8451785,
    "timestamp": "2024-02-03T18:17:21Z",
    "version": 7,
    "changeset": 147029799,
    "user": "Oviedo1997",
    "uid": 17349438,
    "tags": {
      "addr:city": "Oviedo",
      "addr:housenumber": "6",
      "addr:postcode": "33003",
      "addr:street": "Calle Altamirano",
      "air_conditioning": "yes",
      "amenity": "pub",
      "indoor_seating": "yes",
      "name": "BolaBana",
      "outdoor_seating": "no",
      "smoking": "no"
    }
  },
  {
    "type": "node",
    "id": 2751587225,
    "lat": 43.3615012,
    "lon": -5.8453843,
    "timestamp": "2024-03-11T20:36:49Z",
    "version": 7,
    "changeset": 148522026,
    "user": "vsuarezp",
    "uid": 3406892,
    "tags": {
      "addr:city": "Oviedo",
      "addr:country": "ES",
      "addr:housenumber": "9",
      "addr:postcode": "33003",
      "addr:street": "Calle Altamirano",
      "amenity": "restaurant",
      "check_date": "2023-05-10",
      "indoor_seating": "yes",
      "name": "La Leyenda del Gallo",
      "outdoor_seating": "no",
      "phone": "+34 984840684",
      "website": "https://cartahosteleria.es/laleyendadelgallo/"
    }
  },
  {
    "type": "node",
    "id": 2751600803,
    "lat": 43.3628236,
    "lon": -5.8441325,
    "timestamp": "2023-03-19T00:16:51Z",
    "version": 4,
    "changeset": 133842279,
    "user": "bermiego",
    "uid": 3699758,
    "tags": {
      "addr:city": "Oviedo / Uviéu",
      "amenity": "bar",
      "indoor_seating": "yes",
      "name": "Kibo bar",
      "outdoor_seating": "yes"
    }
  },
  {
    "type": "node",
    "id": 2751600804,
    "lat": 43.3634575,
    "lon": -5.8440013,
    "timestamp": "2024-09-01T12:23:15Z",
    "version": 5,
    "changeset": 156051943,
    "user": "ray331",
    "uid": 11726860,
    "tags": {
      "amenity": "pub",
      "check_date": "2023-05-04",
      "indoor_seating": "yes",
      "name": "El molinón",
      "outdoor_seating": "yes",
      "phone": "+34 984 06 15 89"
    }
  },
  {
    "type": "node",
    "id": 2751600807,
    "lat": 43.3638064,
    "lon": -5.8445487,
    "timestamp": "2023-10-11T21:02:54Z",
    "version": 5,
    "changeset": 142452780,
    "user": "bermiego",
    "uid": 3699758,
    "tags": {
      "amenity": "restaurant",
      "indoor_seating": "yes",
      "name": "El asador de Aranda",
      "noexit": "yes",
      "outdoor_seating": "yes"
    }
  },
  {
    "type": "node",
    "id": 2751609184,
    "lat": 43.3621156,
    "lon": -5.8458612,
    "timestamp": "2023-12-23T11:32:19Z",
    "version": 8,
    "changeset": 145433915,
    "user": "vsuarezp",
    "uid": 3406892,
    "tags": {
      "addr:city": "Oviedo / Uviéu",
      "air_conditioning": "yes",
      "amenity": "pub",
      "indoor_seating": "yes",
      "name": "El Reloj de Porlier",
      "outdoor_seating": "yes",
      "payment:credit_cards": "yes",
      "payment:debit_cards": "no",
      "smoking": "outside",
      "wheelchair": "no"
    }
  },
  {
    "type": "node",
    "id": 2760809718,
    "lat": 43.3614297,
    "lon": -5.8552348,
    "timestamp": "2024-07-07T08:42:45Z",
    "version": 5,
    "changeset": 153651394,
    "user": "vsuarezp",
    "uid": 3406892,
    "tags": {
      "amenity": "restaurant",
      "cuisine": "mexican",
      "indoor_seating": "yes",
      "name": "La Catrina",
      "outdoor_seating": "yes"
    }
  },
  {
    "type": "node",
    "id": 2760874037,
    "lat": 43.3583326,
    "lon": -5.8630983,
    "timestamp": "2023-11-10T11:24:25Z",
    "version": 4,
    "changeset": 143858754,
    "user": "b-jazz-bot",
    "uid": 9451067,
    "tags": {
      "addr:city": "Oviedo/Uviéu",
      "addr:housenumber": "9 bajo",
      "addr:postcode": "33006",
      "addr:street": "Calle Rafael Altamira",
      "amenity": "restaurant",
      "cuisine": "pizza",
      "name": "La Sibarita",
      "note": "985 11 55 81 Pedidos a domicilio",
      "old_name": "Pizza Juan",
      "phone": "+34 984 18 67 58",
      "website": "https://www.pizzajuan.es/"
    }
  },
  {
    "type": "node",
    "id": 2760884845,
    "lat": 43.3679478,
    "lon": -5.8482275,
    "timestamp": "2023-11-10T11:24:24Z",
    "version": 7,
    "changeset": 143858754,
    "user": "b-jazz-bot",
    "uid": 9451067,
    "tags": {
      "addr:city": "Oviedo / Uviéu",
      "addr:housenumber": "22",
      "addr:postcode": "33011",
      "addr:street": "Calle Llano Ponte",
      "amenity": "restaurant",
      "cuisine": "pizza",
      "name": "Pizza Juan",
      "phone": "+34 985115581",
      "website": "https://www.pizzajuan.es/"
    }
  },
  {
    "type": "node",
    "id": 2850919610,
    "lat": 43.3673663,
    "lon": -5.8748099,
    "timestamp": "2022-09-07T07:24:47Z",
    "version": 5,
    "changeset": 125887263,
    "user": "bermiego",
    "uid": 3699758,
    "tags": {
      "addr:city": "Uviéu/Oviedo",
      "addr:housenumber": "29",
      "addr:postcode": "33012",
      "addr:street": "Paseo de La Florida",
      "amenity": "fast_food",
      "brand": "Domino's",
      "brand:wikidata": "Q839466",
      "brand:wikipedia": "en:Domino's Pizza",
      "cuisine": "pizza",
      "name": "Domino's",
      "phone": "+34 984750617",
      "takeaway": "yes"
    }
  },
  {
    "type": "node",
    "id": 2883901102,
    "lat": 43.3582217,
    "lon": -5.8699099,
    "timestamp": "2021-02-05T08:09:47Z",
    "version": 3,
    "changeset": 98751185,
    "user": "Johnbo",
    "uid": 915796,
    "tags": {
      "addr:city": "Oviedo",
      "addr:housenumber": "92",
      "addr:postcode": "33006",
      "addr:street": "Calle Fuertes Acevedo",
      "amenity": "restaurant",
      "cuisine": "regional",
      "facebook": "https://www.facebook.com/marayumesonrestaurante/",
      "name": "Marayu",
      "phone": "+34 985256824"
    }
  },
  {
    "type": "node",
    "id": 2883905403,
    "lat": 43.3630943,
    "lon": -5.8456621,
    "timestamp": "2024-01-23T20:46:58Z",
    "version": 11,
    "changeset": 146607825,
    "user": "DaniSagan",
    "uid": 2327451,
    "tags": {
      "amenity": "restaurant",
      "check_date": "2023-05-10",
      "cuisine": "regional",
      "indoor_seating": "yes",
      "name": "Casa Conrado",
      "outdoor_seating": "yes",
      "phone": "+34 985223919",
      "website": "http://casaconrado.com/"
    }
  },
  {
    "type": "node",
    "id": 2885550566,
    "lat": 43.3613972,
    "lon": -5.8555225,
    "timestamp": "2025-01-19T10:00:31Z",
    "version": 3,
    "changeset": 161517839,
    "user": "DaniSagan",
    "uid": 2327451,
    "tags": {
      "amenity": "restaurant",
      "contact:instagram": "https://www.instagram.com/saborasturianoyalgomas/",
      "cuisine": "regional",
      "indoor_seating": "yes",
      "name": "Sabor Asturiano & Algo Más",
      "outdoor_seating": "yes"
    }
  },
  {
    "type": "node",
    "id": 3005068567,
    "lat": 43.3693881,
    "lon": -5.8058326,
    "timestamp": "2014-08-08T15:07:50Z",
    "version": 1,
    "changeset": 24617825,
    "user": "narvatu",
    "uid": 347335,
    "tags": {
      "amenity": "restaurant",
      "cuisine": "regional",
      "name": "Sidreria El Cabrero"
    }
  },
  {
    "type": "node",
    "id": 3005069417,
    "lat": 43.376888,
    "lon": -5.8015843,
    "timestamp": "2021-06-20T21:45:25Z",
    "version": 2,
    "changeset": 106681800,
    "user": "bermiego",
    "uid": 3699758,
    "tags": {
      "amenity": "restaurant",
      "cuisine": "regional",
      "name": "El Tonel"
    }
  },
  {
    "type": "node",
    "id": 3005072070,
    "lat": 43.377131,
    "lon": -5.8001808,
    "timestamp": "2018-02-22T20:24:30Z",
    "version": 3,
    "changeset": 56591024,
    "user": "bermiego",
    "uid": 3699758,
    "tags": {
      "addr:city": "Colloto",
      "amenity": "restaurant",
      "cuisine": "regional",
      "name": "Sidreria La Barrica"
    }
  },
  {
    "type": "node",
    "id": 3005072698,
    "lat": 43.3773327,
    "lon": -5.8003421,
    "timestamp": "2018-02-22T20:24:30Z",
    "version": 3,
    "changeset": 56591024,
    "user": "bermiego",
    "uid": 3699758,
    "tags": {
      "addr:city": "Colloto",
      "amenity": "restaurant",
      "cuisine": "regional",
      "name": "El llagar de Colloto"
    }
  },
  {
    "type": "node",
    "id": 3049024905,
    "lat": 43.3679876,
    "lon": -5.848394,
    "timestamp": "2019-07-16T22:41:22Z",
    "version": 3,
    "changeset": 72325127,
    "user": "Juan_Carlos_G_F-imports",
    "uid": 2802925,
    "tags": {
      "addr:city": "Oviedo",
      "addr:country": "ES",
      "addr:housenumber": "22",
      "addr:postcode": "33011",
      "addr:province": "Asturias",
      "addr:street": "Calle Llano Ponte",
      "amenity": "restaurant",
      "email": "sidreriaonis@gmail.com",
      "name": "Sidrería Onis",
      "phone": "+34 985080619",
      "website": "http://www.sidreriaonisoviedo.es/"
    }
  },
  {
    "type": "node",
    "id": 3049072819,
    "lat": 43.3677901,
    "lon": -5.8476002,
    "timestamp": "2019-07-16T22:41:22Z",
    "version": 2,
    "changeset": 72325127,
    "user": "Juan_Carlos_G_F-imports",
    "uid": 2802925,
    "tags": {
      "addr:city": "Oviedo",
      "addr:country": "ES",
      "addr:housenumber": "16",
      "addr:postcode": "33011",
      "addr:province": "Asturias",
      "addr:street": "Calle Llano Ponte",
      "amenity": "bar",
      "name": "Bar de IZA Motor"
    }
  },
  {
    "type": "node",
    "id": 3049456522,
    "lat": 43.3605358,
    "lon": -5.8474283,
    "timestamp": "2024-12-04T15:30:13Z",
    "version": 6,
    "changeset": 159923628,
    "user": "fischer25",
    "uid": 14012725,
    "tags": {
      "addr:city": "Oviedo",
      "addr:country": "ES",
      "addr:housenumber": "5",
      "addr:postcode": "33007",
      "addr:province": "Asturias",
      "addr:street": "Calle Suárez de la Riva",
      "amenity": "restaurant",
      "name": "Cocina Cabal",
      "opening_hours": "Tu-Sa 12:00-17:00, 20:00-01:00; Su 12:00-17:00",
      "phone": "+34 985027552",
      "website": "http://www.cocinacabal.com"
    }
  },
  {
    "type": "node",
    "id": 3050242197,
    "lat": 43.3636931,
    "lon": -5.8464252,
    "timestamp": "2024-10-21T15:30:59Z",
    "version": 7,
    "changeset": 158175748,
    "user": "Fuegon",
    "uid": 4035806,
    "tags": {
      "addr:city": "Oviedo",
      "addr:country": "ES",
      "addr:housenumber": "7",
      "addr:postcode": "33001",
      "addr:province": "Asturias",
      "addr:street": "Plaza del Carbayón",
      "amenity": "cafe",
      "contact:facebook": "https://www.facebook.com/pages/Cafe-Magazine-Oviedo/194972447182187",
      "email": "magazine@magazineoviedo.com",
      "indoor_seating": "yes",
      "name": "Magazine",
      "opening_hours": "Mo-Fr 08:00-21:00; Sa 19:00-18:00+",
      "outdoor_seating": "yes",
      "phone": "+34 985212205",
      "website": "http://magazineoviedo.com/"
    }
  },
  {
    "type": "node",
    "id": 3050242202,
    "lat": 43.363431,
    "lon": -5.8466942,
    "timestamp": "2024-08-02T18:53:39Z",
    "version": 7,
    "changeset": 154749631,
    "user": "vsuarezp",
    "uid": 3406892,
    "tags": {
      "addr:city": "Oviedo",
      "addr:country": "ES",
      "addr:housenumber": "3",
      "addr:postcode": "33001",
      "addr:province": "Asturias",
      "addr:street": "Plaza del Carbayón",
      "air_conditioning": "no",
      "amenity": "restaurant",
      "indoor_seating": "yes",
      "name": "Pulpería A Feira",
      "outdoor_seating": "yes",
      "phone": "+34 984 842 757",
      "smoking": "outside",
      "website": "https://afeirapulperias.es/a-feira-pulperia-oviedo/"
    }
  },
  {
    "type": "node",
    "id": 3050465307,
    "lat": 43.3620421,
    "lon": -5.8469384,
    "timestamp": "2023-12-23T11:31:34Z",
    "version": 13,
    "changeset": 145433915,
    "user": "vsuarezp",
    "uid": 3406892,
    "tags": {
      "addr:city": "Oviedo",
      "addr:country": "ES",
      "addr:housenumber": "8",
      "addr:postcode": "33003",
      "addr:province": "Asturias",
      "addr:street": "Calle San Francisco",
      "air_conditioning": "yes",
      "amenity": "restaurant",
      "diet:halal": "no",
      "diet:kosher": "no",
      "email": "info@casafermin.com",
      "indoor_seating": "yes",
      "name": "Casa Fermín",
      "outdoor_seating": "no",
      "payment:credit_cards": "yes",
      "payment:debit_cards": "no",
      "phone": "+34 985216452",
      "smoking": "no",
      "website": "https://www.casafermin.com/",
      "wheelchair": "yes"
    }
  },
  {
    "type": "node",
    "id": 3057779439,
    "lat": 43.3092194,
    "lon": -5.8194581,
    "timestamp": "2014-09-03T17:57:34Z",
    "version": 1,
    "changeset": 25210479,
    "user": "elemeje_01",
    "uid": 2243306,
    "tags": {
      "amenity": "restaurant"
    }
  },
  {
    "type": "node",
    "id": 3074086888,
    "lat": 43.3661701,
    "lon": -5.875907,
    "timestamp": "2023-01-20T20:09:07Z",
    "version": 4,
    "changeset": 131521586,
    "user": "DaniSagan",
    "uid": 2327451,
    "tags": {
      "addr:city": "Oviedo/Uviéu",
      "amenity": "cafe",
      "name": "El Buen Rincón",
      "outdoor_seating": "yes"
    }
  },
  {
    "type": "node",
    "id": 3074086889,
    "lat": 43.3681925,
    "lon": -5.873036,
    "timestamp": "2024-03-29T10:52:20Z",
    "version": 6,
    "changeset": 149305968,
    "user": "DaniSagan",
    "uid": 2327451,
    "tags": {
      "addr:city": "Oviedo/Uviéu",
      "amenity": "restaurant",
      "name": "Casa Prado",
      "outdoor_seating": "yes"
    }
  },
  {
    "type": "node",
    "id": 3074242062,
    "lat": 43.3671291,
    "lon": -5.8745888,
    "timestamp": "2023-01-20T20:09:07Z",
    "version": 3,
    "changeset": 131521586,
    "user": "DaniSagan",
    "uid": 2327451,
    "tags": {
      "amenity": "bar",
      "name": "Vinoteca 43º 22'",
      "outdoor_seating": "yes"
    }
  },
  {
    "type": "node",
    "id": 3074257011,
    "lat": 43.3683422,
    "lon": -5.8720442,
    "timestamp": "2023-12-28T09:59:59Z",
    "version": 3,
    "changeset": 145610148,
    "user": "DaniSagan",
    "uid": 2327451,
    "tags": {
      "amenity": "cafe",
      "check_date": "2023-12-28",
      "name": "Manhattan"
    }
  },
  {
    "type": "node",
    "id": 3074711870,
    "lat": 43.3686886,
    "lon": -5.8674649,
    "timestamp": "2022-09-07T07:29:32Z",
    "version": 2,
    "changeset": 125887454,
    "user": "bermiego",
    "uid": 3699758,
    "tags": {
      "addr:city": "Oviedo/Uviéu",
      "amenity": "cafe",
      "name": "Las Canteronas - café tapas"
    }
  },
  {
    "type": "node",
    "id": 3075086523,
    "lat": 43.3610414,
    "lon": -5.8562367,
    "timestamp": "2024-08-01T18:05:29Z",
    "version": 6,
    "changeset": 154705523,
    "user": "vsuarezp",
    "uid": 3406892,
    "tags": {
      "addr:city": "Oviedo",
      "addr:housenumber": "15",
      "addr:postcode": "33005",
      "addr:street": "Avenida de Galicia",
      "amenity": "restaurant",
      "cuisine": "italian",
      "indoor_seating": "yes",
      "name": "Restaurante Los Italianos",
      "opening_hours:covid19": "off",
      "outdoor_seating": "no",
      "website": "https://www.restaurantelositalianos.com/"
    }
  },
  {
    "type": "node",
    "id": 3075114653,
    "lat": 43.3612896,
    "lon": -5.8566106,
    "timestamp": "2024-07-07T08:42:03Z",
    "version": 8,
    "changeset": 153651394,
    "user": "vsuarezp",
    "uid": 3406892,
    "tags": {
      "addr:city": "Oviedo",
      "addr:housenumber": "24",
      "addr:postcode": "33005",
      "addr:street": "Avenida de Galicia",
      "amenity": "restaurant",
      "check_date": "2023-05-26",
      "indoor_seating": "yes",
      "name": "Jaleoh",
      "outdoor_seating": "yes"
    }
  },
  {
    "type": "node",
    "id": 3075114654,
    "lat": 43.3612804,
    "lon": -5.8564808,
    "timestamp": "2025-03-15T09:37:14Z",
    "version": 5,
    "changeset": 163642352,
    "user": "fischer25",
    "uid": 14012725,
    "tags": {
      "addr:city": "Oviedo",
      "addr:housenumber": "24",
      "addr:postcode": "33005",
      "addr:street": "Avenida de Galicia",
      "amenity": "restaurant",
      "indoor_seating": "yes",
      "name": "La Oveja Negra - parrilla y copas",
      "opening_hours": "Mo-Fr 08:30-00:00; Sa-Su 11:30-00:00",
      "outdoor_seating": "yes",
      "phone": "+34 984 281 917"
    }
  },
  {
    "type": "node",
    "id": 3075114655,
    "lat": 43.3614764,
    "lon": -5.8572365,
    "timestamp": "2024-08-24T13:04:29Z",
    "version": 5,
    "changeset": 155695262,
    "user": "Keyeoh",
    "uid": 21867406,
    "tags": {
      "amenity": "cafe",
      "name": "Donde el jamón"
    }
  },
  {
    "type": "node",
    "id": 3079207591,
    "lat": 43.368381,
    "lon": -5.866032,
    "timestamp": "2014-09-15T21:41:59Z",
    "version": 1,
    "changeset": 25467094,
    "user": "DaniSagan",
    "uid": 2327451,
    "tags": {
      "addr:city": "Uviéu/Oviedo",
      "addr:housenumber": "68",
      "addr:postcode": "33012",
      "addr:street": "Calle Vázquez de Mella",
      "amenity": "bar",
      "name": "Sidrería Castil"
    }
  },
  {
    "type": "node",
    "id": 3079207592,
    "lat": 43.368713,
    "lon": -5.8664175,
    "timestamp": "2014-09-15T21:41:59Z",
    "version": 1,
    "changeset": 25467094,
    "user": "DaniSagan",
    "uid": 2327451,
    "tags": {
      "addr:city": "Uviéu/Oviedo",
      "addr:housenumber": "76",
      "addr:postcode": "33012",
      "addr:street": "Calle Vázquez de Mella",
      "amenity": "cafe",
      "name": "Cafetería Rombos"
    }
  },
  {
    "type": "node",
    "id": 3080812217,
    "lat": 43.3680822,
    "lon": -5.8683103,
    "timestamp": "2024-02-21T15:32:21Z",
    "version": 4,
    "changeset": 147738025,
    "user": "Oviedo1997",
    "uid": 17349438,
    "tags": {
      "addr:city": "Oviedo",
      "addr:country": "ES",
      "addr:housenumber": "4",
      "addr:postcode": "33012",
      "addr:province": "Asturias",
      "addr:street": "Calle Mateo Llana Díaz-Estébanez",
      "amenity": "cafe",
      "name": "El Café de la Tierra"
    }
  },
  {
    "type": "node",
    "id": 3080812218,
    "lat": 43.3678687,
    "lon": -5.8684871,
    "timestamp": "2017-10-12T09:46:13Z",
    "version": 3,
    "changeset": 52854340,
    "user": "DaniSagan",
    "uid": 2327451,
    "tags": {
      "addr:city": "Oviedo",
      "addr:country": "ES",
      "addr:housenumber": "6",
      "addr:postcode": "33012",
      "addr:province": "Asturias",
      "addr:street": "Calle Mateo Llana Díaz-Estébanez",
      "amenity": "cafe",
      "name": "El Viejo Roble"
    }
  },
  {
    "type": "node",
    "id": 3080812220,
    "lat": 43.3676837,
    "lon": -5.8685493,
    "timestamp": "2024-07-03T20:43:21Z",
    "version": 4,
    "changeset": 153519324,
    "user": "Oviedo1997",
    "uid": 17349438,
    "tags": {
      "addr:city": "Oviedo",
      "addr:country": "ES",
      "addr:housenumber": "6",
      "addr:postcode": "33012",
      "addr:province": "Asturias",
      "addr:street": "Calle Mateo Llana Díaz-Estébanez",
      "amenity": "cafe",
      "name": "La Taberna de Arni"
    }
  },
  {
    "type": "node",
    "id": 3080821797,
    "lat": 43.3687074,
    "lon": -5.8691209,
    "timestamp": "2023-06-28T15:35:44Z",
    "version": 4,
    "changeset": 137884672,
    "user": "vsuarezp",
    "uid": 3406892,
    "tags": {
      "addr:city": "Uviéu/Oviedo",
      "addr:housenumber": "4",
      "addr:postcode": "33012",
      "addr:street": "Paseo de La Florida",
      "amenity": "cafe",
      "indoor_seating": "yes",
      "name": "El Cafetín del Paseo",
      "outdoor_seating": "yes"
    }
  },
  {
    "type": "node",
    "id": 3080824420,
    "lat": 43.3683857,
    "lon": -5.8715385,
    "timestamp": "2024-04-13T07:14:00Z",
    "version": 3,
    "changeset": 149938117,
    "user": "DaniSagan",
    "uid": 2327451,
    "tags": {
      "addr:city": "Uviéu/Oviedo",
      "addr:housenumber": "22",
      "addr:postcode": "33012",
      "addr:street": "Paseo de La Florida",
      "amenity": "cafe",
      "name": "Café Bulevar"
    }
  },
  {
    "type": "node",
    "id": 3080836187,
    "lat": 43.3686904,
    "lon": -5.869257,
    "timestamp": "2023-12-31T10:53:49Z",
    "version": 5,
    "changeset": 145727334,
    "user": "DaniSagan",
    "uid": 2327451,
    "tags": {
      "addr:city": "Uviéu/Oviedo",
      "addr:housenumber": "6",
      "addr:postcode": "33012",
      "addr:street": "Paseo de La Florida",
      "amenity": "restaurant",
      "name": "Pa' Tu Boquita"
    }
  },
  {
    "type": "node",
    "id": 3081637465,
    "lat": 43.3666175,
    "lon": -5.8740257,
    "timestamp": "2023-02-21T07:17:08Z",
    "version": 4,
    "changeset": 132820916,
    "user": "DaniSagan",
    "uid": 2327451,
    "tags": {
      "addr:city": "Uviéu/Oviedo",
      "addr:housenumber": "6",
      "addr:postcode": "33012",
      "addr:street": "Calle Cudillero",
      "amenity": "restaurant",
      "cuisine": "regional",
      "name": "Brasería Lokal - Cervecería",
      "opening_hours": "Mo-Su 08:00-00:30",
      "outdoor_seating": "yes"
    }
  },
  {
    "type": "node",
    "id": 3081637466,
    "lat": 43.368078,
    "lon": -5.8680982,
    "timestamp": "2024-02-21T15:32:21Z",
    "version": 4,
    "changeset": 147738025,
    "user": "Oviedo1997",
    "uid": 17349438,
    "tags": {
      "addr:city": "Uviéu/Oviedo",
      "addr:postcode": "33012",
      "addr:street": "Plaza del Arzobispo Gabino Díaz Merchán",
      "amenity": "cafe",
      "name": "Sidrería Pichote"
    }
  },
  {
    "type": "node",
    "id": 3081647490,
    "lat": 43.3669924,
    "lon": -5.868395,
    "timestamp": "2018-07-30T12:58:48Z",
    "version": 4,
    "changeset": 61194956,
    "user": "edrux",
    "uid": 865716,
    "tags": {
      "addr:city": "Uviéu/Oviedo",
      "addr:housenumber": "17",
      "addr:postcode": "33012",
      "addr:street": "Calle Aurora Albornoz",
      "amenity": "cafe",
      "name": "Taza&Media"
    }
  },
  {
    "type": "node",
    "id": 3084309677,
    "lat": 43.3675944,
    "lon": -5.8669822,
    "timestamp": "2022-09-07T07:26:07Z",
    "version": 3,
    "changeset": 125887321,
    "user": "bermiego",
    "uid": 3699758,
    "tags": {
      "amenity": "pub",
      "name": "Raymond's Pub"
    }
  },
  {
    "type": "node",
    "id": 3151371278,
    "lat": 43.2978047,
    "lon": -5.8213847,
    "timestamp": "2024-07-28T18:02:56Z",
    "version": 2,
    "changeset": 154532732,
    "user": "Oviedo1997",
    "uid": 17349438,
    "tags": {
      "amenity": "restaurant",
      "name": "El Prau Gatu"
    }
  },
  {
    "type": "node",
    "id": 3151371874,
    "lat": 43.297729,
    "lon": -5.8203494,
    "timestamp": "2014-10-26T18:59:33Z",
    "version": 1,
    "changeset": 26347690,
    "user": "ottokar55",
    "uid": 101355,
    "tags": {
      "amenity": "bar",
      "name": "Sidreria \"Na x Na\""
    }
  },
  {
    "type": "node",
    "id": 3240828531,
    "lat": 43.3608927,
    "lon": -5.8420993,
    "timestamp": "2023-08-06T09:02:54Z",
    "version": 6,
    "changeset": 139506942,
    "user": "DaniSagan",
    "uid": 2327451,
    "tags": {
      "addr:city": "Oviedo / Uviéu",
      "amenity": "restaurant",
      "cuisine": "burger",
      "indoor_seating": "yes",
      "name": "Maus",
      "outdoor_seating": "yes"
    }
  },
  {
    "type": "node",
    "id": 3357988255,
    "lat": 43.3645693,
    "lon": -5.8717438,
    "timestamp": "2023-08-05T10:20:39Z",
    "version": 4,
    "changeset": 139472922,
    "user": "DaniSagan",
    "uid": 2327451,
    "tags": {
      "amenity": "cafe",
      "name": "Siroco",
      "outdoor_seating": "yes"
    }
  },
  {
    "type": "node",
    "id": 3359885424,
    "lat": 43.3634449,
    "lon": -5.8651542,
    "timestamp": "2017-12-06T18:50:36Z",
    "version": 3,
    "changeset": 54410510,
    "user": "bermiego",
    "uid": 3699758,
    "tags": {
      "addr:city": "Oviedo/Uviéu",
      "amenity": "bar",
      "name": "48 Miñor"
    }
  },
  {
    "type": "node",
    "id": 3359885425,
    "lat": 43.3633626,
    "lon": -5.8649706,
    "timestamp": "2020-09-06T21:25:06Z",
    "version": 3,
    "changeset": 90493816,
    "user": "DaniSagan",
    "uid": 2327451,
    "tags": {
      "amenity": "pub",
      "name": "El Mito"
    }
  },
  {
    "type": "node",
    "id": 3368603814,
    "lat": 43.3629304,
    "lon": -5.8633458,
    "timestamp": "2020-12-13T14:32:50Z",
    "version": 3,
    "changeset": 95757138,
    "user": "rouelibre1",
    "uid": 10901304,
    "tags": {
      "amenity": "restaurant",
      "cuisine": "regional",
      "diet:vegetarian": "yes",
      "internet_access": "wlan",
      "internet_access:fee": "no",
      "name": "La Cocina de Manuel",
      "outdoor_seating": "yes",
      "smoking": "outside",
      "takeaway": "yes"
    }
  },
  {
    "type": "node",
    "id": 3371217954,
    "lat": 43.3633978,
    "lon": -5.8659738,
    "timestamp": "2017-06-28T16:39:44Z",
    "version": 2,
    "changeset": 49896706,
    "user": "DaniSagan",
    "uid": 2327451,
    "tags": {
      "amenity": "restaurant",
      "cuisine": "fish_and_chips",
      "name": "La Patatina"
    }
  },
  {
    "type": "node",
    "id": 3373541831,
    "lat": 43.3519458,
    "lon": -5.8475528,
    "timestamp": "2015-02-26T17:52:58Z",
    "version": 1,
    "changeset": 29119381,
    "user": "ddanieru",
    "uid": 2674849,
    "tags": {
      "amenity": "cafe"
    }
  },
  {
    "type": "node",
    "id": 3425325658,
    "lat": 43.3579599,
    "lon": -5.8723829,
    "timestamp": "2015-03-29T20:02:23Z",
    "version": 1,
    "changeset": 29836162,
    "user": "edrux",
    "uid": 865716,
    "tags": {
      "amenity": "restaurant",
      "name": "Bar Sidrería La Cruz"
    }
  },
  {
    "type": "node",
    "id": 3425325659,
    "lat": 43.3574015,
    "lon": -5.8708399,
    "timestamp": "2017-06-29T09:05:53Z",
    "version": 2,
    "changeset": 49912292,
    "user": "DaniSagan",
    "uid": 2327451,
    "tags": {
      "amenity": "cafe",
      "name": "Cafetería Aumente"
    }
  },
  {
    "type": "node",
    "id": 3455198475,
    "lat": 43.365033,
    "lon": -5.8861085,
    "timestamp": "2018-12-22T18:48:28Z",
    "version": 2,
    "changeset": 65700601,
    "user": "bermiego",
    "uid": 3699758,
    "tags": {
      "amenity": "bar",
      "name": "Xolot"
    }
  },
  {
    "type": "node",
    "id": 3455203421,
    "lat": 43.3652923,
    "lon": -5.8857035,
    "timestamp": "2018-12-22T18:48:28Z",
    "version": 2,
    "changeset": 65700601,
    "user": "bermiego",
    "uid": 3699758,
    "tags": {
      "amenity": "bar",
      "name": "Espumeru"
    }
  },
  {
    "type": "node",
    "id": 3528013822,
    "lat": 43.367852,
    "lon": -5.8514866,
    "timestamp": "2024-08-28T09:37:58Z",
    "version": 6,
    "changeset": 155870505,
    "user": "DaniSagan",
    "uid": 2327451,
    "tags": {
      "amenity": "pub",
      "indoor_seating": "yes",
      "name": "La Tapina Sixtina",
      "outdoor_seating": "yes",
      "phone": "+34 984 182 396"
    }
  },
  {
    "type": "node",
    "id": 3714851027,
    "lat": 43.3611133,
    "lon": -5.8554648,
    "timestamp": "2024-08-01T18:06:20Z",
    "version": 6,
    "changeset": 154705555,
    "user": "vsuarezp",
    "uid": 3406892,
    "tags": {
      "air_conditioning": "yes",
      "amenity": "restaurant",
      "indoor_seating": "yes",
      "name": "Restaurante Dr. Peña",
      "outdoor_seating": "yes",
      "smoking": "outside"
    }
  },
  {
    "type": "node",
    "id": 3714874425,
    "lat": 43.3668538,
    "lon": -5.8564069,
    "timestamp": "2022-07-02T12:24:56Z",
    "version": 4,
    "changeset": 123118212,
    "user": "bermiego",
    "uid": 3699758,
    "tags": {
      "addr:city": "Oviedo / Uviéu",
      "amenity": "cafe",
      "name": "Café Cadillac",
      "outdoor_seating": "yes"
    }
  },
  {
    "type": "node",
    "id": 3716371823,
    "lat": 43.3607203,
    "lon": -5.8573808,
    "timestamp": "2024-09-08T10:20:05Z",
    "version": 2,
    "changeset": 156344423,
    "user": "Oviedo1997",
    "uid": 17349438,
    "tags": {
      "amenity": "cafe",
      "name": "Café Galeno"
    }
  },
  {
    "type": "node",
    "id": 3716411132,
    "lat": 43.3614176,
    "lon": -5.8574989,
    "timestamp": "2024-08-22T20:57:57Z",
    "version": 5,
    "changeset": 155626274,
    "user": "Oviedo1997",
    "uid": 17349438,
    "tags": {
      "addr:city": "Oviedo / Uviéu",
      "addr:postcode": "33005",
      "addr:street": "Plaza de América",
      "amenity": "restaurant",
      "indoor_seating": "yes",
      "name": "Restaurante Del Arco",
      "outdoor_seating": "yes"
    }
  },
  {
    "type": "node",
    "id": 3728582936,
    "lat": 43.3675499,
    "lon": -5.8409737,
    "timestamp": "2024-02-24T16:17:45Z",
    "version": 2,
    "changeset": 147861820,
    "user": "kapazao_import",
    "uid": 8770019,
    "tags": {
      "addr:city": "Oviedo",
      "addr:country": "ES",
      "addr:housenumber": "14",
      "addr:postcode": "33001",
      "addr:province": "Asturias",
      "addr:street": "Calle Ildefonso Sánchez del Río",
      "amenity": "cafe",
      "name": "King Cafe & Lounge"
    }
  },
  {
    "type": "node",
    "id": 3747004725,
    "lat": 43.3671601,
    "lon": -5.8415162,
    "timestamp": "2024-01-20T12:59:56Z",
    "version": 7,
    "changeset": 146477879,
    "user": "bermiego",
    "uid": 3699758,
    "tags": {
      "addr:city": "Oviedo / Uviéu",
      "amenity": "restaurant",
      "check_date": "2023-05-04",
      "cuisine": "regional",
      "indoor_seating": "yes",
      "name": "Sidrería La Plaza",
      "outdoor_seating": "yes",
      "smoking": "no"
    }
  },
  {
    "type": "node",
    "id": 3748137025,
    "lat": 43.3676692,
    "lon": -5.8508351,
    "timestamp": "2023-06-09T15:52:41Z",
    "version": 5,
    "changeset": 137141953,
    "user": "vsuarezp",
    "uid": 3406892,
    "tags": {
      "amenity": "cafe",
      "indoor_seating": "yes",
      "name": "El Cafetal",
      "outdoor_seating": "yes",
      "smoking": "no"
    }
  },
  {
    "type": "node",
    "id": 3752493025,
    "lat": 43.3611215,
    "lon": -5.8538893,
    "timestamp": "2024-07-31T21:46:26Z",
    "version": 5,
    "changeset": 154669434,
    "user": "vsuarezp",
    "uid": 3406892,
    "tags": {
      "addr:city": "Oviedo",
      "addr:housenumber": "20",
      "addr:postcode": "33005",
      "addr:street": "Calle Santa Teresa de Jesús",
      "air_conditioning": "yes",
      "amenity": "restaurant",
      "indoor_seating": "yes",
      "name": "Eseteveinte",
      "outdoor_seating": "yes",
      "smoking": "outside"
    }
  },
  {
    "type": "node",
    "id": 3759836752,
    "lat": 43.3624038,
    "lon": -5.8609211,
    "timestamp": "2015-09-26T05:44:56Z",
    "version": 1,
    "changeset": 34256515,
    "user": "pedrobv",
    "uid": 581863,
    "tags": {
      "addr:housenumber": "5",
      "addr:street": "Calle León y Escosura",
      "amenity": "restaurant",
      "cuisine": "regional",
      "name": "La cuadra de Antón"
    }
  },
  {
    "type": "node",
    "id": 3759836753,
    "lat": 43.3622762,
    "lon": -5.8646586,
    "timestamp": "2021-06-22T17:06:42Z",
    "version": 2,
    "changeset": 106790668,
    "user": "DaniSagan",
    "uid": 2327451,
    "tags": {
      "addr:housenumber": "23",
      "addr:street": "Calle Marcos Peña Royo",
      "amenity": "restaurant",
      "contact:phone": "+34 985252377",
      "cuisine": "regional",
      "name": "Restaurante Casa El Marmío",
      "opening_hours": "Mo-Su 07:00-24:00; Mo off"
    }
  },
  {
    "type": "node",
    "id": 3842383315,
    "lat": 43.3607097,
    "lon": -5.8434314,
    "timestamp": "2023-06-28T16:34:45Z",
    "version": 4,
    "changeset": 137886587,
    "user": "vsuarezp",
    "uid": 3406892,
    "tags": {
      "amenity": "pub",
      "indoor_seating": "yes",
      "internet_access": "wlan",
      "internet_access:fee": "no",
      "name": "Las Mestas",
      "outdoor_seating": "no",
      "smoking": "no",
      "wheelchair": "limited"
    }
  },
  {
    "type": "node",
    "id": 3858930959,
    "lat": 43.3619616,
    "lon": -5.8400379,
    "timestamp": "2023-08-06T06:48:25Z",
    "version": 4,
    "changeset": 139503419,
    "user": "DaniSagan",
    "uid": 2327451,
    "tags": {
      "addr:city": "Uviéu",
      "addr:housenumber": "40",
      "addr:postcode": "33003",
      "addr:street": "El Postigu Baxu",
      "amenity": "pub",
      "contact:facebook": "https://www.facebook.com/EspaciuLaLlegra/",
      "name": "La Llegra",
      "smoking": "outside"
    }
  },
  {
    "type": "node",
    "id": 4073026922,
    "lat": 43.3634793,
    "lon": -5.8416141,
    "timestamp": "2024-10-29T09:39:04Z",
    "version": 11,
    "changeset": 158489340,
    "user": "kapazao_import",
    "uid": 8770019,
    "tags": {
      "addr:city": "Oviedo / Uviéu",
      "addr:street": "Calle Azcárraga",
      "amenity": "pub",
      "contact:facebook": "https://www.facebook.com/elrefujiodelcarbayon/",
      "name": "El Refugio del Carbayón",
      "smoking": "no"
    }
  },
  {
    "type": "node",
    "id": 4084102885,
    "lat": 43.363801,
    "lon": -5.8424052,
    "timestamp": "2024-08-19T19:12:50Z",
    "version": 12,
    "changeset": 155477208,
    "user": "Hugoren Martinako",
    "uid": 3392826,
    "tags": {
      "addr:city": "Oviedo / Uviéu",
      "addr:housenumber": "1",
      "addr:street": "Calle Martínez Vigil",
      "amenity": "pub",
      "brewery": "yes",
      "contact:facebook": "https://www.facebook.com/Lesperteyu-Chigre-Folk-148906795457424/",
      "drink:craft_beer": "yes",
      "email": "teresaroyan@gmail.com",
      "indoor_seating": "yes",
      "name": "L'Esperteyu",
      "opening_hours": "Su-Th 17:00-03:30; Fr-Sa 17:00-05:30",
      "outdoor_seating": "no",
      "phone": "+34 985 20 33 96",
      "smoking": "no"
    }
  },
  {
    "type": "node",
    "id": 4201939123,
    "lat": 43.3684522,
    "lon": -5.8386726,
    "timestamp": "2023-05-04T17:19:57Z",
    "version": 6,
    "changeset": 135710562,
    "user": "bermiego",
    "uid": 3699758,
    "tags": {
      "addr:city": "Oviedo",
      "addr:housenumber": "22",
      "addr:postcode": "33011",
      "addr:street": "Plaza de Santullano",
      "amenity": "cafe",
      "check_date": "2023-05-04",
      "name": "Cafeteria Antares",
      "toilets:wheelchair": "yes",
      "wheelchair": "yes"
    }
  },
  {
    "type": "node",
    "id": 4211983354,
    "lat": 43.3676628,
    "lon": -5.8732562,
    "timestamp": "2023-06-01T20:37:52Z",
    "version": 4,
    "changeset": 136846135,
    "user": "DaniSagan",
    "uid": 2327451,
    "tags": {
      "amenity": "restaurant",
      "cuisine": "regional",
      "name": "Las Güelas de La Florida",
      "outdoor_seating": "yes"
    }
  },
  {
    "type": "node",
    "id": 4260623911,
    "lat": 43.3564577,
    "lon": -5.8499486,
    "timestamp": "2022-10-09T17:53:56Z",
    "version": 5,
    "changeset": 127261466,
    "user": "Oviedo1997",
    "uid": 17349438,
    "tags": {
      "addr:city": "Oviedo",
      "addr:housenumber": "25",
      "addr:postcode": "33007",
      "addr:street": "Calle González Besada",
      "amenity": "fast_food",
      "brand": "Telepizza",
      "brand:wikidata": "Q2699863",
      "brand:wikipedia": "es:Telepizza",
      "cuisine": "pizza",
      "name": "Telepizza",
      "takeaway": "yes"
    }
  },
  {
    "type": "node",
    "id": 4362991757,
    "lat": 43.3576361,
    "lon": -5.8527617,
    "timestamp": "2025-02-17T12:18:24Z",
    "version": 12,
    "changeset": 162609213,
    "user": "AnonyMapsSpain",
    "uid": 21186307,
    "tags": {
      "addr:city": "Oviedo / Uviéu",
      "air_conditioning": "yes",
      "amenity": "restaurant",
      "check_date:opening_hours": "2025-02-17",
      "diet:halal": "no",
      "diet:kosher": "no",
      "diet:vegetarian": "no",
      "indoor_seating": "yes",
      "name": "La Bellota Asturiana",
      "opening_hours:signed": "no",
      "outdoor_seating": "yes",
      "payment:credit_cards": "yes",
      "payment:debit_cards": "yes",
      "phone": "+34 985 24 5914",
      "smoking": "outside",
      "website": "http://www.labellotaasturiana.com",
      "wheelchair": "no"
    }
  },
  {
    "type": "node",
    "id": 4362994498,
    "lat": 43.3571586,
    "lon": -5.8520732,
    "timestamp": "2023-07-04T22:20:54Z",
    "version": 10,
    "changeset": 138124431,
    "user": "vsuarezp",
    "uid": 3406892,
    "tags": {
      "air_conditioning": "yes",
      "amenity": "cafe",
      "diet:halal": "no",
      "diet:kosher": "no",
      "diet:vegetarian": "no",
      "indoor_seating": "yes",
      "name": "Lira",
      "outdoor_seating": "yes",
      "payment:credit_cards": "yes",
      "payment:debit_cards": "yes",
      "smoking": "outside",
      "wheelchair": "no"
    }
  },
  {
    "type": "node",
    "id": 4362996084,
    "lat": 43.3567035,
    "lon": -5.8513494,
    "timestamp": "2017-07-23T13:28:34Z",
    "version": 2,
    "changeset": 50501880,
    "user": "DaniSagan",
    "uid": 2327451,
    "tags": {
      "amenity": "restaurant",
      "name": "Buenas Migas",
      "phone": "+34 984 84 4375"
    }
  },
  {
    "type": "node",
    "id": 4362996703,
    "lat": 43.3566408,
    "lon": -5.8513263,
    "timestamp": "2024-01-28T17:29:27Z",
    "version": 3,
    "changeset": 146788509,
    "user": "kapazao_import",
    "uid": 8770019,
    "tags": {
      "addr:city": "Oviedo",
      "addr:housenumber": "11",
      "addr:postcode": "33007",
      "addr:street": "Calle Fermín Canella",
      "amenity": "restaurant",
      "contact:facebook": "https://www.facebook.com/regresogastrobar/",
      "name": "El Regreso Gastrobar",
      "phone": "+34626174901"
    }
  },
  {
    "type": "node",
    "id": 4386784584,
    "lat": 43.3671298,
    "lon": -5.8519072,
    "timestamp": "2023-06-09T15:25:54Z",
    "version": 4,
    "changeset": 137141953,
    "user": "vsuarezp",
    "uid": 3406892,
    "tags": {
      "addr:city": "Oviedo / Uviéu",
      "addr:housenumber": "12",
      "addr:postcode": "33001",
      "addr:street": "Calle Río San Pedro",
      "amenity": "restaurant",
      "indoor_seating": "yes",
      "name": "Carta de ajuste",
      "opening_hours": "Mo-Sa 06:00-01:30",
      "outdoor_seating": "yes"
    }
  },
  {
    "type": "node",
    "id": 4394664204,
    "lat": 43.3659358,
    "lon": -5.852177,
    "timestamp": "2023-06-09T15:23:40Z",
    "version": 5,
    "changeset": 137141953,
    "user": "vsuarezp",
    "uid": 3406892,
    "tags": {
      "amenity": "fast_food",
      "indoor_seating": "yes",
      "name": "Billy Bob",
      "outdoor_seating": "no"
    }
  },
  {
    "type": "node",
    "id": 4394664206,
    "lat": 43.365814,
    "lon": -5.8509165,
    "timestamp": "2016-09-10T11:39:06Z",
    "version": 1,
    "changeset": 42057769,
    "user": "nokutu",
    "uid": 2257299,
    "tags": {
      "amenity": "restaurant",
      "name": "La Seronda"
    }
  },
  {
    "type": "node",
    "id": 4394664208,
    "lat": 43.3657266,
    "lon": -5.850682,
    "timestamp": "2024-07-21T18:06:38Z",
    "version": 5,
    "changeset": 154231054,
    "user": "Oviedo1997",
    "uid": 17349438,
    "tags": {
      "amenity": "restaurant",
      "branch": "Hot Pot",
      "brand": "XiaoLongKan",
      "brand:en": "XiaoLongKan",
      "brand:wikidata": "Q108212427",
      "brand:zh": "小龙坎火锅",
      "cuisine": "chinese;hot_pot",
      "name": "XiaoLongKan",
      "name:en": "XiaoLongKan",
      "name:zh": "小龙坎火锅"
    }
  },
  {
    "type": "node",
    "id": 4394675770,
    "lat": 43.3651761,
    "lon": -5.8488986,
    "timestamp": "2024-01-20T13:05:54Z",
    "version": 6,
    "changeset": 146477879,
    "user": "bermiego",
    "uid": 3699758,
    "tags": {
      "addr:city": "Oviedo / Uviéu",
      "amenity": "restaurant",
      "indoor_seating": "yes",
      "name": "El Tizón",
      "outdoor_seating": "yes",
      "toilets:wheelchair": "no",
      "wheelchair": "yes"
    }
  },
  {
    "type": "node",
    "id": 4394677019,
    "lat": 43.3636828,
    "lon": -5.855007,
    "timestamp": "2017-06-24T09:34:50Z",
    "version": 2,
    "changeset": 49789812,
    "user": "DaniSagan",
    "uid": 2327451,
    "tags": {
      "amenity": "cafe",
      "name": "Café Wolf"
    }
  },
  {
    "type": "node",
    "id": 4394677489,
    "lat": 43.3651028,
    "lon": -5.8487092,
    "timestamp": "2024-09-08T10:30:46Z",
    "version": 4,
    "changeset": 156344939,
    "user": "Oviedo1997",
    "uid": 17349438,
    "tags": {
      "addr:city": "Oviedo / Uviéu",
      "addr:housenumber": "16",
      "addr:postcode": "33002",
      "addr:street": "Calle Caveda",
      "amenity": "cafe",
      "name": "Mepiachi"
    }
  },
  {
    "type": "node",
    "id": 4398716389,
    "lat": 43.3681916,
    "lon": -5.8465979,
    "timestamp": "2021-11-04T12:37:58Z",
    "version": 3,
    "changeset": 113368254,
    "user": "bermiego",
    "uid": 3699758,
    "tags": {
      "addr:city": "Oviedo / Uviéu",
      "amenity": "bar",
      "name": "Don Vinazo",
      "name:es": "Don Vinazo"
    }
  },
  {
    "type": "node",
    "id": 4400969690,
    "lat": 43.3639142,
    "lon": -5.8437335,
    "timestamp": "2024-07-07T08:51:48Z",
    "version": 6,
    "changeset": 153651394,
    "user": "vsuarezp",
    "uid": 3406892,
    "tags": {
      "addr:city": "Oviedo / Uviéu",
      "addr:housenumber": "25",
      "addr:postcode": "33003",
      "addr:street": "Calle Jovellanos",
      "amenity": "restaurant",
      "cuisine": "ramen",
      "indoor_seating": "yes",
      "name": "Ramen Yi",
      "outdoor_seating": "no",
      "phone": "+34 985222424"
    }
  },
  {
    "type": "node",
    "id": 4505043091,
    "lat": 43.3513737,
    "lon": -5.861487,
    "timestamp": "2017-07-09T16:41:18Z",
    "version": 2,
    "changeset": 50156843,
    "user": "DaniSagan",
    "uid": 2327451,
    "tags": {
      "amenity": "bar",
      "name": "Mada",
      "name:es": "Mada"
    }
  },
  {
    "type": "node",
    "id": 4538119591,
    "lat": 43.3708479,
    "lon": -5.8408695,
    "timestamp": "2023-07-15T21:42:46Z",
    "version": 3,
    "changeset": 138560389,
    "user": "bermiego",
    "uid": 3699758,
    "tags": {
      "addr:postcode": "33011",
      "addr:street": "Calle Turina",
      "amenity": "bar",
      "check_date": "2023-07-15",
      "name": "Bar Drago"
    }
  },
  {
    "type": "node",
    "id": 4538643617,
    "lat": 43.3532449,
    "lon": -5.871716,
    "timestamp": "2018-06-17T16:18:43Z",
    "version": 3,
    "changeset": 59918393,
    "user": "bermiego",
    "uid": 3699758,
    "tags": {
      "addr:city": "Oviedo",
      "amenity": "restaurant"
    }
  },
  {
    "type": "node",
    "id": 4543278492,
    "lat": 43.3697659,
    "lon": -5.8402947,
    "timestamp": "2019-12-13T13:06:09Z",
    "version": 5,
    "changeset": 78374176,
    "user": "bermiego",
    "uid": 3699758,
    "tags": {
      "addr:housenumber": "19",
      "addr:postcode": "33011",
      "addr:street": "Calle Albéniz",
      "amenity": "bar",
      "cuisine": "spanish",
      "internet_access": "wlan",
      "name": "Bar Sidrería Albéniz",
      "phone": "+34 985290819"
    }
  },
  {
    "type": "node",
    "id": 4655493095,
    "lat": 43.3614592,
    "lon": -5.8472583,
    "timestamp": "2019-07-12T22:18:05Z",
    "version": 3,
    "changeset": 72199033,
    "user": "sanchi",
    "uid": 170106,
    "tags": {
      "addr:city": "Oviedo",
      "addr:housenumber": "20",
      "addr:street": "Calle Fruela",
      "amenity": "restaurant",
      "name": "la bellota asturiana",
      "outdoor_seating": "yes",
      "phone": "+34 985 20 06 58",
      "website": "http://www.labellotaasturianafruela.com"
    }
  },
  {
    "type": "node",
    "id": 4655689992,
    "lat": 43.364936,
    "lon": -5.8454805,
    "timestamp": "2024-03-19T18:24:05Z",
    "version": 6,
    "changeset": 148875260,
    "user": "Oviedo1997",
    "uid": 17349438,
    "tags": {
      "addr:city": "Oviedo / Uviéu",
      "addr:housenumber": "20",
      "addr:street": "Calle Gascona",
      "amenity": "restaurant",
      "indoor_seating": "yes",
      "name": "Sidreria La Manzana",
      "outdoor_seating": "yes"
    }
  },
  {
    "type": "node",
    "id": 4655909189,
    "lat": 43.3633862,
    "lon": -5.8448676,
    "timestamp": "2024-06-30T20:52:07Z",
    "version": 3,
    "changeset": 153385585,
    "user": "DaniSagan",
    "uid": 2327451,
    "tags": {
      "addr:housenumber": "4",
      "addr:street": "Calle Jovellanos",
      "amenity": "restaurant",
      "indoor_seating": "yes",
      "name": "el patio de los naranjos",
      "outdoor_seating": "no"
    }
  },
  {
    "type": "node",
    "id": 4655928591,
    "lat": 43.3585185,
    "lon": -5.8460852,
    "timestamp": "2023-08-29T09:52:46Z",
    "version": 4,
    "changeset": 140532147,
    "user": "Vacalloria",
    "uid": 12001410,
    "tags": {
      "addr:housenumber": "16",
      "addr:street": "Calle Campomanes",
      "amenity": "restaurant",
      "check_date:opening_hours": "2023-08-29",
      "name": "el mariñán",
      "opening_hours:signed": "no"
    }
  },
  {
    "type": "node",
    "id": 4655964189,
    "lat": 43.3606196,
    "lon": -5.8435421,
    "timestamp": "2023-06-28T16:34:33Z",
    "version": 4,
    "changeset": 137886587,
    "user": "vsuarezp",
    "uid": 3406892,
    "tags": {
      "addr:housenumber": "5",
      "addr:street": "Calle Mon",
      "amenity": "restaurant",
      "indoor_seating": "yes",
      "name": "el gatonegro",
      "outdoor_seating": "yes"
    }
  },
  {
    "type": "node",
    "id": 4669406139,
    "lat": 43.3671116,
    "lon": -5.8736361,
    "timestamp": "2023-01-20T20:09:07Z",
    "version": 4,
    "changeset": 131521586,
    "user": "DaniSagan",
    "uid": 2327451,
    "tags": {
      "amenity": "cafe",
      "name": "Izai",
      "outdoor_seating": "yes"
    }
  },
  {
    "type": "node",
    "id": 4680811491,
    "lat": 43.3555054,
    "lon": -5.8512269,
    "timestamp": "2024-07-12T15:17:33Z",
    "version": 4,
    "changeset": 153860510,
    "user": "Oviedo1997",
    "uid": 17349438,
    "tags": {
      "amenity": "cafe",
      "indoor_seating": "yes",
      "name": "Café Prole",
      "outdoor_seating": "yes"
    }
  },
  {
    "type": "node",
    "id": 4682002644,
    "lat": 43.3639848,
    "lon": -5.8776999,
    "timestamp": "2022-09-07T07:12:00Z",
    "version": 5,
    "changeset": 125886708,
    "user": "bermiego",
    "uid": 3699758,
    "tags": {
      "addr:city": "Oviedo",
      "amenity": "restaurant",
      "email": "lagargervasio@gmail.com",
      "name": "Casa Gervasio",
      "phone": "+34 985234265",
      "website": "https://www.lagarcasagervasio.com/"
    }
  },
  {
    "type": "node",
    "id": 4687657939,
    "lat": 43.3582376,
    "lon": -5.8524508,
    "timestamp": "2024-08-02T18:44:03Z",
    "version": 11,
    "changeset": 154749365,
    "user": "vsuarezp",
    "uid": 3406892,
    "tags": {
      "air_conditioning": "no",
      "amenity": "cafe",
      "diet:halal": "no",
      "diet:kosher": "no",
      "diet:vegetarian": "no",
      "indoor_seating": "yes",
      "name": "Cafetería Jumbo",
      "opening_hours:signed": "no",
      "outdoor_seating": "yes",
      "payment:credit_cards": "yes",
      "payment:debit_cards": "no",
      "smoking": "outside",
      "wheelchair": "no"
    }
  },
  {
    "type": "node",
    "id": 4690630572,
    "lat": 43.3604426,
    "lon": -5.843702,
    "timestamp": "2019-07-12T22:18:05Z",
    "version": 2,
    "changeset": 72199033,
    "user": "sanchi",
    "uid": 170106,
    "tags": {
      "addr:city": "Oviedo",
      "addr:housenumber": "19",
      "addr:postcode": "33009",
      "addr:street": "Plaza de Trascorrales",
      "amenity": "restaurant",
      "email": "info@marriedcocina.eu",
      "name": "Married Cocina",
      "phone": "+34 98 428 36 44"
    }
  },
  {
    "type": "node",
    "id": 4693421685,
    "lat": 43.3769585,
    "lon": -5.8009889,
    "timestamp": "2021-06-20T21:45:25Z",
    "version": 2,
    "changeset": 106681800,
    "user": "bermiego",
    "uid": 3699758,
    "tags": {
      "amenity": "cafe",
      "name": "El 22"
    }
  },
  {
    "type": "node",
    "id": 4693421686,
    "lat": 43.3764348,
    "lon": -5.8017628,
    "timestamp": "2021-06-20T21:35:17Z",
    "version": 2,
    "changeset": 106681568,
    "user": "bermiego",
    "uid": 3699758,
    "tags": {
      "amenity": "cafe",
      "name": "Cafetería Steel"
    }
  },
  {
    "type": "node",
    "id": 4693421687,
    "lat": 43.3765824,
    "lon": -5.8020074,
    "timestamp": "2023-10-06T12:17:25Z",
    "version": 2,
    "changeset": 142230414,
    "user": "bermiego",
    "uid": 3699758,
    "tags": {
      "amenity": "restaurant",
      "name": "Sidrería El Calderu"
    }
  },
  {
    "type": "node",
    "id": 4693421688,
    "lat": 43.3764318,
    "lon": -5.8028786,
    "timestamp": "2024-01-24T17:52:23Z",
    "version": 2,
    "changeset": 146640512,
    "user": "Oviedo1997",
    "uid": 17349438,
    "tags": {
      "amenity": "restaurant",
      "name": "La Mina de Colloto"
    }
  },
  {
    "type": "node",
    "id": 4693421789,
    "lat": 43.3761031,
    "lon": -5.8025914,
    "timestamp": "2024-01-24T17:52:23Z",
    "version": 3,
    "changeset": 146640512,
    "user": "Oviedo1997",
    "uid": 17349438,
    "tags": {
      "amenity": "restaurant",
      "indoor_seating": "yes",
      "name": "La Jefa",
      "outdoor_seating": "yes"
    }
  },
  {
    "type": "node",
    "id": 4701978270,
    "lat": 43.3556663,
    "lon": -5.8512066,
    "timestamp": "2020-05-26T08:01:10Z",
    "version": 2,
    "changeset": 85753271,
    "user": "bermiego",
    "uid": 3699758,
    "tags": {
      "amenity": "cafe",
      "name": "Nuevo San Gregorio"
    }
  },
  {
    "type": "node",
    "id": 4705611770,
    "lat": 43.3646,
    "lon": -5.8714264,
    "timestamp": "2023-08-05T10:20:39Z",
    "version": 3,
    "changeset": 139472922,
    "user": "DaniSagan",
    "uid": 2327451,
    "tags": {
      "amenity": "cafe",
      "name": "Café Bar Parque del Oeste"
    }
  },
  {
    "type": "node",
    "id": 4705611771,
    "lat": 43.3645448,
    "lon": -5.8716421,
    "timestamp": "2023-08-05T10:20:39Z",
    "version": 2,
    "changeset": 139472922,
    "user": "DaniSagan",
    "uid": 2327451,
    "tags": {
      "amenity": "cafe",
      "name": "Café Bar Castelao"
    }
  },
  {
    "type": "node",
    "id": 4705645131,
    "lat": 43.3593833,
    "lon": -5.8637589,
    "timestamp": "2023-08-29T04:43:48Z",
    "version": 2,
    "changeset": 140520930,
    "user": "Vacalloria",
    "uid": 12001410,
    "tags": {
      "amenity": "cafe",
      "name": "B Doce",
      "opening_hours": "Mo-Fr 08:00-24:00+; Sa 09:00-24:00+; PH,Su 10:00-24:00+"
    }
  },
  {
    "type": "node",
    "id": 4705645132,
    "lat": 43.3595153,
    "lon": -5.8645981,
    "timestamp": "2024-02-26T15:33:17Z",
    "version": 4,
    "changeset": 147937313,
    "user": "Oviedo1997",
    "uid": 17349438,
    "tags": {
      "amenity": "cafe",
      "check_date:opening_hours": "2022-07-13",
      "name": "Valixu",
      "opening_hours": "Mo-Fr 07:00-23:00"
    }
  },
  {
    "type": "node",
    "id": 4717220814,
    "lat": 43.3679588,
    "lon": -5.8657614,
    "timestamp": "2021-02-01T12:03:05Z",
    "version": 2,
    "changeset": 98509631,
    "user": "Johnbo",
    "uid": 915796,
    "tags": {
      "amenity": "bar",
      "name": "Sidrería Manolo"
    }
  },
  {
    "type": "node",
    "id": 4731324143,
    "lat": 43.3648252,
    "lon": -5.8410325,
    "timestamp": "2024-03-30T12:23:39Z",
    "version": 7,
    "changeset": 149349379,
    "user": "bermiego",
    "uid": 3699758,
    "tags": {
      "addr:city": "Oviedo / Uviéu",
      "addr:street": "Calle Martínez Vigil",
      "amenity": "bar",
      "check_date": "2023-05-04",
      "indoor_seating": "yes",
      "name": "Andén 5",
      "outdoor_seating": "yes",
      "smoking": "no"
    }
  },
  {
    "type": "node",
    "id": 4755966675,
    "lat": 43.3617408,
    "lon": -5.8477241,
    "timestamp": "2023-11-10T11:24:11Z",
    "version": 14,
    "changeset": 143858754,
    "user": "b-jazz-bot",
    "uid": 9451067,
    "tags": {
      "air_conditioning": "yes",
      "amenity": "restaurant",
      "cuisine": "regional",
      "diet:halal": "no",
      "diet:kosher": "no",
      "diet:vegetarian": "no",
      "indoor_seating": "yes",
      "name": "La Corte de Pelayo",
      "outdoor_seating": "yes",
      "payment:credit_cards": "yes",
      "payment:debit_cards": "yes",
      "smoking": "outside",
      "website": "https://lacortedepelayo.com/",
      "wheelchair": "yes"
    }
  },
  {
    "type": "node",
    "id": 4762965678,
    "lat": 43.3671715,
    "lon": -5.8448628,
    "timestamp": "2021-11-23T13:10:13Z",
    "version": 2,
    "changeset": 114140296,
    "user": "bermiego",
    "uid": 3699758,
    "tags": {
      "addr:city": "Oviedo",
      "addr:country": "ES",
      "addr:postcode": "33011",
      "addr:province": "Asturias",
      "addr:street": "Calle Fernando Vela",
      "amenity": "restaurant",
      "name": "La Mano de Cano",
      "takeaway": "yes"
    }
  },
  {
    "type": "node",
    "id": 4763017836,
    "lat": 43.3555894,
    "lon": -5.8498502,
    "timestamp": "2023-07-05T18:47:50Z",
    "version": 4,
    "changeset": 138159540,
    "user": "vsuarezp",
    "uid": 3406892,
    "tags": {
      "air_conditioning": "yes",
      "amenity": "cafe",
      "indoor_seating": "yes",
      "name": "Cafetería Al Compás del Son",
      "outdoor_seating": "no",
      "smoking": "no"
    }
  },
  {
    "type": "node",
    "id": 4763017837,
    "lat": 43.3557469,
    "lon": -5.8496003,
    "timestamp": "2022-10-19T20:49:59Z",
    "version": 4,
    "changeset": 127806589,
    "user": "Oviedo1997",
    "uid": 17349438,
    "tags": {
      "amenity": "restaurant",
      "name": "Restaurante Villa Principado"
    }
  },
  {
    "type": "node",
    "id": 4763023821,
    "lat": 43.3576046,
    "lon": -5.8504617,
    "timestamp": "2023-07-04T22:16:52Z",
    "version": 7,
    "changeset": 138124431,
    "user": "vsuarezp",
    "uid": 3406892,
    "tags": {
      "addr:city": "Oviedo / Uviéu",
      "air_conditioning": "no",
      "amenity": "pub",
      "indoor_seating": "yes",
      "name": "Cervecería Pub Mare Nostrum",
      "outdoor_seating": "yes",
      "payment:credit_cards": "yes",
      "payment:debit_cards": "yes",
      "smoking": "outside",
      "wheelchair": "no"
    }
  },
  {
    "type": "node",
    "id": 4763027421,
    "lat": 43.3572172,
    "lon": -5.8483593,
    "timestamp": "2023-08-09T12:04:30Z",
    "version": 2,
    "changeset": 139656697,
    "user": "Oviedo1997",
    "uid": 17349438,
    "tags": {
      "amenity": "restaurant",
      "name": "Restaurante La Cuadra de Antón"
    }
  },
  {
    "type": "node",
    "id": 4763028548,
    "lat": 43.3578275,
    "lon": -5.8476055,
    "timestamp": "2017-07-08T08:49:44Z",
    "version": 2,
    "changeset": 50127441,
    "user": "DaniSagan",
    "uid": 2327451,
    "tags": {
      "amenity": "restaurant",
      "name": "Restaurante Casa Arturo"
    }
  },
  {
    "type": "node",
    "id": 4763028549,
    "lat": 43.3578387,
    "lon": -5.8477187,
    "timestamp": "2017-07-08T08:49:44Z",
    "version": 2,
    "changeset": 50127441,
    "user": "DaniSagan",
    "uid": 2327451,
    "tags": {
      "amenity": "pub",
      "name": "Taberna Al Fondo Hay Sitio"
    }
  },
  {
    "type": "node",
    "id": 4770706242,
    "lat": 43.3533118,
    "lon": -5.8440035,
    "timestamp": "2017-04-02T09:04:51Z",
    "version": 1,
    "changeset": 47375832,
    "user": "DaniSagan",
    "uid": 2327451,
    "tags": {
      "amenity": "cafe",
      "name": "Mesón Dapri"
    }
  },
  {
    "type": "node",
    "id": 4770706243,
    "lat": 43.3531823,
    "lon": -5.8442079,
    "timestamp": "2024-11-11T18:25:12Z",
    "version": 2,
    "changeset": 159020850,
    "user": "Oviedo1997",
    "uid": 17349438,
    "tags": {
      "amenity": "cafe",
      "name": "Bar Oliva"
    }
  },
  {
    "type": "node",
    "id": 4770767546,
    "lat": 43.361014,
    "lon": -5.8537215,
    "timestamp": "2024-07-31T21:45:35Z",
    "version": 8,
    "changeset": 154669439,
    "user": "vsuarezp",
    "uid": 3406892,
    "tags": {
      "addr:city": "Oviedo / Uviéu",
      "air_conditioning": "yes",
      "amenity": "bar",
      "indoor_seating": "yes",
      "name": "BAAM",
      "outdoor_seating": "yes",
      "payment:credit_cards": "yes",
      "payment:debit_cards": "yes",
      "smoking": "outside",
      "wheelchair": "yes"
    }
  },
  {
    "type": "node",
    "id": 4783713253,
    "lat": 43.3599983,
    "lon": -5.8438974,
    "timestamp": "2020-09-05T14:58:30Z",
    "version": 2,
    "changeset": 90455937,
    "user": "DaniSagan",
    "uid": 2327451,
    "tags": {
      "amenity": "pub",
      "name": "La Raposa"
    }
  },
  {
    "type": "node",
    "id": 4783713258,
    "lat": 43.3604368,
    "lon": -5.8434092,
    "timestamp": "2022-12-01T11:42:34Z",
    "version": 3,
    "changeset": 129599877,
    "user": "bermiego",
    "uid": 3699758,
    "tags": {
      "amenity": "pub",
      "name": "El Juda"
    }
  },
  {
    "type": "node",
    "id": 4783713259,
    "lat": 43.360362,
    "lon": -5.843506,
    "timestamp": "2023-12-14T17:04:18Z",
    "version": 3,
    "changeset": 145120529,
    "user": "Oviedo1997",
    "uid": 17349438,
    "tags": {
      "amenity": "bar",
      "name": "Chicote"
    }
  },
  {
    "type": "node",
    "id": 4783713260,
    "lat": 43.360323,
    "lon": -5.8437453,
    "timestamp": "2017-04-08T22:35:43Z",
    "version": 1,
    "changeset": 47580676,
    "user": "DaniSagan",
    "uid": 2327451,
    "tags": {
      "amenity": "pub",
      "name": "Sol y Sombra"
    }
  },
  {
    "type": "node",
    "id": 4783755729,
    "lat": 43.3588773,
    "lon": -5.8453437,
    "timestamp": "2023-09-22T09:42:20Z",
    "version": 4,
    "changeset": 141595797,
    "user": "Vacalloria",
    "uid": 12001410,
    "tags": {
      "amenity": "restaurant",
      "cuisine": "japanese",
      "name": "Go Sushi",
      "opening_hours": "We,Th,Su 13:30-15:30,20:00-23:00; Fr,Sa 13:30-15:30,20:00-23:30",
      "operator": "Go Sushi",
      "website": "https://www.gosushi.es/"
    }
  },
  {
    "type": "node",
    "id": 4845557435,
    "lat": 43.3585914,
    "lon": -5.8576578,
    "timestamp": "2025-04-15T07:59:16Z",
    "version": 13,
    "changeset": 164971080,
    "user": "vsuarezp",
    "uid": 3406892,
    "tags": {
      "air_conditioning": "yes",
      "amenity": "cafe",
      "changing_table": "no",
      "diet:halal": "no",
      "diet:kosher": "no",
      "diet:vegetarian": "no",
      "indoor_seating": "yes",
      "name": "El Congreso",
      "opening_hours": "Mo-Fr 07:00-02:30; Sa 10:30-24:00; Su 11:30-23:30",
      "outdoor_seating": "yes",
      "payment:credit_cards": "yes",
      "payment:debit_cards": "yes",
      "smoking": "outside",
      "wheelchair": "yes"
    }
  },
  {
    "type": "node",
    "id": 4845568931,
    "lat": 43.3597262,
    "lon": -5.8582985,
    "timestamp": "2023-06-27T21:59:46Z",
    "version": 3,
    "changeset": 137853902,
    "user": "vsuarezp",
    "uid": 3406892,
    "tags": {
      "amenity": "cafe",
      "indoor_seating": "yes",
      "name": "Café Jardín",
      "outdoor_seating": "yes"
    }
  },
  {
    "type": "node",
    "id": 4882097325,
    "lat": 43.364818,
    "lon": -5.8455961,
    "timestamp": "2024-03-19T18:24:05Z",
    "version": 6,
    "changeset": 148875260,
    "user": "Oviedo1997",
    "uid": 17349438,
    "tags": {
      "addr:city": "Oviedo / Uviéu",
      "addr:postcode": "33001",
      "addr:street": "Calle Gascona / Cai La Gascona",
      "amenity": "restaurant",
      "indoor_seating": "yes",
      "internet_access": "wlan",
      "name": "Sidrería La Cabana",
      "name:es": "Sidrería La Cabana",
      "outdoor_seating": "yes",
      "website": "https://www.tierra-astur.com/restaurante-sidreria-gascona/oviedo/la-sidreria_108_1_ap.html"
    }
  },
  {
    "type": "node",
    "id": 4932200322,
    "lat": 43.3667953,
    "lon": -5.8560246,
    "timestamp": "2020-07-16T22:50:02Z",
    "version": 3,
    "changeset": 88108619,
    "user": "bermiego",
    "uid": 3699758,
    "tags": {
      "addr:city": "Oviedo",
      "addr:housenumber": "2",
      "addr:postcode": "33012",
      "addr:street": "Calle Tito Bustillo",
      "amenity": "restaurant",
      "cuisine": "sandwich;regional;breakfast;pizza;spanish;tapas;coffee_shop",
      "delivery": "yes",
      "name": "Café Bariloche",
      "outdoor_seating": "no",
      "phone": "+34 985 293 446",
      "smoking": "outside",
      "start_date": "1988",
      "takeaway": "yes",
      "website": "http://www.barilocheasador.com/sitemap/"
    }
  },
  {
    "type": "node",
    "id": 4934989000,
    "lat": 43.3668234,
    "lon": -5.8664037,
    "timestamp": "2017-06-25T07:40:55Z",
    "version": 1,
    "changeset": 49807870,
    "user": "DaniSagan",
    "uid": 2327451,
    "tags": {
      "amenity": "cafe",
      "name": "La Parra"
    }
  },
  {
    "type": "node",
    "id": 4934989001,
    "lat": 43.3668814,
    "lon": -5.8658299,
    "timestamp": "2022-09-07T07:26:07Z",
    "version": 2,
    "changeset": 125887321,
    "user": "bermiego",
    "uid": 3699758,
    "tags": {
      "amenity": "pub",
      "name": "El Mítico"
    }
  },