[
  {
    "osmId": 3160067597,
    "name": "Chez Miloud",
    "latitude": 36.1891382,
    "longitude": 1.5347464
  },
  {
    "osmId": 3160142910,
    "name": "Restaurant Sodani",
    "latitude": 36.1886224,
    "longitude": 1.5339919
  },
  {
    "osmId": 3385998330,
    "name": "Tiberkanine",
    "latitude": 36.1596493,
    "longitude": 1.6116161
  },
  {
    "osmId": 3385998483,
    "name": "Resto",
    "latitude": 36.0711171,
    "longitude": 1.1412961
  },
  {
    "osmId": 4325197118,
    "name": "Resto",
    "latitude": 36.3991125,
    "longitude": 0.9127677
  },
  {
    "osmId": 4358947691,
    "name": "Es-sabil",
    "latitude": 36.1348631,
    "longitude": 1.3561519
  },
  {
    "osmId": 4384092045,
    "name": "Université Restaurant Chlef",
    "latitude": 36.1656778,
    "longitude": 1.3385299
  },
  {
    "osmId": 4391062592,
    "name": "Restaurant Djeloul",
    "latitude": 36.2228128,
    "longitude": 1.6731836
  },
  {
    "osmId": 5334666522,
    "name": "عمي يحي",
    "latitude": 36.1416357,
    "longitude": 1.5155746
  },
  {
    "osmId": 5420931022,
    "name": "مطعم",
    "latitude": 36.1623122,
    "longitude": 0.9836633
  },
  {
    "osmId": 5420950721,
    "name": "مطعم",
    "latitude": 36.1554733,
    "longitude": 0.9724149
  },
  {
    "osmId": 5427648423,
    "name": "Restaurant le Grand Bleu",
    "latitude": 36.4127926,
    "longitude": 0.9209244
  },
  {
    "osmId": 5427656521,
    "name": "Resto",
    "latitude": 36.5031118,
    "longitude": 1.2779992
  },
  {
    "osmId": 5536044377,
    "name": "moreceli",
    "latitude": 36.1457752,
    "longitude": 0.8381292
  },
  {
    "osmId": 5544813323,
    "name": "Resto",
    "latitude": 36.2258007,
    "longitude": 1.6779316
  },
  {
    "osmId": 5572958222,
    "latitude": 36.514228,
    "longitude": 1.3087773
  },
  {
    "osmId": 6407323888,
    "name": "مطعم فيصل للسمك",
    "latitude": 36.517698,
    "longitude": 1.3171575
  },
  {
    "osmId": 7570040038,
    "name": "chouieur food & helado",
    "website": "https://web.facebook.com/Chouieur.food",
    "latitude": 36.1624897,
    "longitude": 1.3303672
  },
  {
    "osmId": 8429790883,
    "name": "Palomino - By Chouieur",
    "latitude": 36.1547866,
    "longitude": 1.3257934
  },
  {
    "osmId": 8539608917,
    "name": "La Boussole",
    "latitude": 36.165442,
    "longitude": 1.339112
  },
  {
    "osmId": 9350033717,
    "name": "مطعم المصالحة",
    "latitude": 36.1347727,
    "longitude": 1.3558982
  },
  {
    "osmId": 10902714605,
    "latitude": 36.1632987,
    "longitude": 1.3189536
  },
  {
    "osmId": 11431693470,
    "name": "AQUA Number one",
    "latitude": 36.1633909,
    "longitude": 1.318734
  }
]