[
  {
    "osmId": 256462663,
    "name": "Centro de Jubilados",
    "latitude": 36.8807271,
    "longitude": -2.0054967
  },
  {
    "osmId": 269363999,
    "name": "Bitacora",
    "latitude": 36.8745766,
    "longitude": -2.015551
  },
  {
    "osmId": 280947499,
    "name": "El Pikinini",
    "latitude": 36.8799718,
    "longitude": -2.0052563
  },
  {
    "osmId": 293459286,
    "name": "La Villa",
    "latitude": 36.9414015,
    "longitude": -1.9337484
  },
  {
    "osmId": 293459353,
    "name": "La Palmera",
    "latitude": 36.9395705,
    "longitude": -1.9329027
  },
  {
    "osmId": 293465147,
    "name": "Sotavento",
    "latitude": 36.940284,
    "longitude": -1.9342702
  },
  {
    "osmId": 460419722,
    "name": "La palma",
    "latitude": 36.8804051,
    "longitude": -2.00425
  },
  {
    "osmId": 460419723,
    "name": "La buganvilla",
    "latitude": 36.8799726,
    "longitude": -2.0045933
  },
  {
    "osmId": 503681847,
    "name": "Bar Fidel",
    "latitude": 36.84687,
    "longitude": -2.039048
  },
  {
    "osmId": 503940416,
    "name": "Samambaia",
    "latitude": 36.84706,
    "longitude": -2.0382192
  },
  {
    "osmId": 503940423,
    "name": "PanPePato",
    "latitude": 36.847168,
    "longitude": -2.0382245
  },
  {
    "osmId": 504044219,
    "name": "El Cinto",
    "latitude": 36.8467739,
    "longitude": -2.0403477
  },
  {
    "osmId": 504050413,
    "name": "La Tasquilla",
    "latitude": 36.8460983,
    "longitude": -2.0419637
  },
  {
    "osmId": 504050417,
    "name": "Casa Pintao",
    "latitude": 36.8465888,
    "longitude": -2.0421304
  },
  {
    "osmId": 504050421,
    "name": "Crisol",
    "latitude": 36.8465972,
    "longitude": -2.0414738
  },
  {
    "osmId": 504414889,
    "name": "Hostal Restaurante La Isleta del Moro",
    "latitude": 36.8134588,
    "longitude": -2.0518141
  },
  {
    "osmId": 1272550794,
    "latitude": 36.8141389,
    "longitude": -2.0540274
  },
  {
    "osmId": 1674557941,
    "name": "Restaurante El Mich",
    "website": "http://www.labuganvilladesanjose.com/",
    "latitude": 36.7669132,
    "longitude": -2.1103993
  },
  {
    "osmId": 2134664310,
    "latitude": 36.8040805,
    "longitude": -2.0637097
  },
  {
    "osmId": 2291503705,
    "latitude": 36.991549,
    "longitude": -2.063959
  },
  {
    "osmId": 2291504171,
    "name": "Venta del Pobre",
    "website": "https://ventadelpobre.es/",
    "latitude": 36.9921832,
    "longitude": -2.0678428
  },
  {
    "osmId": 2413327216,
    "name": "Costamarga",
    "latitude": 36.9394101,
    "longitude": -1.9336821
  },
  {
    "osmId": 2413327221,
    "name": "La Hoya",
    "latitude": 36.9411556,
    "longitude": -1.9353432
  },
  {
    "osmId": 2677837539,
    "name": "Las Palmas",
    "website": "https://laspalmas-hoteles.com/restaurante-hotel-las-palmas/",
    "latitude": 36.9949319,
    "longitude": -1.8961609
  },
  {
    "osmId": 2679642595,
    "name": "Chiringuito Ana",
    "latitude": 36.9978286,
    "longitude": -1.8901084
  },
  {
    "osmId": 2679642607,
    "name": "Gorasoak",
    "latitude": 36.997089,
    "longitude": -1.8905947
  },
  {
    "osmId": 2682643297,
    "name": "Alborán",
    "latitude": 36.9959575,
    "longitude": -1.8936634
  },
  {
    "osmId": 2682643302,
    "name": "El Pescador",
    "latitude": 36.9981799,
    "longitude": -1.8931167
  },
  {
    "osmId": 2682643303,
    "name": "Felipe",
    "latitude": 36.9973327,
    "longitude": -1.8941227
  },
  {
    "osmId": 2682643304,
    "name": "Hong Kong",
    "latitude": 36.9992227,
    "longitude": -1.8932913
  },
  {
    "osmId": 2699050444,
    "name": "Botavara",
    "latitude": 36.7625932,
    "longitude": -2.1014037
  },
  {
    "osmId": 2699050449,
    "name": "Cuatro Nudos",
    "latitude": 36.7628116,
    "longitude": -2.101814
  },
  {
    "osmId": 2699050456,
    "name": "El Faro Puerto",
    "latitude": 36.7632569,
    "longitude": -2.1042751
  },
  {
    "osmId": 2699050461,
    "name": "Mediterráneo",
    "latitude": 36.7630774,
    "longitude": -2.1041124
  },
  {
    "osmId": 2794750756,
    "name": "La Gallineta",
    "latitude": 36.7890174,
    "longitude": -2.1098479
  },
  {
    "osmId": 3052040934,
    "name": "Alba",
    "latitude": 36.8498545,
    "longitude": -2.1222866
  },
  {
    "osmId": 3087677273,
    "name": "La Ola",
    "latitude": 36.8142827,
    "longitude": -2.0510974
  },
  {
    "osmId": 3227955852,
    "latitude": 36.7629651,
    "longitude": -2.1092879
  },
  {
    "osmId": 3227962399,
    "latitude": 36.7635918,
    "longitude": -2.1082054
  },
  {
    "osmId": 3229560567,
    "latitude": 36.7617583,
    "longitude": -2.1083639
  },
  {
    "osmId": 3229560568,
    "name": "La Abaceria",
    "latitude": 36.7619074,
    "longitude": -2.1083696
  },
  {
    "osmId": 3229564010,
    "latitude": 36.7679632,
    "longitude": -2.1094992
  },
  {
    "osmId": 3229582986,
    "latitude": 36.7641018,
    "longitude": -2.1053156
  },
  {
    "osmId": 3229582987,
    "name": "Ristorante Vesuvius",
    "latitude": 36.7640042,
    "longitude": -2.1057123
  },
  {
    "osmId": 3236020575,
    "latitude": 36.7655198,
    "longitude": -2.1089845
  },
  {
    "osmId": 3658910828,
    "name": "Los Tarahis",
    "latitude": 36.9385886,
    "longitude": -1.936991
  },
  {
    "osmId": 3659411688,
    "name": "Aguamarga III",
    "latitude": 36.9398426,
    "longitude": -1.9334531
  },
  {
    "osmId": 3659457439,
    "name": "La Plaza",
    "latitude": 36.939679,
    "longitude": -1.9335311
  },
  {
    "osmId": 3659457640,
    "name": "Pizzeria Carpanta",
    "latitude": 36.9399163,
    "longitude": -1.9331831
  },
  {
    "osmId": 4357664092,
    "name": "La Goleta",
    "latitude": 36.7807887,
    "longitude": -2.2454458
  },
  {
    "osmId": 4357833289,
    "name": "El Barquero",
    "latitude": 36.7952753,
    "longitude": -2.2314114
  },
  {
    "osmId": 4371563994,
    "name": "Puerta de Europa",
    "website": "https://www.puertadeeuropa.com/",
    "latitude": 36.9928948,
    "longitude": -2.0683497
  },
  {
    "osmId": 4432498256,
    "name": "Bar Fernández",
    "latitude": 36.8933256,
    "longitude": -2.2801945
  },
  {
    "osmId": 4433077778,
    "name": "Bar Navas",
    "latitude": 36.7807523,
    "longitude": -2.2434297
  },
  {
    "osmId": 4446205790,
    "name": "La estrella",
    "latitude": 36.7372375,
    "longitude": -2.206616
  },
  {
    "osmId": 4483782829,
    "name": "Casa Enriqueta",
    "latitude": 36.9873553,
    "longitude": -2.2225946
  },
  {
    "osmId": 4483783436,
    "latitude": 36.9875406,
    "longitude": -2.2228915
  },
  {
    "osmId": 4813577422,
    "name": "Mediterráneo",
    "latitude": 36.7797544,
    "longitude": -2.2444072
  },
  {
    "osmId": 4853889022,
    "name": "Estrella de la India Restaurante Hindú",
    "latitude": 36.7681699,
    "longitude": -2.1093214
  },
  {
    "osmId": 4939774622,
    "name": "Restaurante Comida Casera",
    "latitude": 36.7808679,
    "longitude": -2.2418302
  },
  {
    "osmId": 5050494521,
    "name": "Casa Café de la Loma",
    "latitude": 36.8201014,
    "longitude": -2.0511666
  },
  {
    "osmId": 5135389121,
    "latitude": 36.7645924,
    "longitude": -2.1054919
  },
  {
    "osmId": 5221601021,
    "name": "Tapas Monsul",
    "latitude": 36.7604085,
    "longitude": -2.108691
  },
  {
    "osmId": 5223516526,
    "name": "Pan Pe Pato",
    "latitude": 36.8478177,
    "longitude": -2.0433384
  },
  {
    "osmId": 5223528523,
    "name": "lebeche",
    "latitude": 36.8469568,
    "longitude": -2.0381964
  },
  {
    "osmId": 5508707438,
    "name": "El Faro",
    "latitude": 36.7243979,
    "longitude": -2.1925666
  },
  {
    "osmId": 5525454521,
    "name": "Bahía",
    "latitude": 36.7808625,
    "longitude": -2.2423937
  },
  {
    "osmId": 6208862485,
    "name": "Chiringuito Restaurante Chiri-Bus",
    "latitude": 36.7772909,
    "longitude": -2.2420479
  },
  {
    "osmId": 6304341205,
    "name": "Restaurante Hotel Blanca Brisa Cabo de Gata",
    "website": "https://blancabrisa.com",
    "latitude": 36.7808394,
    "longitude": -2.2385904
  },
  {
    "osmId": 6380553594,
    "name": "La Plomera",
    "latitude": 36.8795127,
    "longitude": -2.0045705
  },
  {
    "osmId": 6482610339,
    "name": "Sagoni",
    "latitude": 36.9986516,
    "longitude": -1.8904419
  },
  {
    "osmId": 6487635301,
    "name": "Juan Mariano",
    "latitude": 36.9960063,
    "longitude": -1.8931429
  },
  {
    "osmId": 6487635303,
    "name": "Sol y Playa",
    "latitude": 36.9960762,
    "longitude": -1.892696
  },
  {
    "osmId": 6487650774,
    "name": "La Estrella",
    "latitude": 36.9993656,
    "longitude": -1.8940657
  },
  {
    "osmId": 6487650776,
    "name": "La Parada",
    "latitude": 36.999509,
    "longitude": -1.8954056
  },
  {
    "osmId": 6533739708,
    "name": "El Octopus",
    "latitude": 36.763324,
    "longitude": -2.1082861
  },
  {
    "osmId": 6879810564,
    "name": "Casa Pepe - Slow Food",
    "latitude": 36.7583366,
    "longitude": -2.1093132
  },
  {
    "osmId": 6976949075,
    "name": "Pata Negra",
    "latitude": 36.9646656,
    "longitude": -2.2076038
  },
  {
    "osmId": 7914077385,
    "name": "La Fábrica de Genoveses",
    "website": "http://www.playasycortijos.com/fábrica-de-genoveses/",
    "latitude": 36.7520997,
    "longitude": -2.1294384
  },
  {
    "osmId": 8828089418,
    "name": "Restaurante San José",
    "latitude": 36.7594268,
    "longitude": -2.1091861
  },
  {
    "osmId": 8902306321,
    "name": "Bartreze",
    "latitude": 36.789333,
    "longitude": -2.1097529
  },
  {
    "osmId": 9069885620,
    "name": "Peteneras",
    "latitude": 36.7953997,
    "longitude": -2.2310515
  },
  {
    "osmId": 9079432860,
    "name": "El Barranco",
    "website": "https://elbarrancorodalquilar.blogspot.com/",
    "latitude": 36.8460881,
    "longitude": -2.0421183
  },
  {
    "osmId": 9079458101,
    "name": "Terraza El Molino Gastrobar",
    "latitude": 36.8794896,
    "longitude": -2.0064266
  },
  {
    "osmId": 9735023282,
    "name": "Cala Grande",
    "latitude": 36.8143441,
    "longitude": -2.0519545
  },
  {
    "osmId": 10068320436,
    "name": "Marisquería La Estrella",
    "latitude": 36.938809,
    "longitude": -2.1348939
  },
  {
    "osmId": 10583797767,
    "name": "socorrito",
    "latitude": 36.8793289,
    "longitude": -2.0058527
  },
  {
    "osmId": 10612321531,
    "name": "Pizzería SIngapur",
    "latitude": 36.9370712,
    "longitude": -2.1315797
  },
  {
    "osmId": 11235810419,
    "name": "Restaurante- Bar Playa",
    "latitude": 36.7812698,
    "longitude": -2.245844
  },
  {
    "osmId": 11248770988,
    "name": "La Marejá",
    "latitude": 36.8787357,
    "longitude": -2.0052337
  },
  {
    "osmId": 11255059082,
    "name": "Café Bar Angelita",
    "latitude": 36.7382913,
    "longitude": -2.2072478
  },
  {
    "osmId": 12109914509,
    "name": "Restaurante Las Barcas",
    "website": "https://restaurantelasbarcas.es",
    "latitude": 36.8796269,
    "longitude": -2.0040204
  },
  {
    "osmId": 12109940861,
    "name": "Azafrán del cabo",
    "latitude": 36.8794474,
    "longitude": -2.0062752
  },
  {
    "osmId": 12109965048,
    "name": "Pizzeria Italiana Il Brigantino",
    "latitude": 36.7627604,
    "longitude": -2.1091324
  },
  {
    "osmId": 12109968002,
    "name": "Carallo",
    "latitude": 36.762825,
    "longitude": -2.1091858
  },
  {
    "osmId": 12296050501,
    "name": "El Bodegón de Aurora",
    "latitude": 36.8795279,
    "longitude": -2.0045359
  },
  {
    "osmId": 12296050601,
    "name": "Sotavento",
    "latitude": 36.8795507,
    "longitude": -2.0044872
  },
  {
    "osmId": 12676964225,
    "name": "Al Nazareno",
    "latitude": 36.8172502,
    "longitude": -2.1540773
  }
]