[
  {
    "osmId": 455700390,
    "name": "Restaurante Gilao",
    "latitude": 37.125716,
    "longitude": -7.6478297
  },
  {
    "osmId": 458797274,
    "name": "O Coreto",
    "website": "https://ocoreto.pt/",
    "latitude": 37.0154217,
    "longitude": -7.9355437
  },
  {
    "osmId": 475550982,
    "name": "Rio's",
    "latitude": 37.1655107,
    "longitude": -7.5204099
  },
  {
    "osmId": 475550985,
    "name": "A Proa",
    "latitude": 37.1676182,
    "longitude": -7.5221881
  },
  {
    "osmId": 475551031,
    "name": "Manta-Rota",
    "latitude": 37.1681764,
    "longitude": -7.5226107
  },
  {
    "osmId": 499485199,
    "name": "Petunia",
    "latitude": 37.0754104,
    "longitude": -8.1183514
  },
  {
    "osmId": 608620328,
    "name": "Vista Mar",
    "latitude": 37.0757644,
    "longitude": -8.2961992
  },
  {
    "osmId": 652378932,
    "name": "Dom Diniz",
    "latitude": 37.0803828,
    "longitude": -8.2903748
  },
  {
    "osmId": 652726003,
    "name": "Pôr do Sol",
    "latitude": 37.0792723,
    "longitude": -8.2988593
  },
  {
    "osmId": 653475025,
    "name": "A Sardinha",
    "latitude": 37.076229,
    "longitude": -8.2773829
  },
  {
    "osmId": 653880787,
    "name": "O Marinheiro",
    "website": "https://www.o-marinheiro.com/",
    "latitude": 37.0796697,
    "longitude": -8.2917578
  },
  {
    "osmId": 653880795,
    "name": "Seasons",
    "latitude": 37.0808989,
    "longitude": -8.2850324
  },
  {
    "osmId": 653880801,
    "name": "Grande Mundo",
    "latitude": 37.0807578,
    "longitude": -8.2819961
  },
  {
    "osmId": 653880804,
    "name": "Margem Sul",
    "latitude": 37.080698,
    "longitude": -8.2826215
  },
  {
    "osmId": 656450986,
    "name": "O Marmeleiro",
    "latitude": 37.1065446,
    "longitude": -8.2795781
  },
  {
    "osmId": 656451060,
    "name": "O Aurélio",
    "latitude": 37.1270681,
    "longitude": -8.2950982
  },
  {
    "osmId": 656451095,
    "name": "O Marreiro",
    "latitude": 37.127206,
    "longitude": -8.2937263
  },
  {
    "osmId": 656508775,
    "name": "The Brasserie",
    "website": "https://www.thebrasserie.pt",
    "latitude": 37.0814398,
    "longitude": -8.2986378
  },
  {
    "osmId": 656508816,
    "name": "Jompra",
    "latitude": 37.0825915,
    "longitude": -8.2972619
  },
  {
    "osmId": 656508822,
    "name": "Alimentare",
    "latitude": 37.0832772,
    "longitude": -8.2968602
  },
  {
    "osmId": 658878042,
    "name": "Praia Grande",
    "latitude": 37.0755989,
    "longitude": -8.2831444
  },
  {
    "osmId": 658879505,
    "name": "O País",
    "latitude": 37.0849923,
    "longitude": -8.2662156
  },
  {
    "osmId": 659111414,
    "name": "Boulevard",
    "latitude": 37.0833329,
    "longitude": -8.2891197
  },
  {
    "osmId": 659192367,
    "name": "Sunshine",
    "latitude": 37.0833683,
    "longitude": -8.2847462
  },
  {
    "osmId": 659192803,
    "name": "Solar das Oliveiras",
    "latitude": 37.0874712,
    "longitude": -8.2920818
  },
  {
    "osmId": 659913521,
    "name": "Luau",
    "latitude": 37.0865257,
    "longitude": -8.2778074
  },
  {
    "osmId": 660461422,
    "latitude": 37.0897288,
    "longitude": -8.2949686
  },
  {
    "osmId": 660461470,
    "name": "O Barco",
    "latitude": 37.0898572,
    "longitude": -8.2945583
  },
  {
    "osmId": 662437736,
    "name": "Palladium",
    "latitude": 37.125012,
    "longitude": -8.2995261
  },
  {
    "osmId": 662437752,
    "name": "Casa Bitoque",
    "latitude": 37.126076,
    "longitude": -8.2993766
  },
  {
    "osmId": 662437765,
    "name": "Ramires",
    "latitude": 37.1263496,
    "longitude": -8.299264
  },
  {
    "osmId": 662437766,
    "name": "Ideal",
    "latitude": 37.1263331,
    "longitude": -8.2989981
  },
  {
    "osmId": 665728218,
    "name": "Alsafir",
    "latitude": 37.6361512,
    "longitude": -7.6644439
  },
  {
    "osmId": 665728533,
    "name": "Migas",
    "latitude": 37.6385982,
    "longitude": -7.6627559
  },
  {
    "osmId": 666995552,
    "name": "O Louis",
    "latitude": 37.2355745,
    "longitude": -8.1777357
  },
  {
    "osmId": 928558269,
    "name": "A Camponesa",
    "latitude": 37.3346337,
    "longitude": -7.4905049
  },
  {
    "osmId": 929407107,
    "name": "O Forno",
    "latitude": 37.1146525,
    "longitude": -7.6685488
  },
  {
    "osmId": 930281642,
    "name": "Casa Merca",
    "latitude": 37.332583,
    "longitude": -7.4870919
  },
  {
    "osmId": 933891283,
    "name": "Chic Zé",
    "latitude": 37.0916127,
    "longitude": -7.7050784
  },
  {
    "osmId": 937023463,
    "name": "Bar Estadio",
    "latitude": 37.2157896,
    "longitude": -7.3970616
  },
  {
    "osmId": 948503857,
    "name": "Pontense",
    "latitude": 37.0319925,
    "longitude": -7.94911
  },
  {
    "osmId": 1002135058,
    "name": "Akvavit",
    "latitude": 37.0779739,
    "longitude": -8.1220522
  },
  {
    "osmId": 1034400596,
    "name": "Os Fialhos",
    "latitude": 37.0719118,
    "longitude": -7.7166965
  },
  {
    "osmId": 1195458032,
    "name": "6º Parágrafo",
    "latitude": 37.084993,
    "longitude": -8.2660697
  },
  {
    "osmId": 1195458238,
    "name": "O Penedo",
    "latitude": 37.0853964,
    "longitude": -8.2558963
  },
  {
    "osmId": 1218142395,
    "name": "A Tia Bia",
    "website": "https://www.atiabia.com/",
    "latitude": 37.2403285,
    "longitude": -7.93717
  },
  {
    "osmId": 1219435941,
    "name": "Fonte Pequena",
    "latitude": 37.2380908,
    "longitude": -8.1725589
  },
  {
    "osmId": 1219713410,
    "name": "Café Rocha",
    "latitude": 37.1292019,
    "longitude": -8.2767366
  },
  {
    "osmId": 1224611809,
    "name": "Academico",
    "latitude": 37.2565599,
    "longitude": -8.2860605
  },
  {
    "osmId": 1254377401,
    "name": "Restaurante Hamburgo",
    "latitude": 37.2330741,
    "longitude": -8.1324827
  },
  {
    "osmId": 1260346874,
    "name": "Restaurante Zig Zag",
    "latitude": 37.1629346,
    "longitude": -8.2604795
  },
  {
    "osmId": 1260346904,
    "latitude": 37.1668568,
    "longitude": -8.2576524
  },
  {
    "osmId": 1260346907,
    "name": "Casa de Pasto O Largo",
    "latitude": 37.1646514,
    "longitude": -8.256711
  },
  {
    "osmId": 1260363550,
    "name": "Restaurante Oliveira",
    "latitude": 37.1607526,
    "longitude": -8.2615879
  },
  {
    "osmId": 1268656106,
    "name": "Sol e Jardiim",
    "latitude": 37.0170882,
    "longitude": -7.9335187
  },
  {
    "osmId": 1298529540,
    "name": "Sushimundo",
    "website": "https://www.sushimundo.com/",
    "latitude": 37.0161502,
    "longitude": -7.9307651
  },
  {
    "osmId": 1298529543,
    "name": "Velha Casa",
    "latitude": 37.0160045,
    "longitude": -7.9303976
  },
  {
    "osmId": 1298529547,
    "latitude": 37.0156881,
    "longitude": -7.9299893
  },
  {
    "osmId": 1312711619,
    "name": "O pôr do sol",
    "latitude": 37.3886698,
    "longitude": -8.2765679
  },
  {
    "osmId": 1336124545,
    "name": "Restaurante Chinês Pine View",
    "latitude": 37.0900057,
    "longitude": -8.168106
  },
  {
    "osmId": 1346428339,
    "name": "O Tapas",
    "latitude": 37.1816502,
    "longitude": -7.4535445
  },
  {
    "osmId": 1372790417,
    "name": "Taska",
    "latitude": 37.0190747,
    "longitude": -7.933495
  },
  {
    "osmId": 1389342306,
    "name": "Jag's Bar",
    "website": "https://www.jagsbistro.com/",
    "latitude": 37.2575527,
    "longitude": -7.4204451
  },
  {
    "osmId": 1429416298,
    "name": "Restaurante Martins",
    "latitude": 37.1069365,
    "longitude": -8.2307489
  },
  {
    "osmId": 1429416300,
    "name": "Manjar",
    "latitude": 37.1153324,
    "longitude": -8.2304549
  },
  {
    "osmId": 1429416363,
    "name": "Restaurant Lá Em Casa Grill",
    "website": "https://www.facebook.com/pages/L%C3%A1-em-Casa-Grill/353262294861953?fref=nf",
    "latitude": 37.1083547,
    "longitude": -8.2308052
  },
  {
    "osmId": 1429416384,
    "name": "Café Lima",
    "latitude": 37.1047653,
    "longitude": -8.2313685
  },
  {
    "osmId": 1429416480,
    "name": "Poente",
    "latitude": 37.109313,
    "longitude": -8.2304029
  },
  {
    "osmId": 1429429320,
    "name": "Isa's Pizzas",
    "latitude": 37.0912875,
    "longitude": -8.2426472
  },
  {
    "osmId": 1429429360,
    "name": "O Jorge",
    "latitude": 37.0921304,
    "longitude": -8.2408984
  },
  {
    "osmId": 1433965988,
    "name": "Sandocábula",
    "latitude": 37.0422052,
    "longitude": -7.9708252
  },
  {
    "osmId": 1433965991,
    "name": "Alô Pizza",
    "latitude": 37.0427226,
    "longitude": -7.9698279
  },
  {
    "osmId": 1433966002,
    "name": "Cantina",
    "latitude": 37.0434405,
    "longitude": -7.971552
  },
  {
    "osmId": 1433966024,
    "name": "Snack-Bar da Associação Académica",
    "latitude": 37.0455514,
    "longitude": -7.9735047
  },
  {
    "osmId": 1433966034,
    "name": "Bistro Caffe Snack Bar",
    "latitude": 37.0426663,
    "longitude": -7.9704138
  },
  {
    "osmId": 1437801780,
    "name": "O Pescador",
    "latitude": 37.1380312,
    "longitude": -8.0228731
  },
  {
    "osmId": 1437839442,
    "latitude": 37.2360357,
    "longitude": -8.1767583
  },
  {
    "osmId": 1454380027,
    "name": "Snack-Bar Vieira",
    "latitude": 37.0932808,
    "longitude": -8.2685854
  },
  {
    "osmId": 1520336113,
    "name": "Bica",
    "latitude": 37.1278958,
    "longitude": -7.6485848
  },
  {
    "osmId": 1590246677,
    "name": "Sal'mare Beach Club",
    "website": "https://www.facebook.com/SalmareBeachClub",
    "latitude": 37.007155,
    "longitude": -7.9937649
  },
  {
    "osmId": 1590246681,
    "latitude": 37.0060475,
    "longitude": -7.9921234
  },
  {
    "osmId": 1652859496,
    "name": "Restaurant Dois Irmãos",
    "latitude": 37.0169585,
    "longitude": -7.933209
  },
  {
    "osmId": 1652859510,
    "name": "Restaurant Peppers Steakhouse",
    "latitude": 37.0744881,
    "longitude": -8.120584
  },
  {
    "osmId": 1672204277,
    "name": "Clube Recreativo Cabanense Restaurante",
    "latitude": 37.1360227,
    "longitude": -7.5971991
  },
  {
    "osmId": 1711127800,
    "name": "Restaurante Pedro",
    "latitude": 37.1365784,
    "longitude": -7.5965023
  },
  {
    "osmId": 1719159152,
    "latitude": 37.0977449,
    "longitude": -8.2066443
  },
  {
    "osmId": 1719159153,
    "name": "A Varanda Restaurant",
    "latitude": 37.0930552,
    "longitude": -8.2074924
  },
  {
    "osmId": 1746928118,
    "name": "Churrasqueira Raposo",
    "latitude": 37.6504667,
    "longitude": -8.2249537
  },
  {
    "osmId": 1819616515,
    "name": "American Diner 1",
    "latitude": 37.0978145,
    "longitude": -8.2284775
  },
  {
    "osmId": 1819617757,
    "name": "American Diner 2",
    "latitude": 37.0913976,
    "longitude": -8.2219713
  },
  {
    "osmId": 1839362228,
    "name": "Casa Simão",
    "latitude": 37.1276794,
    "longitude": -7.6500702
  },
  {
    "osmId": 1839894234,
    "name": "Fenicia",
    "latitude": 37.1271472,
    "longitude": -7.6478589
  },
  {
    "osmId": 1867692839,
    "latitude": 37.032423,
    "longitude": -7.9596585
  },
  {
    "osmId": 1867692846,
    "latitude": 37.0299906,
    "longitude": -7.9663318
  },
  {
    "osmId": 1867692849,
    "latitude": 37.0335536,
    "longitude": -7.9648942
  },
  {
    "osmId": 1867692856,
    "name": "Restaurant Os Manos",
    "latitude": 37.0254538,
    "longitude": -7.96314
  },
  {
    "osmId": 1880286073,
    "name": "Pizzeria Fratelli",
    "website": "https://fratelli.pt/pop/",
    "latitude": 37.0903547,
    "longitude": -8.1906034
  },
  {
    "osmId": 1944902060,
    "name": "São Domingos",
    "latitude": 37.67095,
    "longitude": -7.5009184
  },
  {
    "osmId": 1945946913,
    "name": "Escandinávia Green Spirit",
    "latitude": 37.0559927,
    "longitude": -7.7452033
  },
  {
    "osmId": 1945946917,
    "name": "Café dos Mestres",
    "latitude": 37.0552544,
    "longitude": -7.7446427
  },
  {
    "osmId": 1945946920,
    "latitude": 37.053418,
    "longitude": -7.7466868
  },
  {
    "osmId": 1945946922,
    "latitude": 37.0536277,
    "longitude": -7.7462523
  },
  {
    "osmId": 1945946923,
    "latitude": 37.0535462,
    "longitude": -7.7464079
  },
  {
    "osmId": 1946141427,
    "latitude": 37.0548346,
    "longitude": -7.7504894
  },
  {
    "osmId": 1946146096,
    "name": "Crispim",
    "latitude": 37.0578795,
    "longitude": -7.7485551
  },
  {
    "osmId": 1953339826,
    "name": "Restaurante Fuzeta",
    "latitude": 37.055421,
    "longitude": -7.7463981
  },
  {
    "osmId": 1972833789,
    "name": "Restaurante Horta",
    "latitude": 37.1536392,
    "longitude": -7.8683482
  },
  {
    "osmId": 1972903721,
    "name": "Mares",
    "latitude": 37.1250565,
    "longitude": -7.6463108
  },
  {
    "osmId": 1982585550,
    "name": "O Forno",
    "latitude": 37.0936198,
    "longitude": -7.6969673
  },
  {
    "osmId": 1982585551,
    "name": "Os Arcos",
    "latitude": 37.1212824,
    "longitude": -7.7165186
  },
  {
    "osmId": 1983356437,
    "name": "Colibri",
    "latitude": 37.0843229,
    "longitude": -7.7877539
  },
  {
    "osmId": 1983356459,
    "name": "Luís do Prego",
    "latitude": 37.1396015,
    "longitude": -7.7089038
  },
  {
    "osmId": 1983356467,
    "name": "Snack Bar A Caravela",
    "latitude": 37.0869918,
    "longitude": -7.7832716
  },
  {
    "osmId": 1994052673,
    "name": "Restaurante Maresia",
    "latitude": 37.0548218,
    "longitude": -7.7447955
  },
  {
    "osmId": 2024672513,
    "name": "Ti Anica da Fuzeta",
    "latitude": 37.055302,
    "longitude": -7.7467429
  },
  {
    "osmId": 2024672514,
    "name": "Iguarias da vila",
    "latitude": 37.0553425,
    "longitude": -7.7466268
  },
  {
    "osmId": 2070582342,
    "name": "Tavertino's",
    "latitude": 37.0938237,
    "longitude": -8.1892052
  },
  {
    "osmId": 2070607623,
    "name": "A Lagosteira",
    "website": "https://www.alagosteira.com/",
    "latitude": 37.097527,
    "longitude": -8.173753
  },
  {
    "osmId": 2070639923,
    "name": "Ze do Peixe Assado",
    "latitude": 37.0912266,
    "longitude": -8.2223462
  },
  {
    "osmId": 2070657463,
    "name": "Antiquários Dos Leitões",
    "latitude": 37.1227678,
    "longitude": -8.1899799
  },
  {
    "osmId": 2070874900,
    "name": "Restaurante Eduardo's",
    "latitude": 37.0931346,
    "longitude": -8.2231381
  },
  {
    "osmId": 2070940871,
    "name": "Restaurante Atelier do Bacalhau",
    "latitude": 37.1380247,
    "longitude": -8.0249076
  },
  {
    "osmId": 2080587574,
    "name": "Aroma Di Mare",
    "latitude": 37.0936073,
    "longitude": -8.1972744
  },
  {
    "osmId": 2092826772,
    "name": "Paisagem",
    "latitude": 37.0838301,
    "longitude": -8.083451
  },
  {
    "osmId": 2163823724,
    "name": "Carmano",
    "latitude": 37.4711714,
    "longitude": -7.4718336
  },
  {
    "osmId": 2163824190,
    "name": "Villa Velha",
    "latitude": 37.4710805,
    "longitude": -7.4726671
  },
  {
    "osmId": 2164274518,
    "name": "Retiro dos Cacadores",
    "latitude": 37.3336969,
    "longitude": -7.8178384
  },
  {
    "osmId": 2164616859,
    "name": "Jin Yuan",
    "latitude": 37.1525353,
    "longitude": -7.8823793
  },
  {
    "osmId": 2164616860,
    "name": "Luís dos Frangos",
    "latitude": 37.1525121,
    "longitude": -7.8820611
  },
  {
    "osmId": 2164616861,
    "name": "Maharaja Patiala",
    "latitude": 37.1526051,
    "longitude": -7.883074
  },
  {
    "osmId": 2164616864,
    "name": "Pizza Hut",
    "latitude": 37.0287752,
    "longitude": -7.9450694
  },
  {
    "osmId": 2164616953,
    "name": "Forneria do Largo",
    "latitude": 37.1522599,
    "longitude": -7.8883966
  },
  {
    "osmId": 2189204507,
    "latitude": 37.5354749,
    "longitude": -8.184604
  },
  {
    "osmId": 2189204648,
    "latitude": 37.5368463,
    "longitude": -8.183285
  },
  {
    "osmId": 2201887558,
    "name": "Belize",
    "latitude": 37.0850411,
    "longitude": -8.2670994
  },
  {
    "osmId": 2201887560,
    "latitude": 37.0850565,
    "longitude": -8.2679061
  },
  {
    "osmId": 2212077921,
    "name": "Mama Mia",
    "latitude": 37.0925616,
    "longitude": -8.2640652
  },
  {
    "osmId": 2216765267,
    "name": "Colibri via Verde",
    "latitude": 37.9236995,
    "longitude": -8.2437194
  },
  {
    "osmId": 2216765545,
    "latitude": 37.9235197,
    "longitude": -8.2416756
  },
  {
    "osmId": 2218808424,
    "name": "Praça Velha",
    "latitude": 37.1255314,
    "longitude": -7.6479142
  },
  {
    "osmId": 2278254710,
    "name": "Arrozinho de Feijão",
    "latitude": 37.9374246,
    "longitude": -7.5921797
  },
  {
    "osmId": 2278452442,
    "name": "Cervejaria Lebrinha",
    "latitude": 37.9410745,
    "longitude": -7.5965913
  },
  {
    "osmId": 2294610159,
    "name": "O Bangula",
    "latitude": 37.8338655,
    "longitude": -8.2439597
  },
  {
    "osmId": 2302502147,
    "name": "19 Caffè",
    "website": "http://www.facebook.com/19caffe.esteval",
    "latitude": 37.0857069,
    "longitude": -7.9894454
  },
  {
    "osmId": 2312163990,
    "name": "O Victor",
    "latitude": 37.1071914,
    "longitude": -8.2126391
  },
  {
    "osmId": 2374576820,
    "name": "BJs Oceanside",
    "website": "https://www.bjsoceanside.com/",
    "latitude": 37.0593532,
    "longitude": -8.0840451
  },
  {
    "osmId": 2402265598,
    "latitude": 37.1157055,
    "longitude": -8.2322166
  },
  {
    "osmId": 2427807307,
    "name": "Rive Gauche",
    "latitude": 37.1275801,
    "longitude": -7.6484609
  },
  {
    "osmId": 2428874331,
    "name": "Petisqueria Belmar",
    "latitude": 37.1278782,
    "longitude": -7.6488447
  },
  {
    "osmId": 2431564681,
    "name": "A Casa do Polvo",
    "latitude": 37.101795,
    "longitude": -7.6576552
  },
  {
    "osmId": 2435637561,
    "name": "A Gaiata",
    "latitude": 37.0691044,
    "longitude": -8.107422
  },
  {
    "osmId": 2435642399,
    "name": "A Caravela",
    "latitude": 37.0690702,
    "longitude": -8.1072503
  },
  {
    "osmId": 2435651824,
    "name": "Pizzaria Alibi",
    "latitude": 37.069244,
    "longitude": -8.106925
  },
  {
    "osmId": 2435660388,
    "name": "Tasca do António",
    "latitude": 37.070135,
    "longitude": -8.107225
  },
  {
    "osmId": 2435667169,
    "name": "Snack Bar Meia Laranja",
    "latitude": 37.0701327,
    "longitude": -8.1068877
  },
  {
    "osmId": 2435676520,
    "name": "Restaurante Marisqueira Central",
    "latitude": 37.070508,
    "longitude": -8.107169
  },
  {
    "osmId": 2435688116,
    "name": "Pizzaria Senhor Frog's",
    "latitude": 37.071196,
    "longitude": -8.106784
  },
  {
    "osmId": 2438929139,
    "name": "Restaurante Sr. Frango",
    "latitude": 37.07681,
    "longitude": -8.11492
  },
  {
    "osmId": 2438931029,
    "name": "Restaurante Jin Du",
    "latitude": 37.070758,
    "longitude": -8.107894
  },
  {
    "osmId": 2438936890,
    "name": "Restaurante o Búzio",
    "latitude": 37.06982,
    "longitude": -8.108085
  },
  {
    "osmId": 2448174363,
    "name": "Adega Nunes",
    "latitude": 37.1317815,
    "longitude": -7.8882412
  },
  {
    "osmId": 2461809887,
    "name": "Oura Supermarket",
    "latitude": 37.0914156,
    "longitude": -8.2218199
  },
  {
    "osmId": 2489311442,
    "name": "Flor do Mar",
    "latitude": 37.0900405,
    "longitude": -8.1687654
  },
  {
    "osmId": 2489311466,
    "name": "Frango Real",
    "latitude": 37.0904098,
    "longitude": -8.1684997
  },
  {
    "osmId": 2612039387,
    "name": "Manjar do Marquês",
    "latitude": 37.1945531,
    "longitude": -7.4159971
  },
  {
    "osmId": 2612039394,
    "name": "Cantinho do Marquês",
    "latitude": 37.1947332,
    "longitude": -7.4160412
  },
  {
    "osmId": 2612039410,
    "name": "Snack Bar Monumental",
    "latitude": 37.1944831,
    "longitude": -7.4159773
  },
  {
    "osmId": 2612432197,
    "name": "Casa das Sopas",
    "latitude": 37.1944187,
    "longitude": -7.4168823
  },
  {
    "osmId": 2612432199,
    "name": "Joaquim Gomes",
    "latitude": 37.1943789,
    "longitude": -7.4148131
  },
  {
    "osmId": 2612432202,
    "name": "A Casa do Bacalhau",
    "latitude": 37.1943612,
    "longitude": -7.4168648
  },
  {
    "osmId": 2612432204,
    "name": "Snack Bar 2000",
    "latitude": 37.194591,
    "longitude": -7.4162457
  },
  {
    "osmId": 2612432207,
    "name": "Churrascaria Arninha",
    "latitude": 37.1943873,
    "longitude": -7.4166461
  },
  {
    "osmId": 2612432208,
    "name": "Restaurante Pisa II",
    "latitude": 37.1939093,
    "longitude": -7.4148685
  },
  {
    "osmId": 2616082332,
    "name": "Kebaab",
    "latitude": 37.1935769,
    "longitude": -7.4175211
  },
  {
    "osmId": 2616282528,
    "name": "Os Arcos",
    "latitude": 37.1932748,
    "longitude": -7.4140431
  },
  {
    "osmId": 2616282530,
    "name": "O Pescador",
    "latitude": 37.1936067,
    "longitude": -7.4141539
  },
  {
    "osmId": 2616282532,
    "name": "Sem Espinhas",
    "latitude": 37.1938339,
    "longitude": -7.4142384
  },
  {
    "osmId": 2616282536,
    "name": "Restaurante Jardim",
    "latitude": 37.1941069,
    "longitude": -7.4142974
  },
  {
    "osmId": 2616282540,
    "name": "Pizzaria Honoratos",
    "latitude": 37.1943052,
    "longitude": -7.4143657
  },
  {
    "osmId": 2616346453,
    "name": "Caves do Guadiana",
    "latitude": 37.1952947,
    "longitude": -7.4147129
  },
  {
    "osmId": 2629644117,
    "name": "A Caçarola",
    "latitude": 37.1964989,
    "longitude": -7.414692
  },
  {
    "osmId": 2631084274,
    "name": "Nil Tapas Pizza e Pasta",
    "latitude": 37.1934633,
    "longitude": -7.4173595
  },
  {
    "osmId": 2631290021,
    "name": "Restaurante Rally",
    "latitude": 37.195286,
    "longitude": -7.4150789
  },
  {
    "osmId": 2646548012,
    "name": "A taska",
    "latitude": 37.0262641,
    "longitude": -7.8448183
  },
  {
    "osmId": 2781838584,
    "name": "Alvaro de Campos",
    "latitude": 37.1251578,
    "longitude": -7.6503209
  },
  {
    "osmId": 2794550943,
    "name": "Hotel Residencial Marés",
    "website": "http://residencialmares.com/",
    "latitude": 37.1251028,
    "longitude": -7.6463188
  },
  {
    "osmId": 2870351936,
    "name": "Restaurante Serafim",
    "latitude": 37.5127872,
    "longitude": -8.059485
  },
  {
    "osmId": 2883809203,
    "name": "La Isla",
    "latitude": 37.1985696,
    "longitude": -7.318385
  },
  {
    "osmId": 2883811102,
    "name": "Mesón Plumas",
    "website": "https://mesonplumas.negocio.site/",
    "latitude": 37.2150302,
    "longitude": -7.4088918
  },
  {
    "osmId": 2883816501,
    "name": "Mesón Los Caleros",
    "latitude": 37.2203682,
    "longitude": -7.4077852
  },
  {
    "osmId": 2918696425,
    "name": "Ideal",
    "latitude": 37.1353628,
    "longitude": -7.6012909
  },
  {
    "osmId": 2934854359,
    "name": "Restaurante Adega Molhó Bico",
    "latitude": 37.9428861,
    "longitude": -7.5962119
  },
  {
    "osmId": 2957544445,
    "name": "Restaurante Austrália",
    "latitude": 37.0629758,
    "longitude": -7.9691858
  },
  {
    "osmId": 2989720361,
    "name": "Taberna Spot",
    "latitude": 37.0129045,
    "longitude": -7.9351155
  },
  {
    "osmId": 2991986537,
    "name": "Restaurante Academico",
    "latitude": 37.0167958,
    "longitude": -7.9353842
  },
  {
    "osmId": 2991990575,
    "name": "Aperitivo",
    "latitude": 37.0170838,
    "longitude": -7.9358553
  },
  {
    "osmId": 2991991340,
    "name": "New Taj Mal Tandoori",
    "latitude": 37.0170755,
    "longitude": -7.9357976
  },
  {
    "osmId": 2995116435,
    "name": "Pássaro Azul",
    "latitude": 37.089721,
    "longitude": -8.1919066
  },
  {
    "osmId": 2996746335,
    "name": "Osaka",
    "latitude": 37.0177426,
    "longitude": -7.9381044
  },
  {
    "osmId": 2996940153,
    "name": "Restaurante Museu do Lagar",
    "latitude": 37.1376493,
    "longitude": -8.0237723
  },
  {
    "osmId": 2997253242,
    "name": "Dois Irmãos",
    "latitude": 37.0171136,
    "longitude": -7.9334112
  },
  {
    "osmId": 2997253243,
    "name": "Amore Mio",
    "latitude": 37.0170578,
    "longitude": -7.9336154
  },
  {
    "osmId": 3010718282,
    "name": "A Camponesa",
    "latitude": 37.1755692,
    "longitude": -7.5327209
  },
  {
    "osmId": 3070514232,
    "name": "Churrasqueira O Nosso Franguinho",
    "latitude": 37.1191938,
    "longitude": -8.2394226
  },
  {
    "osmId": 3077148061,
    "name": "Indian Restaurant",
    "latitude": 37.1255572,
    "longitude": -7.6486826
  },
  {
    "osmId": 3077148064,
    "name": "O Parracho",
    "latitude": 37.1247874,
    "longitude": -7.64589
  },
  {
    "osmId": 3077148065,
    "name": "Pizzaria Mamma Mia",
    "latitude": 37.1244876,
    "longitude": -7.6479093
  },
  {
    "osmId": 3077148078,
    "name": "Restaurante América",
    "latitude": 37.125767,
    "longitude": -7.6491715
  },
  {
    "osmId": 3077148080,
    "name": "Taj Mahal",
    "latitude": 37.1251305,
    "longitude": -7.6465239
  },
  {
    "osmId": 3078909895,
    "latitude": 37.0898755,
    "longitude": -8.0747589
  },
  {
    "osmId": 3078909896,
    "latitude": 37.0895968,
    "longitude": -8.0758432
  },
  {
    "osmId": 3078909897,
    "name": "Alxama",
    "website": "https://www.alxama.com/",
    "latitude": 37.0950028,
    "longitude": -8.06728
  },
  {
    "osmId": 3078909898,
    "name": "Marum",
    "latitude": 37.0942552,
    "longitude": -8.0620099
  },
  {
    "osmId": 3078909899,
    "name": "Pinhal",
    "latitude": 37.0962484,
    "longitude": -8.0673364
  },
  {
    "osmId": 3078909900,
    "name": "O Rocha",
    "latitude": 37.0962346,
    "longitude": -8.0652556
  },
  {
    "osmId": 3078909927,
    "latitude": 37.0996438,
    "longitude": -8.0569734
  },
  {
    "osmId": 3079980165,
    "name": "Tiramisú",
    "latitude": 37.0790954,
    "longitude": -8.0792336
  },
  {
    "osmId": 3079980166,
    "latitude": 37.0768443,
    "longitude": -8.0782501
  },
  {
    "osmId": 3079980179,
    "name": "Marufo 1",
    "latitude": 37.0732788,
    "longitude": -8.0798889
  },
  {
    "osmId": 3079980180,
    "name": "Marufo 2",
    "latitude": 37.0739101,
    "longitude": -8.0801544
  },
  {
    "osmId": 3083293504,
    "latitude": 37.234032,
    "longitude": -8.1783561
  },
  {
    "osmId": 3084589414,
    "name": "Univerdoce",
    "latitude": 37.084137,
    "longitude": -8.0212803
  },
  {
    "osmId": 3084601364,
    "latitude": 37.0909673,
    "longitude": -8.0506913
  },
  {
    "osmId": 3113854385,
    "name": "Casa da Igreja",
    "latitude": 37.1570932,
    "longitude": -7.5462514
  },
  {
    "osmId": 3116486238,
    "name": "Eurasia",
    "latitude": 37.0907276,
    "longitude": -8.2287276
  },
  {
    "osmId": 3116768186,
    "name": "The kilt and kelt",
    "latitude": 37.0911897,
    "longitude": -8.2269949
  },
  {
    "osmId": 3168878066,
    "name": "A Oliveira",
    "latitude": 37.0260167,
    "longitude": -7.9688405
  },
  {
    "osmId": 3175666749,
    "name": "O Castelo",
    "latitude": 37.1245075,
    "longitude": -7.6511484
  },
  {
    "osmId": 3175666752,
    "latitude": 37.1265439,
    "longitude": -7.6504761
  },
  {
    "osmId": 3201362506,
    "name": "S. João",
    "latitude": 37.0871399,
    "longitude": -8.236908
  },
  {
    "osmId": 3201370323,
    "name": "Panacee",
    "latitude": 37.0859083,
    "longitude": -8.2365142
  },
  {
    "osmId": 3201442186,
    "name": "A Floresta",
    "latitude": 37.0732182,
    "longitude": -8.049479
  },
  {
    "osmId": 3354695378,
    "name": "Xicken & Cia",
    "latitude": 37.1593876,
    "longitude": -7.5792411
  },
  {
    "osmId": 3354695417,
    "name": "Taberna \"A Esquina\"",
    "latitude": 37.1601773,
    "longitude": -7.5779599
  },
  {
    "osmId": 3375683011,
    "name": "O Foral",
    "latitude": 37.1937657,
    "longitude": -8.2587144
  },
  {
    "osmId": 3382918477,
    "name": "Restaurante 3 Marias",
    "latitude": 37.0936903,
    "longitude": -8.1998848
  },
  {
    "osmId": 3401823862,
    "name": "Restorante Dallas",
    "latitude": 37.0676284,
    "longitude": -8.101199
  },
  {
    "osmId": 3401833432,
    "name": "Bambi",
    "latitude": 37.0699056,
    "longitude": -8.1061557
  },
  {
    "osmId": 3425113601,
    "name": "Torre Vehla",
    "latitude": 37.0770589,
    "longitude": -8.2976029
  },
  {
    "osmId": 3469682932,
    "name": "Old Navy",
    "website": "http://algarve.mapandapp.com/oldnavy.htm",
    "latitude": 37.0777413,
    "longitude": -8.1174777
  },
  {
    "osmId": 3469684271,
    "name": "Il Trio Italian",
    "website": "http://algarve.mapandapp.com/iltrio.htm",
    "latitude": 37.078007,
    "longitude": -8.116882
  },
  {
    "osmId": 3469711300,
    "name": "Natraj Indian Restaurant",
    "website": "http://test.mapandapp.com/natraj.htm",
    "latitude": 37.0792977,
    "longitude": -8.1177532
  },
  {
    "osmId": 3469719139,
    "name": "Fairways 2",
    "website": "http://algarve.mapandapp.com/fairwaysrestaurant.htm",
    "latitude": 37.0753163,
    "longitude": -8.1192754
  },
  {
    "osmId": 3471013950,
    "name": "Real Indian Magic",
    "website": "http://test.mapandapp.com/realindianmagic.htm",
    "latitude": 37.1274402,
    "longitude": -8.1494564
  },
  {
    "osmId": 3471026237,
    "website": "http://algarve.mapandapp.com/boliqueimeinnfeature.htm",
    "latitude": 37.1325896,
    "longitude": -8.1539839
  },
  {
    "osmId": 3471134487,
    "name": "O Marisco",
    "website": "http://test.mapandapp.com/omariscorestaurante.htm",
    "latitude": 37.0790729,
    "longitude": -8.1203945
  },
  {
    "osmId": 3471157603,
    "name": "Genco",
    "latitude": 37.0905012,
    "longitude": -8.0362688
  },
  {
    "osmId": 3471167695,
    "name": "Vaults  Restaurant",
    "website": "http://algarve.mapandapp.com/vaultsrestaurant.htm",
    "latitude": 37.0874052,
    "longitude": -8.0329322
  },
  {
    "osmId": 3471270593,
    "name": "Vintage",
    "latitude": 37.0915385,
    "longitude": -8.0378067
  },
  {
    "osmId": 3491645274,
    "name": "11 da Villa",
    "latitude": 37.1391531,
    "longitude": -8.0237367
  },
  {
    "osmId": 3502713731,
    "name": "Restaurante Monte Gordo",
    "latitude": 37.1803131,
    "longitude": -7.4517935
  },
  {
    "osmId": 3502713748,
    "name": "O Jaime",
    "latitude": 37.1800801,
    "longitude": -7.4516301
  },
  {
    "osmId": 3514096393,
    "name": "A Rocha",
    "latitude": 37.728099,
    "longitude": -8.296223
  },
  {
    "osmId": 3544969839,
    "name": "O Brasileiro",
    "latitude": 37.6433424,
    "longitude": -7.6582109
  },
  {
    "osmId": 3544969840,
    "name": "Novo San Remo",
    "latitude": 37.6423654,
    "longitude": -7.6592114
  },
  {
    "osmId": 3597522027,
    "name": "Fernando",
    "latitude": 37.1745535,
    "longitude": -7.4993359
  },
  {
    "osmId": 3597522031,
    "name": "Chaminé",
    "website": "https://restaurante-chamine.com/",
    "latitude": 37.1734296,
    "longitude": -7.4985044
  },
  {
    "osmId": 3641478955,
    "name": "Old Tavern",
    "website": "https://www.facebook.com/oldtavern.faro/",
    "latitude": 37.0128695,
    "longitude": -7.9346295
  },
  {
    "osmId": 3642746105,
    "name": "Monica's",
    "latitude": 37.0616564,
    "longitude": -8.0558565
  },
  {
    "osmId": 3642784292,
    "name": "Sushi ya Fusion",
    "website": "http://www.sushiya.pt",
    "latitude": 37.0883787,
    "longitude": -8.0371079
  },
  {
    "osmId": 3642799376,
    "name": "Ichiban Japanese Restaurant",
    "latitude": 37.0870669,
    "longitude": -8.0383584
  },
  {
    "osmId": 3656779144,
    "name": "Günthers Restaurante",
    "latitude": 37.0476657,
    "longitude": -7.8637871
  },
  {
    "osmId": 3656847972,
    "name": "Retiro do Camponês",
    "latitude": 37.115878,
    "longitude": -8.0934747
  },
  {
    "osmId": 3660653921,
    "latitude": 37.1758346,
    "longitude": -7.4816106
  },
  {
    "osmId": 3673899625,
    "name": "O Cantil",
    "latitude": 37.0916281,
    "longitude": -8.1891517
  },
  {
    "osmId": 3673917567,
    "name": "Tacho à Mesa",
    "latitude": 37.0292359,
    "longitude": -7.8388196
  },
  {
    "osmId": 3679509297,
    "name": "Estrela do Mar",
    "latitude": 37.0261355,
    "longitude": -7.8442644
  },
  {
    "osmId": 3682467310,
    "name": "O Almirante",
    "latitude": 37.0268567,
    "longitude": -7.8438681
  },
  {
    "osmId": 3683486556,
    "name": "Café o Emigrante",
    "latitude": 37.8068945,
    "longitude": -7.499861
  },
  {
    "osmId": 3683508442,
    "name": "Abílio",
    "latitude": 37.7622081,
    "longitude": -7.5377852
  },
  {
    "osmId": 3683512794,
    "name": "Agostinho",
    "latitude": 37.7619249,
    "longitude": -7.5374441
  },
  {
    "osmId": 3691596424,
    "name": "2 Irmãos (Ti Chico)",
    "latitude": 37.1767607,
    "longitude": -7.4991207
  },
  {
    "osmId": 3732312983,
    "name": "O Tonel",
    "latitude": 37.1275975,
    "longitude": -7.6488773
  },
  {
    "osmId": 3732312984,
    "name": "Aquasul",
    "latitude": 37.1276174,
    "longitude": -7.6487048
  },
  {
    "osmId": 3739387030,
    "name": "Restaurante Bocage",
    "website": "https://restaurantebocage.com/",
    "latitude": 37.1397593,
    "longitude": -8.0226782
  },
  {
    "osmId": 3739540784,
    "name": "Tasquinha da Malta",
    "latitude": 37.1386641,
    "longitude": -8.0205061
  },
  {
    "osmId": 3741082433,
    "name": "Restaurante Á Terra",
    "latitude": 37.0970213,
    "longitude": -7.7928168
  },
  {
    "osmId": 3742455165,
    "name": "La Piazza",
    "latitude": 37.1037272,
    "longitude": -7.9626115
  },
  {
    "osmId": 3742471664,
    "name": "Restaurante O Alagoas",
    "latitude": 37.1007523,
    "longitude": -7.9675559
  },
  {
    "osmId": 3754834269,
    "name": "Restaurante Querença",
    "latitude": 37.1992533,
    "longitude": -7.9874316
  },
  {
    "osmId": 3755145022,
    "name": "Taparia",
    "latitude": 37.2138288,
    "longitude": -7.4080947
  },
  {
    "osmId": 3755145023,
    "name": "Vincente",
    "latitude": 37.2139394,
    "longitude": -7.4081252
  },
  {
    "osmId": 3793261557,
    "name": "Casa Dos Presuntos",
    "latitude": 37.2541788,
    "longitude": -7.9555398
  },
  {
    "osmId": 3861538063,
    "name": "Vale d'el Rei",
    "latitude": 37.0944532,
    "longitude": -7.6773302
  },
  {
    "osmId": 3918200778,
    "name": "Blue Parrot",
    "latitude": 37.1802728,
    "longitude": -7.4481902
  },
  {
    "osmId": 4031889083,
    "name": "Chef's Peking",
    "latitude": 37.0930369,
    "longitude": -8.18812
  },
  {
    "osmId": 4031890106,
    "name": "O Manuel",
    "website": "http://www.restauranteomanuel.com/",
    "latitude": 37.092839,
    "longitude": -8.1875942
  },
  {
    "osmId": 4031893194,
    "name": "S. Martino",
    "latitude": 37.0935306,
    "longitude": -8.1913565
  },
  {
    "osmId": 4033116624,
    "name": "Sellfish",
    "latitude": 37.0939009,
    "longitude": -8.1926056
  },
  {
    "osmId": 4033540037,
    "name": "Palace Indian Tandoori",
    "website": "indiantandoorirestaurant.com",
    "latitude": 37.0938991,
    "longitude": -8.1977125
  },
  {
    "osmId": 4035472550,
    "name": "Nelson's Bistro",
    "latitude": 37.0937372,
    "longitude": -8.1893835
  },
  {
    "osmId": 4035473908,
    "name": "Thai Beach Club",
    "website": "thaibeach.pt",
    "latitude": 37.0746903,
    "longitude": -8.1263937
  },
  {
    "osmId": 4042428524,
    "name": "Alentejano",
    "latitude": 37.9436389,
    "longitude": -7.5975146
  },
  {
    "osmId": 4083333625,
    "name": "Dom Capito",
    "latitude": 37.0897074,
    "longitude": -8.2464475
  },
  {
    "osmId": 4097075324,
    "name": "Vila Adentro",
    "latitude": 37.0129672,
    "longitude": -7.9343448
  },
  {
    "osmId": 4097075325,
    "name": "Tertúlia Algarvia",
    "latitude": 37.012935,
    "longitude": -7.9346345
  },
  {
    "osmId": 4097081814,
    "name": "Tasca do Ricky",
    "latitude": 37.0183342,
    "longitude": -7.9375312
  },
  {
    "osmId": 4109761290,
    "name": "O Lavrador",
    "latitude": 37.0887398,
    "longitude": -8.2324963
  },
  {
    "osmId": 4109761291,
    "name": "Great India Tandoori",
    "latitude": 37.0887056,
    "longitude": -8.2328235
  },
  {
    "osmId": 4109761292,
    "name": "Festa da Praia",
    "latitude": 37.0889089,
    "longitude": -8.2316514
  },
  {
    "osmId": 4109795341,
    "name": "Três Palmeiras",
    "latitude": 37.0881582,
    "longitude": -8.2348646
  },
  {
    "osmId": 4110043448,
    "name": "O Lusitano",
    "latitude": 37.0958151,
    "longitude": -8.2323782
  },
  {
    "osmId": 4125970300,
    "latitude": 37.4319113,
    "longitude": -8.0941354
  },
  {
    "osmId": 4132488427,
    "name": "Auramar Beach Resort",
    "latitude": 37.0838644,
    "longitude": -8.2328759
  },
  {
    "osmId": 4146175292,
    "name": "Sabores do Churrasco",
    "latitude": 37.1277342,
    "longitude": -7.6498008
  },
  {
    "osmId": 4147256191,
    "name": "A Esquina Restaurante",
    "latitude": 37.6412583,
    "longitude": -7.658805
  },
  {
    "osmId": 4170531319,
    "name": "Restaurante O Soeiro",
    "latitude": 37.4716419,
    "longitude": -7.4712939
  },
  {
    "osmId": 4212296102,
    "name": "À da Paula, take away",
    "latitude": 37.0347179,
    "longitude": -7.8359628
  },
  {
    "osmId": 4222295747,
    "name": "Restaurante Arcos do Guadiana",
    "latitude": 37.3538521,
    "longitude": -7.4421834
  },
  {
    "osmId": 4239043501,
    "name": "Mestre Ciclista",
    "latitude": 37.1328261,
    "longitude": -7.6547651
  },
  {
    "osmId": 4244178136,
    "name": "Cervejeira Marisqueira Vilamoura",
    "latitude": 37.0759382,
    "longitude": -8.1145818
  },
  {
    "osmId": 4244178137,
    "name": "Universal",
    "latitude": 37.0764816,
    "longitude": -8.1150581
  },
  {
    "osmId": 4264343681,
    "name": "Medieval",
    "latitude": 37.2190512,
    "longitude": -7.443822
  },
  {
    "osmId": 4264343684,
    "name": "O Carocho",
    "latitude": 37.1731199,
    "longitude": -7.4991613
  },
  {
    "osmId": 4264345242,
    "name": "Frango Grelhado",
    "latitude": 37.1729482,
    "longitude": -7.4988881
  },
  {
    "osmId": 4264346645,
    "name": "Restaurante Nene",
    "latitude": 37.1762312,
    "longitude": -7.49977
  },
  {
    "osmId": 4264346651,
    "name": "Do Infante",
    "latitude": 37.1814436,
    "longitude": -7.490862
  },
  {
    "osmId": 4264346795,
    "name": "Pizzaria Catarina",
    "latitude": 37.1765331,
    "longitude": -7.5002128
  },
  {
    "osmId": 4264346957,
    "name": "Snack Bar Mariana",
    "latitude": 37.1728918,
    "longitude": -7.4988731
  },
  {
    "osmId": 4264346960,
    "latitude": 37.1727069,
    "longitude": -7.4990671
  },
  {
    "osmId": 4264346968,
    "name": "Cozinha tradicional",
    "latitude": 37.1721164,
    "longitude": -7.4988613
  },
  {
    "osmId": 4264347018,
    "name": "Algarve",
    "latitude": 37.1727252,
    "longitude": -7.4988478
  },
  {
    "osmId": 4264347019,
    "name": "Pizzaria Passione",
    "latitude": 37.1725884,
    "longitude": -7.4990208
  },
  {
    "osmId": 4264347021,
    "name": "Pérola do Atlântico",
    "latitude": 37.172251,
    "longitude": -7.4989011
  },
  {
    "osmId": 4264355635,
    "name": "Snack Bar Onda Mar",
    "latitude": 37.172256,
    "longitude": -7.4977109
  },
  {
    "osmId": 4268557338,
    "name": "Snack bar Pingo de Mel",
    "latitude": 37.087229,
    "longitude": -8.1558264
  },
  {
    "osmId": 4272868036,
    "name": "Moinhos do Grelha",
    "latitude": 37.0229378,
    "longitude": -7.9470316
  },
  {
    "osmId": 4275727189,
    "name": "La Pizza Loca",
    "latitude": 37.0879016,
    "longitude": -8.115625
  },
  {
    "osmId": 4281547723,
    "name": "Infante Panorâmico",
    "latitude": 37.1749598,
    "longitude": -7.4811624
  },
  {
    "osmId": 4296841489,
    "name": "@Willem - Restaurante Holandês",
    "latitude": 37.1794482,
    "longitude": -7.4483755
  },
  {
    "osmId": 4298851594,
    "name": "Alengarve",
    "latitude": 37.6433812,
    "longitude": -7.6597
  },
  {
    "osmId": 4300698893,
    "name": "1680 Gourmet Taste",
    "website": "https://www.thefork.pt/restaurante/1680-gourmet-taste-r568101",
    "latitude": 37.5139877,
    "longitude": -8.0579027
  },
  {
    "osmId": 4301540094,
    "name": "Albufeira Gourmet Take-Away",
    "latitude": 37.0918303,
    "longitude": -8.2435943
  },
  {
    "osmId": 4301549989,
    "name": "Casa Da Avó",
    "website": "https://www.restaurante-acasadoavo.com/",
    "latitude": 37.0909901,
    "longitude": -8.248378
  },
  {
    "osmId": 4306249191,
    "name": "Palacete",
    "latitude": 37.0892283,
    "longitude": -8.2335306
  },
  {
    "osmId": 4307827199,
    "name": "the sizzling stone",
    "latitude": 37.0893448,
    "longitude": -8.2270146
  },
  {
    "osmId": 4317884590,
    "name": "Sol e Mar",
    "latitude": 37.067007,
    "longitude": -8.0998639
  },
  {
    "osmId": 4317894094,
    "name": "Milan",
    "latitude": 37.0673844,
    "longitude": -8.1033347
  },
  {
    "osmId": 4317894098,
    "name": "Boémio",
    "latitude": 37.0663728,
    "longitude": -8.1006632
  },
  {
    "osmId": 4317900890,
    "name": "Shalimar",
    "latitude": 37.0662212,
    "longitude": -8.1002455
  },
  {
    "osmId": 4321343093,
    "name": "Restaurante Alentejo",
    "latitude": 37.6466617,
    "longitude": -7.5609479
  },
  {
    "osmId": 4327694493,
    "name": "Alphonso's",
    "latitude": 37.0666431,
    "longitude": -8.1000426
  },
  {
    "osmId": 4328258993,
    "name": "O Gaio",
    "latitude": 37.5155005,
    "longitude": -8.1765566
  },
  {
    "osmId": 4328261092,
    "name": "O Moinho",
    "latitude": 37.5119296,
    "longitude": -8.0593813
  },
  {
    "osmId": 4338235258,
    "name": "Restaurante Europa",
    "latitude": 37.1363126,
    "longitude": -7.5996559
  },
  {
    "osmId": 4339714492,
    "name": "Oliveira",
    "latitude": 37.0281772,
    "longitude": -7.8762132
  },
  {
    "osmId": 4351406795,
    "name": "Sérgio",
    "latitude": 37.0334623,
    "longitude": -7.8298526
  },
  {
    "osmId": 4357701591,
    "name": "Churrasqueira da Torre",
    "latitude": 37.1176391,
    "longitude": -8.2258567
  },
  {
    "osmId": 4358546491,
    "name": "A Tradição",
    "latitude": 37.9413628,
    "longitude": -7.5971621
  },
  {
    "osmId": 4394996889,
    "name": "Doña Lola",
    "website": "https://www.espaciocapitana.com/",
    "latitude": 37.2047442,
    "longitude": -7.3223295
  },
  {
    "osmId": 4398910651,
    "name": "Casa Alberto",
    "latitude": 37.2019537,
    "longitude": -7.3258538
  },
  {
    "osmId": 4408249614,
    "name": "Grill 91 Churrascaria",
    "latitude": 37.0907936,
    "longitude": -8.2549649
  },
  {
    "osmId": 4408267571,
    "name": "Casa Madeira - Restaurante Madeirense",
    "latitude": 37.0908402,
    "longitude": -8.2490734
  },
  {
    "osmId": 4411464624,
    "name": "Paisagem do Guadiana",
    "website": "http://www.paisagemdoguadiana.com/",
    "latitude": 37.375941,
    "longitude": -7.4406992
  },
  {
    "osmId": 4411639027,
    "name": "Casa de Pasto A Taberna",
    "latitude": 37.6723128,
    "longitude": -7.4970053
  },
  {
    "osmId": 4416159533,
    "name": "Flor de Sal",
    "latitude": 37.0179441,
    "longitude": -7.9347099
  },
  {
    "osmId": 4419236090,
    "name": "Restaurante \"O Farnel\"",
    "latitude": 37.1746387,
    "longitude": -7.4993385
  },
  {
    "osmId": 4419266589,
    "name": "Restaurante Bata Que Eu Abro",
    "latitude": 37.1737623,
    "longitude": -7.5034152
  },
  {
    "osmId": 4422576987,
    "name": "A Ponte",
    "latitude": 37.2348668,
    "longitude": -8.1769816
  },
  {
    "osmId": 4424926890,
    "name": "Restaurante Ysconderijo",
    "latitude": 37.1515522,
    "longitude": -7.8884264
  },
  {
    "osmId": 4425354990,
    "name": "Por do Sol",
    "latitude": 37.0306477,
    "longitude": -7.9259633
  },
  {
    "osmId": 4431192990,
    "name": "Restaurante Vicius",
    "latitude": 37.1800368,
    "longitude": -7.452048
  },
  {
    "osmId": 4439556600,
    "name": "Shiva",
    "latitude": 37.4710023,
    "longitude": -7.4724873
  },
  {
    "osmId": 4440983492,
    "name": "restaraurante golden garden",
    "latitude": 37.0894354,
    "longitude": -8.2276736
  },
  {
    "osmId": 4441172393,
    "name": "Tamariz",
    "latitude": 37.089126,
    "longitude": -8.2275224
  },
  {
    "osmId": 4442537189,
    "name": "urban diner",
    "latitude": 37.0898729,
    "longitude": -8.2273327
  },
  {
    "osmId": 4442574191,
    "name": "La Bamba",
    "latitude": 37.0898657,
    "longitude": -8.2275229
  },
  {
    "osmId": 4444437497,
    "name": "Urban Pizza",
    "website": "http://www.urbanpizza.pt",
    "latitude": 37.0913224,
    "longitude": -8.227209
  },
  {
    "osmId": 4446466800,
    "name": "Senhor Frogs Pizzaria",
    "latitude": 37.0904793,
    "longitude": -8.2272411
  },
  {
    "osmId": 4455582290,
    "name": "O Branquinho",
    "latitude": 37.0941741,
    "longitude": -7.8964821
  },
  {
    "osmId": 4467904882,
    "name": "Café Convívio",
    "latitude": 37.019187,
    "longitude": -7.8027817
  },
  {
    "osmId": 4502978593,
    "name": "O Chalavar",
    "website": "https://ochalavar.com/",
    "latitude": 37.0203802,
    "longitude": -7.9383738
  },
  {
    "osmId": 4503244890,
    "name": "Shiraz",
    "latitude": 37.0168155,
    "longitude": -7.9349141
  },
  {
    "osmId": 4504543593,
    "latitude": 37.2144686,
    "longitude": -7.4087297
  },
  {
    "osmId": 4504665600,
    "name": "El Toril",
    "latitude": 37.2144453,
    "longitude": -7.4087972
  },
  {
    "osmId": 4504699189,
    "latitude": 37.2143652,
    "longitude": -7.4084824
  },
  {
    "osmId": 4504699190,
    "latitude": 37.2142448,
    "longitude": -7.4084494
  },
  {
    "osmId": 4506484995,
    "name": "Navegante",
    "latitude": 37.1800188,
    "longitude": -7.4481792
  },
  {
    "osmId": 4506484996,
    "name": "Algarv Steak House",
    "latitude": 37.181699,
    "longitude": -7.4518767
  },
  {
    "osmId": 4506524890,
    "name": "A Cabana",
    "latitude": 37.1795916,
    "longitude": -7.4477298
  },
  {
    "osmId": 4507303498,
    "name": "Costa Algarvia",
    "latitude": 37.0161266,
    "longitude": -7.9344971
  },
  {
    "osmId": 4514088838,
    "name": "Quinta do Marco",
    "latitude": 37.1534866,
    "longitude": -7.7507839
  },
  {
    "osmId": 4526784528,
    "name": "Mó de Cima",
    "latitude": 37.0587493,
    "longitude": -7.7481863
  },
  {
    "osmId": 4600645101,
    "name": "2 Irmãos",
    "latitude": 37.2175029,
    "longitude": -7.4438603
  },
  {
    "osmId": 4601051162,
    "name": "La Pasta Gansa",
    "latitude": 37.2113553,
    "longitude": -7.4087547
  },
  {
    "osmId": 4601052238,
    "name": "El Choco",
    "latitude": 37.2116162,
    "longitude": -7.4083095
  },
  {
    "osmId": 4601074066,
    "name": "La Cepa",
    "latitude": 37.2139468,
    "longitude": -7.4042744
  },
  {
    "osmId": 4601162429,
    "latitude": 37.1909875,
    "longitude": -7.4175238
  },
  {
    "osmId": 4601939790,
    "name": "Palácio da China",
    "latitude": 37.1791768,
    "longitude": -7.4521487
  },
  {
    "osmId": 4623626458,
    "name": "O Alpendre",
    "latitude": 37.165351,
    "longitude": -7.562021
  },
  {
    "osmId": 4644278794,
    "name": "Retiro dos amigos",
    "latitude": 37.028803,
    "longitude": -7.9070336
  },
  {
    "osmId": 4656263290,
    "name": "Adega do Zé",
    "latitude": 37.0937196,
    "longitude": -8.199614
  },
  {
    "osmId": 4677375110,
    "latitude": 37.0246026,
    "longitude": -7.93203
  },
  {
    "osmId": 4677375112,
    "name": "Akmandu Nepalese Restaurant",
    "latitude": 37.0240185,
    "longitude": -7.9321539
  },
  {
    "osmId": 4700006901,
    "name": "Pinhal",
    "latitude": 37.0969654,
    "longitude": -8.1785271
  },
  {
    "osmId": 4705825089,
    "name": "Adega TiCosta",
    "latitude": 37.0972279,
    "longitude": -8.179876
  },
  {
    "osmId": 4738539946,
    "name": "Maré Alta",
    "latitude": 37.1000379,
    "longitude": -7.662603
  },
  {
    "osmId": 4738539947,
    "name": "Cervejaria O Chico",
    "latitude": 37.1011578,
    "longitude": -7.6614745
  },
  {
    "osmId": 4738567425,
    "name": "Cervejaria Silva",
    "latitude": 37.175653,
    "longitude": -7.532557
  },
  {
    "osmId": 4738567428,
    "name": "Casa de Pasto Campinas",
    "latitude": 37.2238074,
    "longitude": -7.5709852
  },
  {
    "osmId": 4738567444,
    "name": "Tasquinha da Muralha",
    "latitude": 37.2001737,
    "longitude": -7.4147463
  },
  {
    "osmId": 4738568121,
    "name": "Restaurante Migu's",
    "latitude": 37.1241983,
    "longitude": -7.6501543
  },
  {
    "osmId": 4738568130,
    "name": "Snack Bar O Patinho",
    "latitude": 37.1792344,
    "longitude": -7.4550882
  },
  {
    "osmId": 4738568131,
    "name": "Restaurante Migalhas",
    "latitude": 37.181867,
    "longitude": -7.453136
  },
  {
    "osmId": 4743277690,
    "name": "Casa Verde",
    "latitude": 37.5435247,
    "longitude": -7.6469066
  },
  {
    "osmId": 4743281421,
    "name": "Casa Amarela",
    "latitude": 37.6360166,
    "longitude": -7.6620643
  },
  {
    "osmId": 4744787943,
    "name": "Fu Cheng",
    "latitude": 37.1936231,
    "longitude": -7.4188399
  },
  {
    "osmId": 4744789259,
    "name": "Bella Napoli",
    "latitude": 37.1939033,
    "longitude": -7.4174774
  },
  {
    "osmId": 4744791263,
    "name": "Escola",
    "latitude": 37.1916847,
    "longitude": -7.4178207
  },
  {
    "osmId": 4745698564,
    "name": "A do Fernando",
    "latitude": 37.0243056,
    "longitude": -7.8416631
  },
  {
    "osmId": 4745712734,
    "name": "ORui",
    "latitude": 37.0076431,
    "longitude": -7.9945931
  },
  {
    "osmId": 4745713729,
    "name": "Bel'Mare",
    "latitude": 37.0049475,
    "longitude": -7.9900726
  },
  {
    "osmId": 4745713977,
    "name": "Wax",
    "latitude": 37.0070542,
    "longitude": -7.9934345
  },
  {
    "osmId": 4745714351,
    "name": "Horta",
    "latitude": 37.0238783,
    "longitude": -7.8427744
  },
  {
    "osmId": 4745714660,
    "name": "El Torito",
    "latitude": 37.0238662,
    "longitude": -7.8430868
  },
  {
    "osmId": 4745715840,
    "name": "Kinkas",
    "latitude": 37.0240056,
    "longitude": -7.8400181
  },
  {
    "osmId": 4745718013,
    "name": "Magoya",
    "latitude": 37.0258945,
    "longitude": -7.8398019
  },
  {
    "osmId": 4745721021,
    "name": "Pizza na Pedra",
    "latitude": 37.0240106,
    "longitude": -7.8401724
  },
  {
    "osmId": 4745721606,
    "name": "Tá Pronto",
    "latitude": 37.0238319,
    "longitude": -7.8402591
  },
  {
    "osmId": 4745722824,
    "name": "Indian Hut",
    "website": "https://www.indianhutrestaurant.com/",
    "latitude": 37.024895,
    "longitude": -7.8407081
  },
  {
    "osmId": 4745723026,
    "name": "Terr y Mar",
    "latitude": 37.0238552,
    "longitude": -7.8439183
  },
  {
    "osmId": 4751554618,
    "name": "Manuel do Norte",
    "latitude": 37.115863,
    "longitude": -8.1175934
  },
  {
    "osmId": 4752898233,
    "name": "Estrela do Mar",
    "latitude": 37.1944295,
    "longitude": -7.4214778
  },
  {
    "osmId": 4752899577,
    "name": "JJ",
    "latitude": 37.0693022,
    "longitude": -7.7471587
  },
  {
    "osmId": 4764548023,
    "latitude": 37.0708783,
    "longitude": -8.1028579
  },
  {
    "osmId": 4787062325,
    "name": "Restaurante Sabores da Beira",
    "latitude": 37.2308318,
    "longitude": -7.4505674
  },
  {
    "osmId": 4787062326,
    "name": "Tasca Medieval",
    "latitude": 37.2190505,
    "longitude": -7.4442796
  },
  {
    "osmId": 4787062328,
    "name": "Restaurante O Fantástico",
    "latitude": 37.1949663,
    "longitude": -7.4213208
  },
  {
    "osmId": 4787062329,
    "name": "Restaurante Papoila",
    "latitude": 37.1942635,
    "longitude": -7.4190081
  },
  {
    "osmId": 4787083026,
    "name": "Restaurante O Graciano",
    "latitude": 37.1547149,
    "longitude": -7.8532054
  },
  {
    "osmId": 4787096024,
    "name": "Casa de Pasto Central da Serra",
    "latitude": 37.3648319,
    "longitude": -7.9642236
  },
  {
    "osmId": 4789008822,
    "name": "Casa de Pasto Teixeira",
    "latitude": 37.3844367,
    "longitude": -7.7282807
  },
  {
    "osmId": 4789008823,
    "name": "Pizzaria Italia",
    "latitude": 37.1800637,
    "longitude": -7.4502139
  },
  {
    "osmId": 4789022222,
    "name": "Associação de Mariscadores",
    "latitude": 37.1780791,
    "longitude": -7.4565947
  },
  {
    "osmId": 4789022228,
    "name": "Restaurante Cantinho dos Petiscos",
    "latitude": 37.1982585,
    "longitude": -7.4204761
  },
  {
    "osmId": 4789022232,
    "name": "Restaurante A Casa",
    "latitude": 37.1005299,
    "longitude": -7.6611256
  },
  {
    "osmId": 4789022233,
    "name": "Estrela do Mar",
    "latitude": 37.1360722,
    "longitude": -7.6008258
  },
  {
    "osmId": 4789022234,
    "name": "Cervejaria Caravela",
    "latitude": 37.1274602,
    "longitude": -7.6468711
  },
  {
    "osmId": 4789031822,
    "name": "Restaurante Charrua",
    "latitude": 37.3328333,
    "longitude": -7.817822
  },
  {
    "osmId": 4789031823,
    "name": "O Ligerio",
    "latitude": 37.1706465,
    "longitude": -7.5361403
  },
  {
    "osmId": 4789031924,
    "name": "BH Restaurante",
    "latitude": 37.4714115,
    "longitude": -7.4721335
  },
  {
    "osmId": 4789031926,
    "name": "Restaurante O Sapal",
    "latitude": 37.2181771,
    "longitude": -7.4475327
  },
  {
    "osmId": 4789031929,
    "name": "Restaurante Pão Quente",
    "latitude": 37.1936443,
    "longitude": -7.4847541
  },
  {
    "osmId": 4789031930,
    "name": "Restaurante O Chico",
    "latitude": 37.1937449,
    "longitude": -7.4844806
  },
  {
    "osmId": 4789032021,
    "name": "Restaurante O Rei da Carne",
    "latitude": 37.4408702,
    "longitude": -7.7710242
  },
  {
    "osmId": 4801952844,
    "name": "Bons Sabores",
    "latitude": 37.1226936,
    "longitude": -7.6475985
  },
  {
    "osmId": 4801952848,
    "name": "Restaurante Casa Tradição",
    "latitude": 37.1330686,
    "longitude": -7.6429726
  },
  {
    "osmId": 4803441560,
    "name": "Restaurante O Tacho",
    "latitude": 37.1262583,
    "longitude": -7.660366
  },
  {
    "osmId": 4812005523,
    "name": "Aliança",
    "latitude": 37.0160693,
    "longitude": -7.9346781
  },
  {
    "osmId": 4823270327,
    "name": "Sabores da Ria",
    "latitude": 37.1359723,
    "longitude": -7.5973471
  },
  {
    "osmId": 4832258784,
    "name": "Cantinho",
    "latitude": 37.0134441,
    "longitude": -7.9332883
  },
  {
    "osmId": 4835552728,
    "name": "Faaron Steakhouse",
    "website": "http://faaron.steakhouse.com",
    "latitude": 37.016596,
    "longitude": -7.9341904
  },
  {
    "osmId": 4870701821,
    "name": "Restaurante Dona Inês",
    "latitude": 37.1365131,
    "longitude": -7.600795
  },
  {
    "osmId": 4871343022,
    "name": "Restaurante O Forno",
    "latitude": 37.1266895,
    "longitude": -7.7146913
  },
  {
    "osmId": 4871391723,
    "name": "António",
    "latitude": 37.0838031,
    "longitude": -7.788401
  },
  {
    "osmId": 4871391726,
    "name": "Casa de Pasto Ana Paula",
    "latitude": 37.0927783,
    "longitude": -7.7039859
  },
  {
    "osmId": 4871391738,
    "name": "Restaurante O Trevo",
    "latitude": 37.0534837,
    "longitude": -7.746264
  },
  {
    "osmId": 4871391739,
    "name": "Restaurante Nuno's",
    "latitude": 37.053369,
    "longitude": -7.7463541
  },
  {
    "osmId": 4871391824,
    "name": "Restaurante Ilha Formosa (cais embarque)",
    "latitude": 37.1261294,
    "longitude": -7.6456515
  },
  {
    "osmId": 4871412421,
    "name": "Snack Bar Restaurante Cais da Ponte",
    "latitude": 37.1288831,
    "longitude": -7.6538358
  },
  {
    "osmId": 4871420822,
    "name": "Snack Bar Atlântico",
    "latitude": 37.1721882,
    "longitude": -7.4988931
  },
  {
    "osmId": 4875447521,
    "name": "Casa de Pasto Abílio",
    "latitude": 37.09175,
    "longitude": -7.7040858
  },
  {
    "osmId": 4878382768,
    "name": "Taberna Moleiro",
    "latitude": 37.1946056,
    "longitude": -7.4163205
  },
  {
    "osmId": 4878524507,
    "name": "Monte Branco",
    "latitude": 37.4417203,
    "longitude": -7.7617228
  },
  {
    "osmId": 4890833940,
    "name": "Restaurante Olimpico",
    "latitude": 37.0976068,
    "longitude": -8.1716917
  },
  {
    "osmId": 4899464923,
    "name": "Taste of Punjab",
    "website": "http://tasteofpunjab.eu/",
    "latitude": 37.0962286,
    "longitude": -8.1760391
  },
  {
    "osmId": 4905308727,
    "name": "Pizzaria (Hotel Praia Verde)",
    "latitude": 37.1760191,
    "longitude": -7.4816506
  },
  {
    "osmId": 4908985221,
    "name": "O Celeiro",
    "latitude": 37.7722752,
    "longitude": -8.0193089
  },
  {
    "osmId": 4915093021,
    "name": "Restaurante Casa Velha",
    "latitude": 37.0891905,
    "longitude": -8.2205889
  },
  {
    "osmId": 4916854623,
    "name": "Tapas com vinho",
    "latitude": 37.2560488,
    "longitude": -8.2874291
  },
  {
    "osmId": 4929303225,
    "name": "Bica",
    "latitude": 37.1279421,
    "longitude": -7.6487628
  },
  {
    "osmId": 4929341124,
    "name": "D'Gusta",
    "latitude": 37.1281711,
    "longitude": -7.6517525
  },
  {
    "osmId": 4938236084,
    "name": "Masala Mantra",
    "website": "https://www.facebook.com/masalamantraEU/",
    "latitude": 37.1281198,
    "longitude": -8.149645
  },
  {
    "osmId": 4962383222,
    "name": "MySushi",
    "website": "https://www.facebook.com/pages/My-Sushi-Sushi-Bar-Japon%C3%AAs/254450761635337",
    "latitude": 37.0897387,
    "longitude": -8.2215315
  },
  {
    "osmId": 4966884021,
    "name": "Outro Lado",
    "website": "https://restoutrolado.eatbu.com/",
    "latitude": 37.0174601,
    "longitude": -7.9368786
  },
  {
    "osmId": 4973323221,
    "name": "Casa Rufino",
    "website": "https://restauranterufino.com/",
    "latitude": 37.1961725,
    "longitude": -7.3064865
  },
  {
    "osmId": 4975154754,
    "name": "Snack Bar M.M.",
    "latitude": 37.138525,
    "longitude": -7.7066141
  },
  {
    "osmId": 4983488993,
    "name": "Mato à Vista",
    "website": "https://www.matoavista.com/index.html",
    "latitude": 37.1944047,
    "longitude": -8.2223868
  },
  {
    "osmId": 4998717122,
    "name": "Restaurante Cidade Velha",
    "latitude": 37.0135551,
    "longitude": -7.9345962
  },
  {
    "osmId": 5031188926,
    "name": "O Bote O Rei dos Grelhados",
    "latitude": 37.0238907,
    "longitude": -7.84227
  },
  {
    "osmId": 5033045122,
    "name": "Olá Peixe II",
    "latitude": 37.0240421,
    "longitude": -7.8392405
  },
  {
    "osmId": 5033045222,
    "name": "Sushi Grill",
    "latitude": 37.0240478,
    "longitude": -7.8387173
  },
  {
    "osmId": 5033045223,
    "name": "Olá Peixe",
    "latitude": 37.0240594,
    "longitude": -7.8388384
  },
  {
    "osmId": 5033045224,
    "name": "Ria Formosa",
    "latitude": 37.0240431,
    "longitude": -7.8389529
  },
  {
    "osmId": 5033045225,
    "name": "Delícia de Olhão",
    "latitude": 37.0240144,
    "longitude": -7.8393569
  },
  {
    "osmId": 5033045521,
    "name": "Pitéu da Baixa Mar",
    "latitude": 37.0240281,
    "longitude": -7.8391152
  },
  {
    "osmId": 5033234221,
    "name": "Farol",
    "latitude": 37.0239122,
    "longitude": -7.8418891
  },
  {
    "osmId": 5065298622,
    "name": "A Venda",
    "website": "https://www.facebook.com/avendafaro",
    "latitude": 37.0181801,
    "longitude": -7.9350884
  },
  {
    "osmId": 5089732910,
    "name": "Roma Italia",
    "latitude": 37.1277579,
    "longitude": -7.6493087
  },
  {
    "osmId": 5089733541,
    "name": "Abstracto",
    "latitude": 37.1277937,
    "longitude": -7.6491827
  },
  {
    "osmId": 5089735114,
    "name": "La Dolce Vita",
    "latitude": 37.1282861,
    "longitude": -7.6497889
  },
  {
    "osmId": 5089735274,
    "name": "O Manel",
    "latitude": 37.1279963,
    "longitude": -7.6491833
  },
  {
    "osmId": 5089756054,
    "name": "Polvo & Companhia",
    "latitude": 37.1017611,
    "longitude": -7.6577544
  },
  {
    "osmId": 5089756903,
    "name": "Matías",
    "latitude": 37.128107,
    "longitude": -7.6432389
  },
  {
    "osmId": 5091129125,
    "name": "Lobo",
    "latitude": 37.6507261,
    "longitude": -8.2271553
  },
  {
    "osmId": 5110934169,
    "name": "Guilty",
    "latitude": 37.1154028,
    "longitude": -8.1514006
  },
  {
    "osmId": 5114909542,
    "name": "Restaurante Museu do Atum",
    "website": "www.facebook.com/museu-atum-barril-1487477824882460",
    "latitude": 37.08655,
    "longitude": -7.6625307
  },
  {
    "osmId": 5114909571,
    "name": "Imperial",
    "latitude": 37.1254109,
    "longitude": -7.6486972
  },
  {
    "osmId": 5117186376,
    "name": "Vela 2",
    "latitude": 37.1327602,
    "longitude": -7.6796472
  },
  {
    "osmId": 5118395508,
    "name": "Restaurante Baixa Mar",
    "latitude": 37.1014075,
    "longitude": -7.6585838
  },
  {
    "osmId": 5118396426,
    "name": "Restaurante Gaivota",
    "latitude": 37.1011747,
    "longitude": -7.659154
  },
  {
    "osmId": 5119621685,
    "name": "Dom Rodrigo",
    "latitude": 37.1964674,
    "longitude": -7.5124535
  },
  {
    "osmId": 5127168017,
    "name": "Pizzaria Di Roma",
    "latitude": 37.1280888,
    "longitude": -7.6536351
  },
  {
    "osmId": 5127168585,
    "name": "Ponto de Encontro",
    "latitude": 37.1280348,
    "longitude": -7.649412
  },
  {
    "osmId": 5127168586,
    "name": "Roma Itália",
    "latitude": 37.1279589,
    "longitude": -7.6494784
  },
  {
    "osmId": 5127168599,
    "name": "Punjab Palace",
    "latitude": 37.1279039,
    "longitude": -7.6495287
  },
  {
    "osmId": 5127168644,
    "name": "Borda D’Agua",
    "website": "https://borda-dagua-gastrobar.negocio.site/",
    "latitude": 37.1276686,
    "longitude": -7.6501617
  },
  {
    "osmId": 5127168648,
    "name": "Balsa",
    "latitude": 37.1294057,
    "longitude": -7.6513368
  },
  {
    "osmId": 5153553021,
    "name": "The Hive - Sip & Share",
    "latitude": 37.092297,
    "longitude": -8.0448567
  },
  {
    "osmId": 5158937021,
    "name": "Thai Bistro",
    "latitude": 37.0604412,
    "longitude": -8.0232627
  },
  {
    "osmId": 5163713628,
    "name": "MarSol",
    "latitude": 37.0097794,
    "longitude": -7.9968998
  },
  {
    "osmId": 5169564923,
    "name": "Oriental",
    "latitude": 37.0872516,
    "longitude": -8.0379456
  },
  {
    "osmId": 5180845122,
    "name": "Bruschettaria Nossa",
    "latitude": 37.1254875,
    "longitude": -7.64967
  },
  {
    "osmId": 5208912465,
    "name": "Capri",
    "latitude": 37.0554497,
    "longitude": -7.7465387
  },
  {
    "osmId": 5212601221,
    "name": "Zé Oliveira",
    "latitude": 37.1514454,
    "longitude": -7.8814554
  },
  {
    "osmId": 5237895808,
    "name": "Tasquinha, o Medronho",
    "latitude": 37.5115594,
    "longitude": -8.0680375
  },
  {
    "osmId": 5271707644,
    "name": "Bar La Granadina",
    "latitude": 37.1999244,
    "longitude": -7.4026364
  },
  {
    "osmId": 5291619833,
    "name": "O Lagar",
    "latitude": 37.0496586,
    "longitude": -7.8662941
  },
  {
    "osmId": 5305448026,
    "name": "Bella Rosa",
    "website": "http://www.bellarosa.pt",
    "latitude": 37.0750058,
    "longitude": -8.0474926
  },
  {
    "osmId": 5310362264,
    "name": "Casa da Avó",
    "latitude": 37.1212314,
    "longitude": -7.6549651
  },
  {
    "osmId": 5320825072,
    "name": "Asador Freiduría Marina",
    "latitude": 37.2070231,
    "longitude": -7.4031763
  },
  {
    "osmId": 5324253033,
    "name": "Café do Manel",
    "latitude": 37.6945038,
    "longitude": -8.0848646
  },
  {
    "osmId": 5329503830,
    "name": "Bairrada",
    "latitude": 37.1355816,
    "longitude": -7.6273438
  },
  {
    "osmId": 5333938824,
    "name": "Teodósio - rei dos frangos",
    "latitude": 37.1316651,
    "longitude": -8.2996866
  },
  {
    "osmId": 5337650903,
    "name": "Restaurante Moinho",
    "latitude": 37.696987,
    "longitude": -8.0873442
  },
  {
    "osmId": 5337654423,
    "name": "Casa do Alentejo",
    "latitude": 37.6973196,
    "longitude": -8.0879497
  },
  {
    "osmId": 5337654430,
    "name": "Tab 25",
    "latitude": 37.6972314,
    "longitude": -8.0875712
  },
  {
    "osmId": 5337654438,
    "name": "A Planície",
    "latitude": 37.6973234,
    "longitude": -8.0880854
  },
  {
    "osmId": 5342969875,
    "name": "Indian Hut 2",
    "website": "https://www.indianhutrestaurant.com/",
    "latitude": 37.0240037,
    "longitude": -7.840673
  },
  {
    "osmId": 5342969876,
    "name": "N24",
    "latitude": 37.0239968,
    "longitude": -7.8405891
  },
  {
    "osmId": 5342969878,
    "name": "Doca's Pizza",
    "latitude": 37.0240011,
    "longitude": -7.8403947
  },
  {
    "osmId": 5342997667,
    "name": "Espaço A III",
    "latitude": 37.0230149,
    "longitude": -7.8056319
  },
  {
    "osmId": 5352680786,
    "name": "Restaurante A Lareira",
    "latitude": 37.6985572,
    "longitude": -8.0870692
  },
  {
    "osmId": 5352680790,
    "name": "Pizzaria Aliança",
    "latitude": 37.6992911,
    "longitude": -8.087593
  },
  {
    "osmId": 5352680795,
    "name": "Casa de Pasto O Pátio",
    "latitude": 37.6994263,
    "longitude": -8.0877051
  },
  {
    "osmId": 5352680799,
    "name": "Castro Restaurante",
    "latitude": 37.6994898,
    "longitude": -8.0858813
  },
  {
    "osmId": 5352680801,
    "name": "Villa Itália",
    "latitude": 37.6985987,
    "longitude": -8.0868281
  },
  {
    "osmId": 5352680817,
    "name": "Seara Snack-Bar Restaurante",
    "latitude": 37.6973306,
    "longitude": -8.0890579
  },
  {
    "osmId": 5352682322,
    "name": "Casa de Pasto Horácio",
    "latitude": 37.6984187,
    "longitude": -8.0881632
  },
  {
    "osmId": 5387819794,
    "name": "Calypso",
    "latitude": 37.1399293,
    "longitude": -8.0177366
  },
  {
    "osmId": 5476454945,
    "name": "Galeria do Improviso",
    "latitude": 37.1402561,
    "longitude": -8.0261647
  },
  {
    "osmId": 5501992021,
    "name": "Taco y Tequilla",
    "latitude": 37.0184177,
    "longitude": -7.9350041
  },
  {
    "osmId": 5508375121,
    "name": "Paparazzi",
    "latitude": 37.0180863,
    "longitude": -7.9335111
  },
  {
    "osmId": 5508960128,
    "name": "O Castelo",
    "website": "https://www.ocastelofaro.com/",
    "latitude": 37.0118371,
    "longitude": -7.9347183
  },
  {
    "osmId": 5508999321,
    "name": "CHECKin",
    "website": "https://checkinfaro.pt",
    "latitude": 37.0123813,
    "longitude": -7.934307
  },
  {
    "osmId": 5510177109,
    "name": "Palhacinho",
    "latitude": 37.019811,
    "longitude": -7.9284567
  },
  {
    "osmId": 5510183919,
    "name": "Primavera",
    "latitude": 37.0199659,
    "longitude": -7.9290064
  },
  {
    "osmId": 5514714993,
    "name": "Rocha Baixinha Beach Restaurant",
    "website": "https://rochabaixinha.com",
    "latitude": 37.0765553,
    "longitude": -8.1342554
  },
  {
    "osmId": 5530530955,
    "name": "O Cortiço",
    "latitude": 37.085027,
    "longitude": -7.7881348
  },
  {
    "osmId": 5532080021,
    "name": "Golfe-Sol",
    "latitude": 37.0827379,
    "longitude": -8.1186146
  },
  {
    "osmId": 5536597725,
    "name": "Cantinho da Rosa",
    "latitude": 37.0236714,
    "longitude": -7.9337701
  },
  {
    "osmId": 5564225926,
    "name": "Rainha",
    "latitude": 37.0214693,
    "longitude": -7.9286188
  },
  {
    "osmId": 5564345626,
    "name": "Casa do Alentejo",
    "latitude": 37.0213711,
    "longitude": -7.9298189
  },
  {
    "osmId": 5564377823,
    "name": "Rappid Pollo",
    "latitude": 37.2032868,
    "longitude": -7.3254148
  },
  {
    "osmId": 5564377824,
    "name": "Pollos Assados La Punta",
    "latitude": 37.1958047,
    "longitude": -7.3250502
  },
  {
    "osmId": 5564378429,
    "name": "Polleria Hamburgueseria Rogelio",
    "latitude": 37.2222078,
    "longitude": -7.4050054
  },
  {
    "osmId": 5564378430,
    "name": "Pollos Nicos",
    "latitude": 37.198005,
    "longitude": -7.315513
  },
  {
    "osmId": 5566016029,
    "name": "Cristina Bar Restaurante",
    "latitude": 37.1958691,
    "longitude": -7.3246822
  },
  {
    "osmId": 5566016038,
    "name": "Pizzadela Pizzaria",
    "latitude": 37.1767582,
    "longitude": -7.5356982
  },
  {
    "osmId": 5566016039,
    "name": "Golden Club (Descargas)",
    "latitude": 37.1343636,
    "longitude": -7.60344
  },
  {
    "osmId": 5566016041,
    "name": "A Marmita Restaurante",
    "latitude": 37.1476671,
    "longitude": -7.6032804
  },
  {
    "osmId": 5566016043,
    "name": "O Pangaio",
    "latitude": 37.1792294,
    "longitude": -7.516905
  },
  {
    "osmId": 5566017525,
    "name": "Pan Pollo",
    "latitude": 37.1946243,
    "longitude": -7.3288425
  },
  {
    "osmId": 5566017526,
    "name": "Polleria Hamburgueseria Rogelio (Loja2)",
    "latitude": 37.2056663,
    "longitude": -7.402318
  },
  {
    "osmId": 5566018621,
    "name": "O Cisne Snack Bar",
    "latitude": 37.1893467,
    "longitude": -7.4150133
  },
  {
    "osmId": 5566859025,
    "name": "Madeira Bolo do Caco (Bar Lusitano)",
    "latitude": 37.1928119,
    "longitude": -7.425515
  },
  {
    "osmId": 5566859028,
    "name": "Restaurante Pizzaria Honoratos",
    "latitude": 37.1793823,
    "longitude": -7.4473636
  },
  {
    "osmId": 5566900324,
    "name": "Las Marismas (Asador de Pollos)",
    "latitude": 37.1990126,
    "longitude": -7.3191274
  },
  {
    "osmId": 5566900921,
    "name": "Madeira Bolo do Caco (casa)",
    "latitude": 37.1908866,
    "longitude": -7.434091
  },
  {
    "osmId": 5566901121,
    "name": "Dom Churrasco",
    "latitude": 37.1911793,
    "longitude": -7.4176317
  },
  {
    "osmId": 5574189871,
    "name": "Oásis",
    "latitude": 37.1697575,
    "longitude": -7.5112133
  },
  {
    "osmId": 5580905080,
    "name": "O Zé",
    "latitude": 37.9435641,
    "longitude": -7.5978013
  },
  {
    "osmId": 5580910104,
    "name": "O Gato",
    "latitude": 37.9418885,
    "longitude": -7.5961665
  },
  {
    "osmId": 5598954422,
    "name": "João das cabeças",
    "latitude": 37.696151,
    "longitude": -8.0825738
  },
  {
    "osmId": 5598961523,
    "name": "A Cavalariça",
    "latitude": 37.7766203,
    "longitude": -8.0125798
  },
  {
    "osmId": 5598964792,
    "name": "Entre Linhas",
    "latitude": 37.1677722,
    "longitude": -8.2595071
  },
  {
    "osmId": 5609780846,
    "name": "Então",
    "website": "https://www.entao.pt/",
    "latitude": 37.0175029,
    "longitude": -7.9375259
  },
  {
    "osmId": 5641889918,
    "name": "Cantinho da Ronha",
    "latitude": 37.0147241,
    "longitude": -7.9313561
  },
  {
    "osmId": 5648577095,
    "name": "Retiro dos Caçadores",
    "latitude": 37.234856,
    "longitude": -7.4510675
  },
  {
    "osmId": 5649265968,
    "name": "São Lupi",
    "latitude": 37.2340464,
    "longitude": -7.4518688
  },
  {
    "osmId": 5688798622,
    "name": "Restaurante Al Andaluz",
    "latitude": 37.6235827,
    "longitude": -7.5260614
  },
  {
    "osmId": 5700935967,
    "name": "A Garagem",
    "latitude": 37.1816928,
    "longitude": -7.4532458
  },
  {
    "osmId": 5718745221,
    "name": "Maxi Pizza Faro",
    "latitude": 37.0296189,
    "longitude": -7.9244866
  },
  {
    "osmId": 5731737552,
    "name": "Barbacoa",
    "latitude": 37.1028387,
    "longitude": -8.0211044
  },
  {
    "osmId": 5731737553,
    "name": "Henrique Leis",
    "latitude": 37.1008856,
    "longitude": -8.0226132
  },
  {
    "osmId": 5731737554,
    "name": "A Quinta",
    "latitude": 37.1008423,
    "longitude": -8.0213693
  },
  {
    "osmId": 5734044360,
    "name": "Italian Planet",
    "latitude": 37.0897239,
    "longitude": -8.2537795
  },
  {
    "osmId": 5734044361,
    "name": "Central Planet",
    "latitude": 37.0895871,
    "longitude": -8.2537208
  },
  {
    "osmId": 5735006557,
    "name": "Cuicas",
    "latitude": 37.0862315,
    "longitude": -8.2270391
  },
  {
    "osmId": 5735006559,
    "name": "Fredis Pizzaria",
    "latitude": 37.0914913,
    "longitude": -8.227489
  },
  {
    "osmId": 5735006574,
    "name": "Borda d' Água",
    "latitude": 37.0862561,
    "longitude": -8.2256904
  },
  {
    "osmId": 5735006586,
    "name": "Vivaldos",
    "latitude": 37.0863877,
    "longitude": -8.2264575
  },
  {
    "osmId": 5735006589,
    "name": "Jing Du",
    "latitude": 37.0923782,
    "longitude": -8.2276383
  },
  {
    "osmId": 5736122277,
    "name": "Liza‘s",
    "latitude": 37.0935597,
    "longitude": -8.2276622
  },
  {
    "osmId": 5736122296,
    "name": "Ancora",
    "latitude": 37.0938451,
    "longitude": -8.2282193
  },
  {
    "osmId": 5736122298,
    "name": "Figuerinha Steak House",
    "latitude": 37.0935023,
    "longitude": -8.2281171
  },
  {
    "osmId": 5736242022,
    "name": "Myflouer Restaurante",
    "latitude": 37.0784415,
    "longitude": -8.1178411
  },
  {
    "osmId": 5739595155,
    "name": "The Royal Curry House",
    "latitude": 37.0927049,
    "longitude": -8.2281685
  },
  {
    "osmId": 5739595160,
    "name": "Kohinoor",
    "latitude": 37.0918957,
    "longitude": -8.2278587
  },
  {
    "osmId": 5739595173,
    "name": "Doris",
    "latitude": 37.0934463,
    "longitude": -8.2281251
  },
  {
    "osmId": 5739595191,
    "name": "Ristorante Costa Rica",
    "latitude": 37.0914725,
    "longitude": -8.2277926
  },
  {
    "osmId": 5739595200,
    "name": "Ramos",
    "latitude": 37.0917462,
    "longitude": -8.2278084
  },
  {
    "osmId": 5739595204,
    "name": "The Cottage",
    "website": "https://the-cottage.biz",
    "latitude": 37.097856,
    "longitude": -8.2280808
  },
  {
    "osmId": 5741020517,
    "name": "Manzo - steakhouse",
    "website": "https://manzo.pt",
    "latitude": 37.0909676,
    "longitude": -8.1903219
  },
  {
    "osmId": 5741957188,
    "name": "Cepa Velha",
    "website": "https://www.cepavelha.com/",
    "latitude": 37.0869232,
    "longitude": -8.2314534
  },
  {
    "osmId": 5741957192,
    "name": "Clay Oven Indian Grill",
    "latitude": 37.0939606,
    "longitude": -8.2298007
  },
  {
    "osmId": 5741957209,
    "name": "Hollandaise",
    "latitude": 37.0943715,
    "longitude": -8.2292451
  },
  {
    "osmId": 5741957215,
    "name": "Ranias",
    "latitude": 37.0910489,
    "longitude": -8.2223023
  },
  {
    "osmId": 5741958028,
    "name": "Thai Restaurant",
    "latitude": 37.0912977,
    "longitude": -8.2223842
  },
  {
    "osmId": 5741958031,
    "name": "Yorkshire Tavern Real Pub",
    "latitude": 37.0947886,
    "longitude": -8.2300969
  },
  {
    "osmId": 5744317089,
    "name": "Pizzeria Origano",
    "latitude": 37.0913792,
    "longitude": -8.2322714
  },
  {
    "osmId": 5745677718,
    "latitude": 37.094371,
    "longitude": -8.2289981
  },
  {
    "osmId": 5747981635,
    "name": "No solo Agua",
    "latitude": 37.0844699,
    "longitude": -8.23814
  },
  {
    "osmId": 5747981672,
    "name": "Memorias",
    "latitude": 37.0910436,
    "longitude": -8.2330227
  },
  {
    "osmId": 5749457219,
    "name": "Il Peccato",
    "latitude": 37.1942047,
    "longitude": -7.4165885
  },
  {
    "osmId": 5750387521,
    "name": "Namastey",
    "latitude": 37.0169762,
    "longitude": -7.934538
  },
  {
    "osmId": 5750387522,
    "name": "Chalet",
    "latitude": 37.0170432,
    "longitude": -7.9343768
  },
  {
    "osmId": 5754860821,
    "name": "A Madrugada",
    "latitude": 37.0206538,
    "longitude": -7.9290577
  },
  {
    "osmId": 5760018186,
    "name": "7 Spices Indian Cusine",
    "latitude": 37.0957203,
    "longitude": -8.2284685
  },
  {
    "osmId": 5760018195,
    "name": "American Diner",
    "latitude": 37.0974268,
    "longitude": -8.2283709
  },
  {
    "osmId": 5760018203,
    "name": "Manel dos Frangos",
    "latitude": 37.0986771,
    "longitude": -8.2285151
  },
  {
    "osmId": 5760018331,
    "name": "O Leão",
    "latitude": 37.0967222,
    "longitude": -8.228368
  },
  {
    "osmId": 5760840691,
    "name": "Johnny B. Good",
    "latitude": 37.094729,
    "longitude": -8.2278505
  },
  {
    "osmId": 5760840708,
    "name": "Senhor Frogs Pizzaria",
    "latitude": 37.0954716,
    "longitude": -8.2284609
  },
  {
    "osmId": 5760840715,
    "name": "Nosolo Italia Pizzeria Gelateria",
    "latitude": 37.0948965,
    "longitude": -8.2280861
  },
  {
    "osmId": 5760841723,
    "name": "Trivial",
    "latitude": 37.0951968,
    "longitude": -8.2276589
  },
  {
    "osmId": 5760841729,
    "name": "Bella Napoli",
    "latitude": 37.0939444,
    "longitude": -8.2282691
  },
  {
    "osmId": 5760841770,
    "name": "La Cantina Mexican Grill",
    "latitude": 37.0940728,
    "longitude": -8.2283197
  },
  {
    "osmId": 5761870264,
    "name": "Agusto",
    "latitude": 37.0893373,
    "longitude": -8.232756
  },
  {
    "osmId": 5761870456,
    "name": "Meet Me Burger",
    "latitude": 37.0908441,
    "longitude": -8.2293682
  },
  {
    "osmId": 5764364755,
    "latitude": 37.0937151,
    "longitude": -8.2309437
  },
  {
    "osmId": 5769080153,
    "name": "8 Tapas",
    "latitude": 37.0157985,
    "longitude": -7.9330606
  },
  {
    "osmId": 5777119084,
    "name": "Café Riba-Terges",
    "latitude": 37.8857128,
    "longitude": -7.8932154
  },
  {
    "osmId": 5848150485,
    "name": "Vista Formosa",
    "latitude": 37.0327171,
    "longitude": -7.8220466
  },
  {
    "osmId": 5851398280,
    "name": "Restaurante O Bandeira",
    "latitude": 37.0297563,
    "longitude": -7.9702003
  },
  {
    "osmId": 5852302831,
    "name": "Tasquinha Cruzeiro",
    "latitude": 37.0179651,
    "longitude": -7.9369666
  },
  {
    "osmId": 5853728665,
    "name": "Pizzaria O Forno",
    "latitude": 37.5144848,
    "longitude": -8.0573124
  },
  {
    "osmId": 5854114685,
    "name": "Daiya Cocktail & Sushi",
    "latitude": 37.1276942,
    "longitude": -7.6417328
  },
  {
    "osmId": 5856814051,
    "name": "Bela Salema",
    "latitude": 37.0746365,
    "longitude": -7.9359698
  },
  {
    "osmId": 5856938757,
    "name": "Casa de Pasto do Carmo",
    "latitude": 37.0658384,
    "longitude": -7.8292957
  },
  {
    "osmId": 5862338885,
    "name": "Holala",
    "latitude": 37.0942702,
    "longitude": -8.0433215
  },
  {
    "osmId": 5865533150,
    "name": "Refúgio do Vicente",
    "latitude": 37.1256036,
    "longitude": -8.2435678
  },
  {
    "osmId": 5873906786,
    "name": "Sushi Kappa",
    "latitude": 37.0849721,
    "longitude": -8.0325871
  },
  {
    "osmId": 5879502291,
    "name": "Fonte Nova",
    "latitude": 37.0560419,
    "longitude": -7.8725906
  },
  {
    "osmId": 5893019042,
    "name": "José de Matos",
    "latitude": 37.0096378,
    "longitude": -7.996973
  },
  {
    "osmId": 5902175886,
    "name": "RM Restaurante",
    "latitude": 37.0911569,
    "longitude": -8.2132725
  },
  {
    "osmId": 5907251085,
    "name": "Dlounge",
    "website": "http://dloungequintadolago.com",
    "latitude": 37.0425303,
    "longitude": -8.02757
  },
  {
    "osmId": 5910082085,
    "name": "Bem Bom",
    "latitude": 37.0680717,
    "longitude": -8.10111
  },
  {
    "osmId": 5918881485,
    "name": "O Bom Garfa",
    "latitude": 37.1339399,
    "longitude": -7.6429873
  },
  {
    "osmId": 5930887187,
    "name": "P'TIT Bistró République",
    "latitude": 37.0169691,
    "longitude": -7.9360648
  },
  {
    "osmId": 5930888089,
    "name": "P'tit Bistró",
    "latitude": 37.0171798,
    "longitude": -7.9367041
  },
  {
    "osmId": 5930918586,
    "name": "Argentina Steak House",
    "latitude": 37.0171886,
    "longitude": -7.936771
  },
  {
    "osmId": 5931557394,
    "name": "Corda Café",
    "latitude": 37.0925448,
    "longitude": -8.1775809
  },
  {
    "osmId": 5931557395,
    "name": "O Pescador",
    "latitude": 37.0922431,
    "longitude": -8.1789569
  },
  {
    "osmId": 5931635010,
    "name": "ZEST",
    "latitude": 37.0928555,
    "longitude": -8.1774421
  },
  {
    "osmId": 5953368085,
    "name": "Assador Repito",
    "latitude": 37.2067419,
    "longitude": -7.4031059
  },
  {
    "osmId": 5953368185,
    "name": "Rota dos Sabores",
    "latitude": 37.1472522,
    "longitude": -7.6040606
  },
  {
    "osmId": 5972001988,
    "name": "Tamuje",
    "latitude": 37.6392251,
    "longitude": -7.6618342
  },
  {
    "osmId": 5977447085,
    "name": "Sabores do Churrasco",
    "latitude": 37.0147844,
    "longitude": -7.9339687
  },
  {
    "osmId": 5996567397,
    "name": "Ponto de Amigos",
    "latitude": 37.075256,
    "longitude": -7.8002742
  },
  {
    "osmId": 5997716039,
    "name": "Cantina dos Sabores",
    "latitude": 37.1413341,
    "longitude": -8.0226368
  },
  {
    "osmId": 5999154286,
    "name": "Bio.tequim",
    "latitude": 37.1220623,
    "longitude": -7.6536687
  },
  {
    "osmId": 6005018229,
    "name": "Snack Bar O Fernando",
    "latitude": 37.0544868,
    "longitude": -7.8724672
  },
  {
    "osmId": 6012252488,
    "name": "Estrela do Sul Snack Bar",
    "latitude": 37.2546675,
    "longitude": -8.2678518
  },
  {
    "osmId": 6012467686,
    "name": "(",
    "latitude": 37.0871599,
    "longitude": -8.294192
  },
  {
    "osmId": 6025530088,
    "name": "Bamboo",
    "latitude": 37.0620416,
    "longitude": -8.0467694
  },
  {
    "osmId": 6028146117,
    "name": "Rossio",
    "latitude": 37.0844239,
    "longitude": -8.2568954
  },
  {
    "osmId": 6078832470,
    "name": "Restaurante Avenida",
    "latitude": 37.1568847,
    "longitude": -7.8893156
  },
  {
    "osmId": 6116710185,
    "name": "Alef Burger Bar",
    "latitude": 37.0169264,
    "longitude": -7.9347037
  },
  {
    "osmId": 6116710386,
    "name": "O Pitéu",
    "website": "https://www.tripadvisor.pt/RSManagementCenter-d14110432-Restaurante_O_Piteu?cat=0&geo=189116",
    "latitude": 37.0166147,
    "longitude": -7.9322223
  },
  {
    "osmId": 6135166380,
    "name": "O Tintol",
    "latitude": 37.0268802,
    "longitude": -7.8971878
  },
  {
    "osmId": 6155097186,
    "name": "Adega do David",
    "latitude": 37.0896559,
    "longitude": -8.2474298
  },
  {
    "osmId": 6162686887,
    "name": "il cappuccino",
    "latitude": 37.0961411,
    "longitude": -8.2307367
  },
  {
    "osmId": 6166890674,
    "name": "Resaturante Sabinos",
    "latitude": 37.1751897,
    "longitude": -7.5334682
  },
  {
    "osmId": 6170553545,
    "name": "Snack Bar Capri",
    "latitude": 37.0554205,
    "longitude": -7.7466003
  },
  {
    "osmId": 6176419103,
    "name": "A Concha",
    "website": "https://www.artxbox.com",
    "latitude": 37.0561267,
    "longitude": -7.7475049
  },
  {
    "osmId": 6260752727,
    "name": "Ramos",
    "latitude": 37.0237806,
    "longitude": -7.9631797
  },
  {
    "osmId": 6260752728,
    "name": "A Tapita",
    "latitude": 37.0254652,
    "longitude": -7.9628581
  },
  {
    "osmId": 6263704081,
    "name": "Sushicomes",
    "latitude": 37.016137,
    "longitude": -7.9307255
  },
  {
    "osmId": 6297283419,
    "name": "Adega do Monte Velho",
    "latitude": 37.6503941,
    "longitude": -8.2256864
  },
  {
    "osmId": 6297290881,
    "name": "Pizaria d'Orik",
    "latitude": 37.6516523,
    "longitude": -8.2274781
  },
  {
    "osmId": 6297506962,
    "name": "Steak & Grill",
    "latitude": 37.0238283,
    "longitude": -7.8433271
  },
  {
    "osmId": 6297940810,
    "name": "O Forno",
    "latitude": 37.9437819,
    "longitude": -7.5957088
  },
  {
    "osmId": 6297940819,
    "name": "O Nay",
    "latitude": 37.9451488,
    "longitude": -7.5950436
  },
  {
    "osmId": 6297973533,
    "name": "A Adega",
    "latitude": 37.9412848,
    "longitude": -7.5957946
  },
  {
    "osmId": 6297977185,
    "name": "O Forcado",
    "latitude": 37.9396634,
    "longitude": -7.595049
  },
  {
    "osmId": 6297977186,
    "name": "O Zézinho",
    "latitude": 37.9398559,
    "longitude": -7.5952448
  },
  {
    "osmId": 6297994691,
    "name": "Pizzaria Serpense",
    "latitude": 37.940811,
    "longitude": -7.5988671
  },
  {
    "osmId": 6298036765,
    "name": "Terraze",
    "latitude": 37.1274655,
    "longitude": -7.6515467
  },
  {
    "osmId": 6298077544,
    "name": "A Piscina",
    "website": "https://www.restauranteapiscina.com/",
    "latitude": 37.9404165,
    "longitude": -7.6037595
  },
  {
    "osmId": 6298077568,
    "name": "São Pedro",
    "latitude": 37.9411314,
    "longitude": -7.6017974
  },
  {
    "osmId": 6298077570,
    "name": "La Salete",
    "latitude": 37.9383106,
    "longitude": -7.6020241
  },
  {
    "osmId": 6298077571,
    "name": "A Gare",
    "latitude": 37.9384746,
    "longitude": -7.6006897
  },
  {
    "osmId": 6298077585,
    "name": "Cervejaria Vila Branca",
    "latitude": 37.9393349,
    "longitude": -7.6016994
  },
  {
    "osmId": 6298104344,
    "name": "Pedra de Sal",
    "latitude": 37.9429738,
    "longitude": -7.5930481
  },
  {
    "osmId": 6298305186,
    "name": "Café Engrola",
    "latitude": 37.9452213,
    "longitude": -7.5998978
  },
  {
    "osmId": 6303190806,
    "name": "Pizza Pino",
    "latitude": 37.0994604,
    "longitude": -7.9989946
  },
  {
    "osmId": 6326063185,
    "name": "Alô Pizza",
    "latitude": 37.0191141,
    "longitude": -7.9326932
  },
  {
    "osmId": 6332890085,
    "name": "Mesón el gato",
    "latitude": 37.1997176,
    "longitude": -7.3160295
  },
  {
    "osmId": 6333598188,
    "name": "Bar Abuelo Mañas",
    "latitude": 37.2036717,
    "longitude": -7.3286147
  },
  {
    "osmId": 6344386985,
    "name": "Praia na Vila",
    "latitude": 37.1030454,
    "longitude": -8.1165164
  },
  {
    "osmId": 6348222982,
    "name": "Mamma Mia",
    "latitude": 37.1565743,
    "longitude": -7.8892918
  },
  {
    "osmId": 6348224102,
    "name": "União",
    "latitude": 37.1524542,
    "longitude": -7.8893692
  },
  {
    "osmId": 6348277052,
    "name": "4 à Mesa",
    "latitude": 37.1517162,
    "longitude": -7.8842544
  },
  {
    "osmId": 6409035985,
    "name": "Limoni",
    "website": "https://m.facebook.com/arco31italianrestaurant",
    "latitude": 37.0445034,
    "longitude": -8.0297025
  },
  {
    "osmId": 6411155785,
    "name": "Butchers",
    "website": "http://restaurantebutchers.com",
    "latitude": 37.0845237,
    "longitude": -8.0443779
  },
  {
    "osmId": 6415713858,
    "name": "Três Palmeiras",
    "latitude": 37.1291196,
    "longitude": -7.6402713
  },
  {
    "osmId": 6417429385,
    "name": "Tasca o Galo",
    "latitude": 37.0241163,
    "longitude": -7.8418737
  },
  {
    "osmId": 6433941941,
    "name": "Verde Minho",
    "latitude": 37.0913058,
    "longitude": -8.2345618
  },
  {
    "osmId": 6433941943,
    "name": "Uzonj",
    "latitude": 37.0907973,
    "longitude": -8.234863
  },
  {
    "osmId": 6433941944,
    "name": "Louro & Salsa",
    "latitude": 37.0905813,
    "longitude": -8.2350825
  },
  {
    "osmId": 6435984314,
    "name": "Eddy Tapas bar",
    "latitude": 37.1793879,
    "longitude": -7.4475315
  },
  {
    "osmId": 6442871191,
    "name": "l'Osteria",
    "latitude": 37.0157266,
    "longitude": -7.9317952
  },
  {
    "osmId": 6443563061,
    "name": "Mecearia São Pedro",
    "latitude": 37.0189264,
    "longitude": -7.9354563
  },
  {
    "osmId": 6443563062,
    "name": "A Tasca do João",
    "latitude": 37.0153278,
    "longitude": -7.9298287
  },
  {
    "osmId": 6443580201,
    "name": "Papaya",
    "latitude": 37.0167785,
    "longitude": -7.9348126
  },
  {
    "osmId": 6447538685,
    "name": "Belo Sol",
    "latitude": 37.0935684,
    "longitude": -7.8956667
  },
  {
    "osmId": 6448533232,
    "name": "Arrunhado",
    "latitude": 37.0568039,
    "longitude": -7.8788307
  },
  {
    "osmId": 6456648910,
    "name": "A do Pinto",
    "latitude": 37.015908,
    "longitude": -7.9329298
  },
  {
    "osmId": 6518203006,
    "name": "Sabores do Monte",
    "latitude": 37.9065387,
    "longitude": -8.035172
  },
  {
    "osmId": 6518890231,
    "name": "Tapas e Mendas",
    "latitude": 37.0245969,
    "longitude": -7.8438507
  },
  {
    "osmId": 6518890233,
    "name": "Churrascaria",
    "latitude": 37.0258662,
    "longitude": -7.8441404
  },
  {
    "osmId": 6533983296,
    "name": "La Petite France",
    "latitude": 37.1275792,
    "longitude": -7.6468793
  },
  {
    "osmId": 6534265285,
    "name": "TiMaria",
    "latitude": 37.129218,
    "longitude": -7.6478899
  },
  {
    "osmId": 6534265385,
    "name": "Oskar’s Restaurante",
    "latitude": 37.1254471,
    "longitude": -7.648037
  },
  {
    "osmId": 6535430686,
    "name": "Cais do Gilãdo",
    "latitude": 37.1249724,
    "longitude": -7.6457252
  },
  {
    "osmId": 6542689079,
    "name": "Himalaya Gurkha",
    "latitude": 37.1551284,
    "longitude": -7.8893114
  },
  {
    "osmId": 6542739516,
    "name": "Taste of Punjab",
    "latitude": 37.1517132,
    "longitude": -7.8819369
  },
  {
    "osmId": 6546149142,
    "name": "Wow Sushi bar",
    "latitude": 37.1796411,
    "longitude": -7.4495314
  },
  {
    "osmId": 6628778520,
    "name": "Pure",
    "website": "https://www.quintadolago.com/en/restaurants/pure/",
    "latitude": 37.0576512,
    "longitude": -8.0229313
  },
  {
    "osmId": 6634308671,
    "name": "O António",
    "latitude": 37.096937,
    "longitude": -8.1778913
  },
  {
    "osmId": 6634816185,
    "name": "Restaurante Al Ria",
    "latitude": 37.0153952,
    "longitude": -7.9300114
  },
  {
    "osmId": 6695903985,
    "name": "Social",
    "latitude": 37.0717543,
    "longitude": -8.1091368
  },
  {
    "osmId": 6720056292,
    "name": "Fuji sushi",
    "latitude": 37.0904079,
    "longitude": -8.2219268
  },
  {
    "osmId": 6720056293,
    "name": "Porto de Abrigo",
    "latitude": 37.0826286,
    "longitude": -8.2597952
  },
  {
    "osmId": 6721307567,
    "name": "La Cabra II",
    "latitude": 37.1726515,
    "longitude": -7.3740175
  },
  {
    "osmId": 6721307568,
    "name": "Chiringuito La Cabra",
    "latitude": 37.1722711,
    "longitude": -7.3749402
  },
  {
    "osmId": 6721307569,
    "name": "Bar Los Mellizos",
    "latitude": 37.1733098,
    "longitude": -7.3714614
  },
  {
    "osmId": 6742535185,
    "name": "Zé da Tasca 2",
    "latitude": 37.1812484,
    "longitude": -7.5004316
  },
  {
    "osmId": 6745561799,
    "name": "King",
    "latitude": 37.0862152,
    "longitude": -7.989732
  },
  {
    "osmId": 6747069543,
    "name": "Big China",
    "latitude": 37.1369171,
    "longitude": -8.0179945
  },
  {
    "osmId": 6757010913,
    "name": "Adega Nova",
    "website": "https://restauranteadeganova.com/",
    "latitude": 37.0186262,
    "longitude": -7.9381748
  },
  {
    "osmId": 6765193782,
    "name": "Hamburgueria Toska",
    "latitude": 37.0357534,
    "longitude": -7.8372538
  },
  {
    "osmId": 6781093586,
    "name": "S. Martino Restorante Pizzeria",
    "latitude": 37.0649803,
    "longitude": -8.0968192
  },
  {
    "osmId": 6781247339,
    "name": "Las Tres Cruces",
    "latitude": 37.221597,
    "longitude": -7.401575
  },
  {
    "osmId": 6782630188,
    "name": "Cidade de Frango",
    "latitude": 37.0247223,
    "longitude": -7.8421387
  },
  {
    "osmId": 6783326173,
    "name": "Pizzaria - \"Pronto a Comer\"",
    "latitude": 37.6514701,
    "longitude": -8.2244486
  },
  {
    "osmId": 6806620685,
    "name": "Mount Everest",
    "latitude": 37.018073,
    "longitude": -7.9348329
  },
  {
    "osmId": 6813092686,
    "name": "Océano Playa",
    "latitude": 37.1960888,
    "longitude": -7.3053915
  },
  {
    "osmId": 6815057481,
    "name": "Come na Gaveta",
    "website": "https://comenagaveta.pt/",
    "latitude": 37.1231072,
    "longitude": -7.6520576
  },
  {
    "osmId": 6828545482,
    "name": "Sandomania",
    "latitude": 37.0709643,
    "longitude": -8.1067382
  },
  {
    "osmId": 6852786885,
    "name": "Casa Luciano",
    "website": "http://www.eatbu.com",
    "latitude": 37.2113672,
    "longitude": -7.4040786
  },
  {
    "osmId": 6861479385,
    "name": "La Boccana",
    "latitude": 37.1964215,
    "longitude": -7.3269118
  },
  {
    "osmId": 6890174899,
    "name": "Tic-Tac",
    "latitude": 37.511964,
    "longitude": -8.0568312
  },
  {
    "osmId": 6905423814,
    "name": "Galeria dos Sentidos",
    "latitude": 37.0963516,
    "longitude": -7.8944566
  },
  {
    "osmId": 6905423864,
    "name": "Pastelaria Silvestre",
    "latitude": 37.095377,
    "longitude": -7.8945129
  },
  {
    "osmId": 6905427922,
    "name": "Retiro dos Caçadores",
    "latitude": 37.0953092,
    "longitude": -7.8932892
  },
  {
    "osmId": 6915295785,
    "name": "El Minutero",
    "latitude": 37.1852007,
    "longitude": -7.3422493
  },
  {
    "osmId": 6918230313,
    "name": "Nascer do Sol",
    "latitude": 37.8868888,
    "longitude": -7.5561606
  },
  {
    "osmId": 6939075486,
    "name": "Dano's",
    "latitude": 37.0466001,
    "longitude": -8.0305785
  },
  {
    "osmId": 6949241885,
    "name": "Sol e Serra",
    "latitude": 37.1990108,
    "longitude": -7.9736763
  },
  {
    "osmId": 6960398473,
    "name": "O Tachinho da Avó Luísa",
    "latitude": 37.157465,
    "longitude": -7.889353
  },
  {
    "osmId": 6976863085,
    "name": "Nuevo Simón",
    "latitude": 37.1883453,
    "longitude": -7.3419387
  },
  {
    "osmId": 7045152213,
    "name": "American Diner 3",
    "latitude": 37.0921738,
    "longitude": -8.2372061
  },
  {
    "osmId": 7045152214,
    "name": "Paladim",
    "latitude": 37.0916047,
    "longitude": -8.2389629
  },
  {
    "osmId": 7045152215,
    "name": "La em Casa",
    "latitude": 37.0915148,
    "longitude": -8.2391641
  },
  {
    "osmId": 7045152217,
    "name": "Big ShangHai Chinese Restaurant",
    "latitude": 37.0920946,
    "longitude": -8.2361949
  },
  {
    "osmId": 7058344241,
    "name": "Happy Family",
    "latitude": 37.1272326,
    "longitude": -8.280994
  },
  {
    "osmId": 7082299563,
    "name": "The Waterfront Terrace",
    "latitude": 37.0861224,
    "longitude": -8.2445756
  },
  {
    "osmId": 7084418338,
    "name": "Curry Leaves",
    "latitude": 37.0905452,
    "longitude": -8.2220333
  },
  {
    "osmId": 7086322327,
    "name": "Chefe Branco",
    "latitude": 37.0208493,
    "longitude": -7.9382349
  },
  {
    "osmId": 7093485085,
    "name": "O Repuxo",
    "latitude": 37.6441745,
    "longitude": -7.6604418
  },
  {
    "osmId": 7093626385,
    "name": "O Ciga",
    "latitude": 37.6418568,
    "longitude": -7.6590191
  },
  {
    "osmId": 7093629086,
    "name": "Boa viagem",
    "latitude": 37.6413368,
    "longitude": -7.6590128
  },
  {
    "osmId": 7095394189,
    "latitude": 37.4721857,
    "longitude": -7.6945499
  },
  {
    "osmId": 7096253686,
    "name": "Cuca",
    "latitude": 37.1943711,
    "longitude": -7.4161709
  },
  {
    "osmId": 7096515185,
    "name": "Aperitivo",
    "latitude": 37.1953869,
    "longitude": -7.4154998
  },
  {
    "osmId": 7098646986,
    "name": "La forchetta",
    "website": "https://www.instagram.com/laforchetta_faro",
    "latitude": 37.0183896,
    "longitude": -7.934112
  },
  {
    "osmId": 7131427679,
    "name": "A Praça",
    "latitude": 37.963744,
    "longitude": -8.0853797
  },
  {
    "osmId": 7141787482,
    "name": "Casa do Frango",
    "latitude": 37.0982423,
    "longitude": -8.1824768
  },
  {
    "osmId": 7148936885,
    "name": "7 Figo Decklounge",
    "latitude": 37.0781047,
    "longitude": -8.1180245
  },
  {
    "osmId": 7148961685,
    "latitude": 37.0791043,
    "longitude": -8.1193926
  },
  {
    "osmId": 7167597086,
    "latitude": 37.2647971,
    "longitude": -8.2445912
  },
  {
    "osmId": 7201278695,
    "name": "Estevão",
    "latitude": 37.5708794,
    "longitude": -8.1716201
  },
  {
    "osmId": 7201402705,
    "name": "Flôr do Alentejo",
    "latitude": 37.5703444,
    "longitude": -8.1705399
  },
  {
    "osmId": 7296548615,
    "name": "Wander Inn",
    "website": "https://www.facebook.com/wanderinnalbufeira",
    "latitude": 37.0926167,
    "longitude": -8.2255155
  },
  {
    "osmId": 7333251335,
    "name": "O Saraiva",
    "latitude": 37.0755653,
    "longitude": -8.0956632
  },
  {
    "osmId": 7370078222,
    "name": "O Trovador",
    "latitude": 37.9435815,
    "longitude": -8.1824612
  },
  {
    "osmId": 7376933660,
    "name": "Malha Ferro",
    "latitude": 37.8770867,
    "longitude": -8.152548
  },
  {
    "osmId": 7376933661,
    "name": "Tasca do Filipe",
    "latitude": 37.8802493,
    "longitude": -8.1629818
  },
  {
    "osmId": 7376994892,
    "name": "Fio d'Azeite",
    "latitude": 37.8788894,
    "longitude": -8.1632494
  },
  {
    "osmId": 7376994893,
    "name": "Oliva",
    "latitude": 37.8793683,
    "longitude": -8.1629373
  },
  {
    "osmId": 7376994896,
    "name": "Pizzaria Cantinho Azul",
    "latitude": 37.8797177,
    "longitude": -8.1641966
  },
  {
    "osmId": 7376994897,
    "name": "Restaurante Imperial",
    "latitude": 37.8795915,
    "longitude": -8.1635279
  },
  {
    "osmId": 7376994898,
    "name": "Restaurante das Piscinas",
    "latitude": 37.8768766,
    "longitude": -8.1607863
  },
  {
    "osmId": 7476418193,
    "name": "Adega Ti Costa",
    "latitude": 37.0971897,
    "longitude": -8.1796818
  },
  {
    "osmId": 7546885787,
    "latitude": 37.1039143,
    "longitude": -7.9620399
  },
  {
    "osmId": 7598212045,
    "name": "Flor do Alentejo",
    "latitude": 37.6004342,
    "longitude": -8.2510017
  },
  {
    "osmId": 7598264972,
    "name": "Novo Coimbra",
    "latitude": 37.5999646,
    "longitude": -8.2514148
  },
  {
    "osmId": 7604807386,
    "name": "Casa do Benfica de Serpa",
    "latitude": 37.9378447,
    "longitude": -7.5988863
  },
  {
    "osmId": 7703102139,
    "name": "Cuca",
    "latitude": 37.1944047,
    "longitude": -7.416162
  },
  {
    "osmId": 7809906385,
    "name": "Thai Phuket",
    "latitude": 37.0937285,
    "longitude": -8.1992049
  },
  {
    "osmId": 7850304110,
    "name": "Thai Restaurant",
    "latitude": 37.0777512,
    "longitude": -8.1163902
  },
  {
    "osmId": 7850648269,
    "name": "Restaurante Apolo",
    "latitude": 37.1387207,
    "longitude": -8.0207728
  },
  {
    "osmId": 7850648270,
    "name": "Restaurante Analide",
    "latitude": 37.1386991,
    "longitude": -8.0206999
  },
  {
    "osmId": 7850662015,
    "name": "Dozo Restaurante Buffet Japonês",
    "latitude": 37.1385457,
    "longitude": -8.0199233
  },
  {
    "osmId": 7852450727,
    "name": "Piri-Piri",
    "latitude": 37.0731426,
    "longitude": -8.1038073
  },
  {
    "osmId": 7852450728,
    "name": "Tico Tico",
    "latitude": 37.0732239,
    "longitude": -8.1037966
  },
  {
    "osmId": 7853737285,
    "name": "Beira Rio",
    "latitude": 37.1273935,
    "longitude": -7.6510867
  },
  {
    "osmId": 7854567400,
    "name": "Luzzo Pizarias",
    "latitude": 37.1391617,
    "longitude": -8.0209422
  },
  {
    "osmId": 7855074314,
    "name": "Mr Pizza",
    "latitude": 37.0201599,
    "longitude": -7.9381463
  },
  {
    "osmId": 7855074315,
    "name": "Fukushima",
    "latitude": 37.0202375,
    "longitude": -7.9382238
  },
  {
    "osmId": 7856087245,
    "name": "Rosas Cantina",
    "latitude": 37.0787548,
    "longitude": -8.1125241
  },
  {
    "osmId": 7856533778,
    "name": "Los barriles",
    "latitude": 37.1724485,
    "longitude": -7.3774534
  },
  {
    "osmId": 7894350423,
    "name": "Chiringuito de Antonio V",
    "latitude": 37.1862958,
    "longitude": -7.3391476
  },
  {
    "osmId": 7894432016,
    "name": "Casa Simón",
    "latitude": 37.1885435,
    "longitude": -7.3413692
  },
  {
    "osmId": 7894432969,
    "name": "La Pamela",
    "latitude": 37.1882895,
    "longitude": -7.341568
  },