[
  {
    "osmId": 364174576,
    "name": "Abades La Roda",
    "website": "https://www.abadesareas.com/areas-de-servicio/abades-la-roda-a92.html",
    "latitude": 37.197144,
    "longitude": -4.7971092
  },
  {
    "osmId": 427842314,
    "name": "Taberna El Poema",
    "website": "https://tabernaelpoema.com/",
    "latitude": 37.8859614,
    "longitude": -4.7838093
  },
  {
    "osmId": 440673399,
    "name": "Las Viñas",
    "latitude": 37.1066275,
    "longitude": -4.3496807
  },
  {
    "osmId": 992847725,
    "name": "Venta El Kiko",
    "latitude": 37.0403824,
    "longitude": -4.7112428
  },
  {
    "osmId": 1258460082,
    "name": "Restaurante El Andén",
    "latitude": 37.4748517,
    "longitude": -4.4243401
  },
  {
    "osmId": 1259977224,
    "name": "Asador Restaurante Los Palancos",
    "latitude": 37.5439443,
    "longitude": -4.3160641
  },
  {
    "osmId": 1262612582,
    "name": "Mesón Atalaya",
    "latitude": 37.5444348,
    "longitude": -4.3129477
  },
  {
    "osmId": 1262612584,
    "name": "Los Palancos",
    "latitude": 37.5437954,
    "longitude": -4.3152449
  },
  {
    "osmId": 1269792872,
    "name": "Estación de Doña Mencía",
    "latitude": 37.5464962,
    "longitude": -4.351026
  },
  {
    "osmId": 1642507597,
    "name": "Restaurante Fuente del Río",
    "latitude": 37.4655222,
    "longitude": -4.4228338
  },
  {
    "osmId": 1668185603,
    "name": "Bar Restaurante Lola",
    "latitude": 37.2333499,
    "longitude": -4.4888334
  },
  {
    "osmId": 1669036019,
    "name": "O Mamma Mia",
    "latitude": 37.8864307,
    "longitude": -4.8057235
  },
  {
    "osmId": 1669043655,
    "name": "Dali",
    "latitude": 37.885493,
    "longitude": -4.8015285
  },
  {
    "osmId": 1678990992,
    "name": "Casa Alfonso",
    "latitude": 37.4625746,
    "longitude": -4.3805743
  },
  {
    "osmId": 1678990996,
    "name": "Venta Los Pelaos 1913",
    "latitude": 37.4625788,
    "longitude": -4.3812636
  },
  {
    "osmId": 1792470358,
    "name": "Cardador Sierra",
    "latitude": 37.924598,
    "longitude": -4.755017
  },
  {
    "osmId": 1792506798,
    "name": "La Abaceria",
    "latitude": 37.8948156,
    "longitude": -4.7771071
  },
  {
    "osmId": 1794668230,
    "name": "Restaurante Cortijo Dos Fuentes",
    "latitude": 37.9377592,
    "longitude": -4.744229
  },
  {
    "osmId": 1795381690,
    "name": "Con acento",
    "website": "https://conacentoparrilla.com/",
    "latitude": 37.895036,
    "longitude": -4.7765832
  },
  {
    "osmId": 1795384497,
    "name": "Pizzon Piza",
    "latitude": 37.8955144,
    "longitude": -4.7753013
  },
  {
    "osmId": 1797656156,
    "name": "Pizzon Pizza",
    "latitude": 37.8779724,
    "longitude": -4.7607119
  },
  {
    "osmId": 1976392641,
    "name": "El Churrasco",
    "latitude": 37.8800938,
    "longitude": -4.7819054
  },
  {
    "osmId": 1995096484,
    "name": "Bar Restaurante Lucía PM",
    "latitude": 37.5246145,
    "longitude": -4.9212256
  },
  {
    "osmId": 2050156002,
    "name": "Hops Tapas",
    "latitude": 37.3966595,
    "longitude": -4.7662639
  },
  {
    "osmId": 2172458711,
    "latitude": 37.581286,
    "longitude": -4.6389739
  },
  {
    "osmId": 2172458721,
    "latitude": 37.5807334,
    "longitude": -4.6393279
  },
  {
    "osmId": 2172458723,
    "latitude": 37.5796025,
    "longitude": -4.6529857
  },
  {
    "osmId": 2189979516,
    "name": "La Cuchara",
    "latitude": 37.8878352,
    "longitude": -4.7693287
  },
  {
    "osmId": 2192482123,
    "name": "Casa Pedro Marisqueria",
    "latitude": 37.8944598,
    "longitude": -4.7803038
  },
  {
    "osmId": 2195588468,
    "name": "El mordisquito 2",
    "latitude": 37.8981286,
    "longitude": -4.7592341
  },
  {
    "osmId": 2195620221,
    "name": "Pepín",
    "latitude": 37.8320521,
    "longitude": -4.9277865
  },
  {
    "osmId": 2289018196,
    "name": "La Taberna de Cuatro Caminos",
    "website": "https://latabernadecuatrocaminos.com/",
    "latitude": 37.8103146,
    "longitude": -5.0177785
  },
  {
    "osmId": 2289018407,
    "name": "Mesón \"Casa Luis\"",
    "latitude": 37.8102442,
    "longitude": -5.0175396
  },
  {
    "osmId": 2468542488,
    "latitude": 37.0237318,
    "longitude": -4.5696199
  },
  {
    "osmId": 2480042263,
    "name": "Tasca Patio de las Comedias",
    "website": "http://www.comercianda.es/tascapatiodelascomedias",
    "latitude": 37.2575608,
    "longitude": -4.3076514
  },
  {
    "osmId": 2481179959,
    "name": "La Espuela",
    "latitude": 37.0223979,
    "longitude": -4.5649779
  },
  {
    "osmId": 2498384993,
    "name": "Mesón El Escribano",
    "latitude": 37.0150763,
    "longitude": -4.5564667
  },
  {
    "osmId": 2498432399,
    "name": "Venta Los Pilotos",
    "latitude": 37.0996189,
    "longitude": -4.5665832
  },
  {
    "osmId": 2507044017,
    "name": "Hotel Las Villas de Antikaria",
    "latitude": 37.0236005,
    "longitude": -4.5608998
  },
  {
    "osmId": 2522070018,
    "name": "Hotel Mesón el Número Uno",
    "website": "https://www.hotelnumerouno.com/",
    "latitude": 37.0200383,
    "longitude": -4.5599447
  },
  {
    "osmId": 2528227209,
    "name": "El Madrigal de Don Gonzalo",
    "latitude": 37.8897837,
    "longitude": -4.7831028
  },
  {
    "osmId": 2552862830,
    "name": "Mesón Casa Emilio",
    "latitude": 37.5406947,
    "longitude": -5.0795974
  },
  {
    "osmId": 2554088770,
    "name": "Bodegón del Gallego",
    "website": "http://www.elbodegondelgallego.com/",
    "latitude": 37.5414966,
    "longitude": -5.0770263
  },
  {
    "osmId": 2563018828,
    "name": "Restaurante El Candil",
    "latitude": 37.9267861,
    "longitude": -4.8981225
  },
  {
    "osmId": 2563022139,
    "name": "La Tabernita",
    "latitude": 37.9262514,
    "longitude": -4.8979154
  },
  {
    "osmId": 2622096337,
    "name": "Mesón Ibérico Dehesa Las Hazuelas",
    "latitude": 37.0167008,
    "longitude": -4.5577873
  },
  {
    "osmId": 2622097822,
    "name": "Bodega La Muralla",
    "latitude": 37.0160078,
    "longitude": -4.5545527
  },
  {
    "osmId": 2622099299,
    "name": "Arte de Cozina",
    "website": "https://www.artedecozina.com/",
    "latitude": 37.0183284,
    "longitude": -4.5579799
  },
  {
    "osmId": 2641083949,
    "name": "Tendillas 5",
    "latitude": 37.8848075,
    "longitude": -4.7794177
  },
  {
    "osmId": 2702296210,
    "name": "Restaurante La Perdiz",
    "latitude": 37.0511928,
    "longitude": -4.872172
  },
  {
    "osmId": 2723698130,
    "name": "Casa Angelita",
    "latitude": 37.581192,
    "longitude": -4.7503661
  },
  {
    "osmId": 2723784419,
    "name": "Las Malvinas",
    "latitude": 37.5802405,
    "longitude": -4.7510318
  },
  {
    "osmId": 2723973553,
    "name": "Rincón de Carmen",
    "latitude": 37.5843034,
    "longitude": -4.7484736
  },
  {
    "osmId": 2723976740,
    "name": "Casa Leo",
    "latitude": 37.5824263,
    "longitude": -4.7496957
  },
  {
    "osmId": 2724112907,
    "name": "Bar Maguillo",
    "latitude": 37.5857123,
    "longitude": -4.7447681
  },
  {
    "osmId": 2747790530,
    "name": "El Lobo",
    "latitude": 37.5774984,
    "longitude": -4.7519943
  },
  {
    "osmId": 2751752861,
    "name": "Bar Chaquetas",
    "latitude": 37.5828058,
    "longitude": -4.7497824
  },
  {
    "osmId": 2751976356,
    "name": "Bar Plaza",
    "latitude": 37.5829281,
    "longitude": -4.7493017
  },
  {
    "osmId": 2756057867,
    "name": "Círculo de Labradores",
    "latitude": 37.582306,
    "longitude": -4.7500141
  },
  {
    "osmId": 2812826757,
    "latitude": 37.4396102,
    "longitude": -4.5519847
  },
  {
    "osmId": 2812826759,
    "latitude": 37.4410242,
    "longitude": -4.551534
  },
  {
    "osmId": 2821357955,
    "name": "Chimenea el Pilar",
    "latitude": 37.523262,
    "longitude": -5.2081964
  },
  {
    "osmId": 2821412787,
    "name": "Taberna Salinas",
    "latitude": 37.8841313,
    "longitude": -4.7758244
  },
  {
    "osmId": 2825788327,
    "name": "Salón de Celebraciones Goga",
    "latitude": 37.5514513,
    "longitude": -5.077348
  },
  {
    "osmId": 2834780403,
    "name": "Bodega Taberna Rafaé",
    "latitude": 37.8803288,
    "longitude": -4.7811552
  },
  {
    "osmId": 2834780404,
    "name": "Casa Pepe de la Judería",
    "latitude": 37.8797422,
    "longitude": -4.7812529
  },
  {
    "osmId": 2834817838,
    "name": "El Caballo Rojo",
    "latitude": 37.8799022,
    "longitude": -4.7807233
  },
  {
    "osmId": 2834817847,
    "name": "Cosmopolitan Food",
    "website": "http://www.gaudijudalevi.com/",
    "latitude": 37.8790411,
    "longitude": -4.7816133
  },
  {
    "osmId": 2856107289,
    "name": "Restaurante la Bodega",
    "latitude": 37.3081869,
    "longitude": -4.6737007
  },
  {
    "osmId": 2856123637,
    "name": "La Posada",
    "latitude": 37.3074969,
    "longitude": -4.674409
  },
  {
    "osmId": 2869229580,
    "name": "Casa El Pisto - Taberna San Miguel",
    "latitude": 37.8857514,
    "longitude": -4.7792195
  },
  {
    "osmId": 2883804608,
    "name": "Mesón San Martin",
    "website": "http://mesonsanmartin.com",
    "latitude": 37.4734659,
    "longitude": -4.4430215
  },
  {
    "osmId": 2883805203,
    "name": "Choco",
    "website": "https://www.restaurantechoco.com/",
    "latitude": 37.8851847,
    "longitude": -4.7623794
  },
  {
    "osmId": 2883806805,
    "name": "Mesón El Tema",
    "latitude": 37.8773046,
    "longitude": -4.7620073
  },
  {
    "osmId": 2883807008,
    "name": "La Cigala del Sur",
    "website": "https://restaurantelacigaladelsur.com/",
    "latitude": 37.8742911,
    "longitude": -4.795901
  },
  {
    "osmId": 2883808204,
    "name": "El Burlaero",
    "website": "https://restauranteelburlaero.com/",
    "latitude": 37.8800626,
    "longitude": -4.7806509
  },
  {
    "osmId": 2883808205,
    "name": "Aparkao Gastrobar",
    "latitude": 37.8972786,
    "longitude": -4.7518634
  },
  {
    "osmId": 2883809903,
    "name": "Los Arcos",
    "latitude": 37.8467375,
    "longitude": -4.9222327
  },
  {
    "osmId": 2883809906,
    "name": "Santo Domingo",
    "website": "https://www.barrestaurantesantodomingo.es",
    "latitude": 37.94216,
    "longitude": -4.79362
  },
  {
    "osmId": 2883818208,
    "name": "La Esencia Andaluza",
    "website": "https://restaurante-la-esencia-andaluza-cordoba.negocio.site/",
    "latitude": 37.9085763,
    "longitude": -4.7781876
  },
  {
    "osmId": 2883818601,
    "name": "Carmen",
    "website": "https://www.hotelcarmencordoba.com/el-restaurante.php",
    "latitude": 37.6647206,
    "longitude": -4.9420552
  },
  {
    "osmId": 2883818801,
    "name": "Cuevas Bajas",
    "latitude": 37.8397507,
    "longitude": -4.9547248
  },
  {
    "osmId": 2883819606,
    "name": "La Cervecita & Co",
    "latitude": 37.8795178,
    "longitude": -4.7983982
  },
  {
    "osmId": 2883819607,
    "name": "Bar Julián",
    "latitude": 37.8925431,
    "longitude": -4.7608954
  },
  {
    "osmId": 2883819804,
    "name": "Séneca",
    "latitude": 37.8713043,
    "longitude": -4.7737616
  },
  {
    "osmId": 2883819805,
    "name": "El Capricho de Vistalegre",
    "website": "https://cordobea.com/el-capricho-de-vistalegre/",
    "latitude": 37.8773131,
    "longitude": -4.7912916
  },
  {
    "osmId": 2883820102,
    "name": "Mesón Los Tamicos II",
    "latitude": 37.8977076,
    "longitude": -4.7652931
  },
  {
    "osmId": 2883820404,
    "name": "Casa Fran",
    "latitude": 37.8775243,
    "longitude": -4.7956507
  },
  {
    "osmId": 2883820405,
    "name": "Casa Patricio",
    "website": "https://restaurantecasapatricio.es/",
    "latitude": 37.89013,
    "longitude": -4.37905
  },
  {
    "osmId": 2883820504,
    "name": "Los Mochuelos",
    "latitude": 37.8818948,
    "longitude": -4.7678919
  },
  {
    "osmId": 2883820505,
    "name": "Mesón Casa Manolín",
    "latitude": 37.8841528,
    "longitude": -4.7641959
  },
  {
    "osmId": 2883820604,
    "name": "Mesón Guerrita",
    "website": "https://mesonguerrita.blogspot.com",
    "latitude": 37.8784874,
    "longitude": -4.7951587
  },
  {
    "osmId": 2883823002,
    "name": "Rafalete",
    "latitude": 37.8936774,
    "longitude": -4.763198
  },
  {
    "osmId": 2883823402,
    "name": "La Taberna de Doce de Octubre",
    "latitude": 37.8891055,
    "longitude": -4.7811966
  },
  {
    "osmId": 2883823803,
    "name": "Restaurante Burgos II",
    "latitude": 37.9036556,
    "longitude": -4.7140355
  },
  {
    "osmId": 2883824802,
    "name": "Miguelito",
    "website": "https://www.barmiguelito.es/",
    "latitude": 37.8749321,
    "longitude": -4.7759358
  },
  {
    "osmId": 2883826401,
    "name": "Chuletero El Granadal",
    "website": "https://chuletero-el-granadal.eatbu.com",
    "latitude": 37.8915698,
    "longitude": -4.7462644
  },
  {
    "osmId": 2883827101,
    "name": "Los Tamicos",
    "latitude": 37.8757065,
    "longitude": -4.7653131
  },
  {
    "osmId": 2883828001,
    "name": "Churrería Los Príncipes",
    "latitude": 37.8976952,
    "longitude": -4.7539262
  },
  {
    "osmId": 2883828101,
    "name": "Gran Origen",
    "website": "https://gran-origen-restaurante.eatbu.com/",
    "latitude": 37.9013951,
    "longitude": -4.7587871
  },
  {
    "osmId": 2883919002,
    "name": "Asador Rejano",
    "latitude": 37.69444,
    "longitude": -5.27797
  },
  {
    "osmId": 2883919801,
    "name": "Casa Paco Maestre",
    "latitude": 37.71186,
    "longitude": -4.8675
  },
  {
    "osmId": 2884112025,
    "name": "Taberna Casa Bravo",
    "latitude": 37.8808003,
    "longitude": -4.7836432
  },
  {
    "osmId": 3005063959,
    "name": "Mesón la Bodega",
    "latitude": 37.3677611,
    "longitude": -4.9655803
  },
  {
    "osmId": 3007392785,
    "name": "Salón de Bodas",
    "latitude": 37.3762317,
    "longitude": -4.9525788
  },
  {
    "osmId": 3023116194,
    "name": "Tejada",
    "latitude": 37.1362325,
    "longitude": -4.7296906
  },
  {
    "osmId": 3023136413,
    "latitude": 37.1361234,
    "longitude": -4.7296637
  },
  {
    "osmId": 3074040710,
    "latitude": 37.2336919,
    "longitude": -5.0986971
  },
  {
    "osmId": 3097306002,
    "name": "Neyva",
    "latitude": 37.2014534,
    "longitude": -4.7787794
  },
  {
    "osmId": 3131368898,
    "name": "Asador Lanzas",
    "latitude": 37.4375605,
    "longitude": -4.6087351
  },
  {
    "osmId": 3245698381,
    "name": "Bandolero",
    "latitude": 37.8789853,
    "longitude": -4.7805385
  },
  {
    "osmId": 3349090441,
    "name": "Restaurante El Rincón Maleno",
    "latitude": 37.8061984,
    "longitude": -5.0997636
  },
  {
    "osmId": 3349090444,
    "name": "Hogar del Pensionista",
    "latitude": 37.802695,
    "longitude": -5.1048855
  },
  {
    "osmId": 3349090448,
    "name": "Bar Calabria",
    "latitude": 37.8021404,
    "longitude": -5.1048229
  },
  {
    "osmId": 3349090451,
    "latitude": 37.8024759,
    "longitude": -5.1142848
  },
  {
    "osmId": 3350031702,
    "latitude": 37.8047528,
    "longitude": -5.106132
  },
  {
    "osmId": 3350203960,
    "latitude": 37.8059384,
    "longitude": -5.1042029
  },
  {
    "osmId": 3350809667,
    "latitude": 37.8034065,
    "longitude": -5.1069493
  },
  {
    "osmId": 3366586309,
    "name": "Bodegas Mezquita",
    "website": "https://www.bodegasmezquita.com",
    "latitude": 37.879966,
    "longitude": -4.7800818
  },
  {
    "osmId": 3367649102,
    "name": "Marídame",
    "website": "https://maridame.es/",
    "latitude": 37.8804836,
    "longitude": -4.7802215
  },
  {
    "osmId": 3367696083,
    "name": "Taberna Rafalete",
    "website": "http://telefonica7.wix.com/tabernarafalete",
    "latitude": 37.8842247,
    "longitude": -4.7760871
  },
  {
    "osmId": 3367696087,
    "name": "El Sótano",
    "latitude": 37.8838471,
    "longitude": -4.7750645
  },
  {
    "osmId": 3367696088,
    "name": "Tu Pescaito",
    "latitude": 37.8835109,
    "longitude": -4.7751387
  },
  {
    "osmId": 3367723863,
    "name": "Garum 2.1",
    "latitude": 37.880114,
    "longitude": -4.7756628
  },
  {
    "osmId": 3367723865,
    "name": "Macsura",
    "website": "http://www.gastrotabernamacsura.com/",
    "latitude": 37.8797446,
    "longitude": -4.7767493
  },
  {
    "osmId": 3367723866,
    "name": "Taberna Los Palcos",
    "website": "http://www.tabernalospalcos.com/",
    "latitude": 37.879571,
    "longitude": -4.7768842
  },
  {
    "osmId": 3367784599,
    "name": "Los 3 Califas",
    "website": "http://www.los3califas.com/index.php?option=com_content&view=article&id=1&Itemid=142&rest=MR&lang=es",
    "latitude": 37.8796513,
    "longitude": -4.7784281
  },
  {
    "osmId": 3367825717,
    "name": "Gris's",
    "latitude": 37.8827988,
    "longitude": -4.7834509
  },
  {
    "osmId": 3367825723,
    "name": "El Olivo",
    "website": "http://el-olivo.com/jl/",
    "latitude": 37.8786791,
    "longitude": -4.7833064
  },
  {
    "osmId": 3367868094,
    "name": "La Chiquita",
    "latitude": 37.878984,
    "longitude": -4.7815237
  },
  {
    "osmId": 3367868096,
    "name": "Taberna Ordóñez",
    "website": "https://vinotecaordonez.com/",
    "latitude": 37.8790982,
    "longitude": -4.7811126
  },
  {
    "osmId": 3367868098,
    "name": "Taberna El No 10",
    "website": "https://www.tabernaelnumero10cordoba.com/",
    "latitude": 37.8800084,
    "longitude": -4.7816548
  },
  {
    "osmId": 3367868099,
    "name": "Casa Pedro Ximenez",
    "latitude": 37.879935,
    "longitude": -4.7811867
  },
  {
    "osmId": 3367868100,
    "name": "Los Caifas",
    "website": "http://www.tabernaloscalifas.com/index.html",
    "latitude": 37.8799397,
    "longitude": -4.781072
  },
  {
    "osmId": 3367868101,
    "name": "Taberna Los Deanes",
    "website": "https://losdeanes.es",
    "latitude": 37.8800719,
    "longitude": -4.7811713
  },
  {
    "osmId": 3371425236,
    "name": "Taberna Frente Al Palacio",
    "latitude": 37.5394438,
    "longitude": -5.0793934
  },
  {
    "osmId": 3371425237,
    "name": "El Picaillo",
    "latitude": 37.5397735,
    "longitude": -5.0852943
  },
  {
    "osmId": 3371448261,
    "name": "Mesón de la Cárcel",
    "latitude": 37.5402138,
    "longitude": -5.0829333
  },
  {
    "osmId": 3371469037,
    "name": "La Reja",
    "website": "http://www.barlareja.es/",
    "latitude": 37.5415891,
    "longitude": -5.0781852
  },
  {
    "osmId": 3371507944,
    "name": "Las Ninfas",
    "latitude": 37.5395385,
    "longitude": -5.0798754
  },
  {
    "osmId": 3371525159,
    "name": "El Granaino",
    "latitude": 37.5407272,
    "longitude": -5.0794815
  },
  {
    "osmId": 3371894541,
    "name": "De La Vega",
    "latitude": 37.5352723,
    "longitude": -5.0760191
  },
  {
    "osmId": 3371894542,
    "name": "El Mesón de Lolo",
    "latitude": 37.535997,
    "longitude": -5.075593
  },
  {
    "osmId": 3371938486,
    "name": "Mesón Juan Antonio",
    "website": "https://www.mesonjuanantonio.com/",
    "latitude": 37.5434277,
    "longitude": -5.0737036
  },
  {
    "osmId": 3371961519,
    "name": "Amrita",
    "website": "http://restauranteamrita.com/es/",
    "latitude": 37.5404274,
    "longitude": -5.07819
  },
  {
    "osmId": 3424586736,
    "latitude": 37.5418898,
    "longitude": -5.0858329
  },
  {
    "osmId": 3454407341,
    "name": "Bar Virgen de la Torre",
    "latitude": 37.6840131,
    "longitude": -4.8537065
  },
  {
    "osmId": 3454407345,
    "name": "Bar La Tribuna",
    "latitude": 37.6836435,
    "longitude": -4.8542094
  },
  {
    "osmId": 3454407346,
    "name": "La Cocina de Estefanía",
    "latitude": 37.6834544,
    "longitude": -4.855696
  },
  {
    "osmId": 3454407352,
    "name": "Bar Los Faroles",
    "latitude": 37.6837008,
    "longitude": -4.8544032
  },
  {
    "osmId": 3454407353,
    "name": "Bar La Terracita",
    "latitude": 37.6846765,
    "longitude": -4.8546811
  },
  {
    "osmId": 3489214432,
    "name": "Paola",
    "latitude": 37.4362783,
    "longitude": -4.606407
  },
  {
    "osmId": 3489214434,
    "name": "Asador de Pollos \"El Valle\"",
    "latitude": 37.4366787,
    "longitude": -4.6061844
  },
  {
    "osmId": 3489214435,
    "name": "Asador de Pollos \"El Rey\"",
    "latitude": 37.437028,
    "longitude": -4.6075872
  },
  {
    "osmId": 3489214436,
    "name": "Andalucía 66",
    "latitude": 37.435616,
    "longitude": -4.6076086
  },
  {
    "osmId": 3489214437,
    "name": "Mister Kebab",
    "latitude": 37.4347577,
    "longitude": -4.6107012
  },
  {
    "osmId": 3503507478,
    "name": "El Capricho",
    "latitude": 37.941661,
    "longitude": -4.4924359
  },
  {
    "osmId": 3504833329,
    "name": "La Solera",
    "latitude": 37.9427484,
    "longitude": -4.4935797
  },
  {
    "osmId": 3504833330,
    "name": "La Parrilla",
    "latitude": 37.9430658,
    "longitude": -4.4936529
  },
  {
    "osmId": 3512852293,
    "name": "Monte Horquera",
    "latitude": 37.5887142,
    "longitude": -4.4602098
  },
  {
    "osmId": 3512852294,
    "name": "La Huerta",
    "latitude": 37.5879445,
    "longitude": -4.4622319
  },
  {
    "osmId": 3517539403,
    "name": "Casa Curro",
    "latitude": 37.2357686,
    "longitude": -5.1077314
  },
  {
    "osmId": 3517539702,
    "name": "Currito Chico",
    "latitude": 37.2359598,
    "longitude": -5.1078315
  },
  {
    "osmId": 3517544656,
    "name": "Marisquería Alfonso XII",
    "latitude": 37.2391503,
    "longitude": -5.1112495
  },
  {
    "osmId": 3551777807,
    "name": "Casa Paco",
    "latitude": 37.8147432,
    "longitude": -5.0123453
  },
  {
    "osmId": 3551777808,
    "name": "El Castillo",
    "latitude": 37.8073226,
    "longitude": -5.0234
  },
  {
    "osmId": 3551777809,
    "name": "Venta Pastor",
    "latitude": 37.812982,
    "longitude": -5.0145114
  },
  {
    "osmId": 3551777810,
    "name": "Pizzeria Victoria",
    "latitude": 37.8131588,
    "longitude": -5.0156425
  },
  {
    "osmId": 3551777811,
    "name": "Los Mac Pepe's Genuinos",
    "latitude": 37.81434,
    "longitude": -5.0140893
  },
  {
    "osmId": 3551777812,
    "name": "Freiduría Jose",
    "latitude": 37.8132003,
    "longitude": -5.0168612
  },
  {
    "osmId": 3551777813,
    "name": "La Taberna del Ateneo",
    "latitude": 37.8093268,
    "longitude": -5.0199351
  },
  {
    "osmId": 3551777814,
    "name": "San Luis",
    "latitude": 37.8217759,
    "longitude": -5.0067342
  },
  {
    "osmId": 3556785880,
    "name": "Los Arcos",
    "latitude": 37.6855548,
    "longitude": -4.4769848
  },
  {
    "osmId": 3556785881,
    "name": "Arezzo",
    "latitude": 37.6867179,
    "longitude": -4.4772851
  },
  {
    "osmId": 3556785882,
    "name": "Jungla-Nimac",
    "latitude": 37.6829817,
    "longitude": -4.4732309
  },
  {
    "osmId": 3569580093,
    "name": "Victoria",
    "latitude": 37.67145,
    "longitude": -4.7245734
  },
  {
    "osmId": 3569580094,
    "name": "El Quini",
    "latitude": 37.6679639,
    "longitude": -4.7290554
  },
  {
    "osmId": 3569580095,
    "name": "Génesis",
    "latitude": 37.6686581,
    "longitude": -4.727961
  },
  {
    "osmId": 3569580096,
    "name": "Conde de Fernán-Núñez",
    "latitude": 37.6667707,
    "longitude": -4.7241228
  },
  {
    "osmId": 3569580099,
    "name": "El Rafa",
    "latitude": 37.6665125,
    "longitude": -4.7256717
  },
  {
    "osmId": 3579349673,
    "name": "La Galga",
    "latitude": 37.7324843,
    "longitude": -4.6360504
  },
  {
    "osmId": 3596191256,
    "name": "Mesón Damián",
    "latitude": 37.6947252,
    "longitude": -5.282502
  },
  {
    "osmId": 3596191257,
    "name": "Mesón de la Aldaba",
    "latitude": 37.6978029,
    "longitude": -5.2779187
  },
  {
    "osmId": 3596191258,
    "name": "Santa Ana",
    "latitude": 37.7029164,
    "longitude": -5.2822748
  },
  {
    "osmId": 3596191259,
    "name": "La Bodeguita",
    "latitude": 37.6989832,
    "longitude": -5.2847045
  },
  {
    "osmId": 3596191261,
    "name": "Mesón Palmeño",
    "latitude": 37.6955062,
    "longitude": -5.2785463
  },
  {
    "osmId": 3596191262,
    "name": "Mario's",
    "latitude": 37.6974354,
    "longitude": -5.2750836
  },
  {
    "osmId": 3647845572,
    "name": "La Herradura",
    "latitude": 37.8789947,
    "longitude": -4.7776247
  },
  {
    "osmId": 3647845584,
    "name": "Casa El Pimpo",
    "latitude": 37.8800759,
    "longitude": -4.7794048
  },
  {
    "osmId": 3647845589,
    "name": "D'ulces",
    "latitude": 37.8795028,
    "longitude": -4.7771222
  },
  {
    "osmId": 3647845592,
    "name": "San Luis",
    "latitude": 37.87864,
    "longitude": -4.7781687
  },
  {
    "osmId": 3647845599,
    "name": "La Tranquera",
    "latitude": 37.8791555,
    "longitude": -4.7774307
  },
  {
    "osmId": 3647845602,
    "name": "Los Patios",
    "website": "http://www.lospatios.net/",
    "latitude": 37.8799077,
    "longitude": -4.7803052
  },
  {
    "osmId": 3647845603,
    "name": "El Triunfo",
    "latitude": 37.8784205,
    "longitude": -4.7787116
  },
  {
    "osmId": 3647845605,
    "name": "Entreolivos",
    "latitude": 37.8797038,
    "longitude": -4.7769297
  },
  {
    "osmId": 3656354136,
    "name": "Casa Tenedor",
    "latitude": 37.8784879,
    "longitude": -4.782947
  },
  {
    "osmId": 3677875247,
    "name": "Taberna Agora",
    "latitude": 37.8801702,
    "longitude": -4.779732
  },
  {
    "osmId": 3709534086,
    "name": "Pizzaiolo",
    "latitude": 37.9041457,
    "longitude": -4.7905482
  },
  {
    "osmId": 3811371188,
    "name": "El Caballo Andaluz",
    "latitude": 37.8767777,
    "longitude": -4.7836422
  },
  {
    "osmId": 3838692657,
    "name": "Casa Rubio",
    "website": "https://restaurantecasarubiocordoba.es/",
    "latitude": 37.8807125,
    "longitude": -4.7838236
  },
  {
    "osmId": 3839357646,
    "name": "El Alpiste",
    "latitude": 37.8800514,
    "longitude": -4.7754214
  },
  {
    "osmId": 3875994425,
    "name": "La Tinaja",
    "latitude": 37.8806164,
    "longitude": -4.7737297
  },
  {
    "osmId": 3922142360,
    "name": "Campos de Toro",
    "website": "https://www.bodegasmezquita.com/",
    "latitude": 37.8785679,
    "longitude": -4.7783057
  },
  {
    "osmId": 3927574473,
    "name": "Maneki Neko",
    "website": "https://manekinekosushi.com",
    "latitude": 37.8895315,
    "longitude": -4.7805444
  },
  {
    "osmId": 3996092739,
    "latitude": 37.1358195,
    "longitude": -4.7298208
  },
  {
    "osmId": 4004537189,
    "name": "Hostal Restaurante La Bartola",
    "latitude": 37.7326992,
    "longitude": -4.6369195
  },
  {
    "osmId": 4040415683,
    "name": "Restaurante Chino Olimpica",
    "latitude": 37.0181026,
    "longitude": -4.5615522
  },
  {
    "osmId": 4060361613,
    "name": "Taberna El Rincón de Lola",
    "latitude": 37.0165204,
    "longitude": -4.5584212
  },
  {
    "osmId": 4107843633,
    "name": "La Esencia",
    "latitude": 37.8875128,
    "longitude": -4.7649621
  },
  {
    "osmId": 4107994337,
    "name": "Bodegas Campos",
    "website": "https://www.bodegascampos.com/",
    "latitude": 37.8817179,
    "longitude": -4.7732304
  },
  {
    "osmId": 4108195394,
    "name": "La Mafia",
    "website": "https://lamafia.es/cordoba/",
    "latitude": 37.8926554,
    "longitude": -4.7830888
  },
  {
    "osmId": 4109637594,
    "name": "Taberna de las Beatillas",
    "website": "https://tabernabeatillas.com/",
    "latitude": 37.8887425,
    "longitude": -4.7724169
  },
  {
    "osmId": 4109806890,
    "name": "Taberna Sociedad de Plateros San Francisco",
    "latitude": 37.8812521,
    "longitude": -4.7756431
  },
  {
    "osmId": 4163264173,
    "latitude": 37.0824175,
    "longitude": -4.4542687
  },
  {
    "osmId": 4174664207,
    "name": "Taberna La Cazuela de la Esparteria",
    "website": "https://lacazueladelaesparteria.es/",
    "latitude": 37.8840596,
    "longitude": -4.775356
  },
  {
    "osmId": 4189603489,
    "name": "Gran Bar",
    "latitude": 37.8842299,
    "longitude": -4.7797641
  },
  {
    "osmId": 4189603589,
    "name": "Taberna Séneca",
    "latitude": 37.8823177,
    "longitude": -4.7772047
  },
  {
    "osmId": 4190570643,
    "name": "Mamabú",
    "latitude": 37.5831979,
    "longitude": -4.7501081
  },
  {
    "osmId": 4209149685,
    "name": "El Paseo",
    "latitude": 37.8799752,
    "longitude": -4.775349
  },
  {
    "osmId": 4264278689,
    "name": "San Javier",
    "latitude": 37.678663,
    "longitude": -4.9280216
  },
  {
    "osmId": 4264514395,
    "name": "El Pimentón",
    "latitude": 37.8794696,
    "longitude": -4.7759039
  },
  {
    "osmId": 4265652490,
    "name": "Fusion by Sojo",
    "website": "https://www.sojofusion.com/",
    "latitude": 37.8803349,
    "longitude": -4.7744129
  },
  {
    "osmId": 4265652491,
    "name": "Club Confusion by Sojo",
    "latitude": 37.8802998,
    "longitude": -4.7744543
  },
  {
    "osmId": 4266206698,
    "name": "El Campero",
    "latitude": 37.8102277,
    "longitude": -5.025073
  },
  {
    "osmId": 4269472191,
    "name": "El Paseo Pizzeria Restaurant",
    "latitude": 37.6940854,
    "longitude": -5.2828675
  },
  {
    "osmId": 4336289693,
    "name": "Catering Eventos Sur",
    "website": "http://cateringeventosur.es",
    "latitude": 37.6161075,
    "longitude": -4.3232912
  },
  {
    "osmId": 4336292090,
    "name": "Pizzeria Atusa III",
    "latitude": 37.6161689,
    "longitude": -4.3213186
  },
  {
    "osmId": 4336372489,
    "name": "Hostal Restaurante Rincon",
    "website": "http://hostalrestauranterincon.es",
    "latitude": 37.616189,
    "longitude": -4.3234383
  },
  {
    "osmId": 4348448923,
    "name": "El Rincón Andaluz",
    "latitude": 37.881093,
    "longitude": -4.780278
  },
  {
    "osmId": 4357496090,
    "name": "Bar Vergara",
    "latitude": 37.3899609,
    "longitude": -4.7627531
  },
  {
    "osmId": 4367483291,
    "name": "REST EL ALGARROBO",
    "latitude": 37.3031086,
    "longitude": -4.876758
  },
  {
    "osmId": 4383602090,
    "name": "Patio Romano",
    "website": "https://www.patioromano.com",
    "latitude": 37.8797142,
    "longitude": -4.7811039
  },
  {
    "osmId": 4383603189,
    "name": "Taberna La Viuda",
    "website": "https://gruporosalescordoba.com/taberna-la-viuda/",
    "latitude": 37.8754894,
    "longitude": -4.7852337
  },
  {
    "osmId": 4389879489,
    "name": "Al-Zagal",
    "latitude": 37.8924743,
    "longitude": -4.7835708
  },
  {
    "osmId": 4391621689,
    "name": "La Cueva",
    "latitude": 37.8788466,
    "longitude": -4.7817735
  },
  {
    "osmId": 4406934791,
    "name": "El Marqués",
    "latitude": 37.2627435,
    "longitude": -4.9583559
  },
  {
    "osmId": 4438998990,
    "name": "El Álamo",
    "latitude": 37.7979055,
    "longitude": -4.8095924
  },
  {
    "osmId": 4447932790,
    "name": "Bodega Guzman",
    "latitude": 37.8804554,
    "longitude": -4.7836796
  },
  {
    "osmId": 4513953823,
    "name": "Puerta del Sol",
    "latitude": 37.2672434,
    "longitude": -4.5386187
  },
  {
    "osmId": 4513989442,
    "name": "Mesón Puerta del Convento",
    "website": "https://mesonpuertadelconvento.com",
    "latitude": 37.2662039,
    "longitude": -4.5420247
  },
  {
    "osmId": 4515611053,
    "name": "Bar Moriles",
    "latitude": 37.882764,
    "longitude": -4.7883506
  },
  {
    "osmId": 4515611054,
    "name": "Moriles Pata Negra",
    "website": "http://www.morilespatanegra.com/",
    "latitude": 37.882726,
    "longitude": -4.7884904
  },
  {
    "osmId": 4515611055,
    "name": "Mamma Leone",
    "latitude": 37.8822085,
    "longitude": -4.7901719
  },
  {
    "osmId": 4573982333,
    "name": "La Torre de San Carlos",
    "latitude": 37.8982106,
    "longitude": -4.7411549
  },
  {
    "osmId": 4579719792,
    "name": "La Trasera",
    "latitude": 37.8904279,
    "longitude": -4.764582
  },
  {
    "osmId": 4616876528,
    "name": "Restaurante Casa Talino",
    "latitude": 37.2905935,
    "longitude": -4.762735
  },
  {
    "osmId": 4616903347,
    "name": "Restaurante Los Arcos",
    "latitude": 37.2952775,
    "longitude": -4.7751395
  },
  {
    "osmId": 4616903348,
    "name": "Bar Restaurante La Encina",
    "latitude": 37.28816,
    "longitude": -4.7810234
  },
  {
    "osmId": 4726897384,
    "name": "Kurtuba Gastro-bar",
    "latitude": 37.8852463,
    "longitude": -4.7758717
  },
  {
    "osmId": 4739695155,
    "name": "La Gloria",
    "latitude": 37.8844739,
    "longitude": -4.7780198
  },
  {
    "osmId": 4741267504,
    "name": "Taberna El Capricho",
    "latitude": 37.8804658,
    "longitude": -4.7799438
  },
  {
    "osmId": 4795760621,
    "name": "La Cantina",
    "latitude": 37.0210459,
    "longitude": -4.5640564
  },
  {
    "osmId": 4814284221,
    "name": "Gran Muralla",
    "latitude": 37.8870828,
    "longitude": -4.7833228
  },
  {
    "osmId": 4842537203,
    "latitude": 37.9820332,
    "longitude": -4.8000656
  },
  {
    "osmId": 4848129416,
    "name": "Restaurante El Canal",
    "latitude": 37.051551,
    "longitude": -4.657896
  },
  {
    "osmId": 4861279183,
    "name": "Bodega San Basilio",
    "latitude": 37.8759958,
    "longitude": -4.7839041
  },
  {
    "osmId": 4902924021,
    "name": "El Mirador",
    "latitude": 37.8729778,
    "longitude": -4.7789024
  },
  {
    "osmId": 4943775931,
    "name": "La esquinta de la juderia",
    "latitude": 37.8803221,
    "longitude": -4.7802586
  },
  {
    "osmId": 4989919912,
    "latitude": 37.7742647,
    "longitude": -5.2396867
  },
  {
    "osmId": 5020800927,
    "name": "Contracorriente",
    "latitude": 37.1226027,
    "longitude": -4.658511
  },
  {
    "osmId": 5038911623,
    "name": "China Town",
    "latitude": 37.8843028,
    "longitude": -4.7845375
  },
  {
    "osmId": 5049768323,
    "name": "Asador El nido",
    "latitude": 37.8752574,
    "longitude": -4.7750736
  },
  {
    "osmId": 5052112052,
    "name": "El Primero de la Mañana",
    "latitude": 37.6163937,
    "longitude": -4.3232088
  },
  {
    "osmId": 5076652948,
    "name": "Amaltea",
    "latitude": 37.8787122,
    "longitude": -4.777275
  },
  {
    "osmId": 5076653342,
    "name": "La Fragua",
    "latitude": 37.8782884,
    "longitude": -4.7816637
  },
  {
    "osmId": 5081709221,
    "name": "Restaurante El Choto",
    "website": "https://restauranteelchotocordoba.es",
    "latitude": 37.8805072,
    "longitude": -4.7827051
  },
  {
    "osmId": 5083399153,
    "name": "Los Palancos",
    "latitude": 37.6171127,
    "longitude": -4.3191794
  },
  {
    "osmId": 5150192222,
    "name": "La Regadera",
    "website": "https://regadera.es/",
    "latitude": 37.8786045,
    "longitude": -4.7774464
  },
  {
    "osmId": 5150262421,
    "name": "La Boca",
    "latitude": 37.8823394,
    "longitude": -4.776474
  },
  {
    "osmId": 5153120222,
    "name": "El Potrillo Español",
    "latitude": 37.8803656,
    "longitude": -4.7751972
  },
  {
    "osmId": 5171820122,
    "name": "Taberna La Luna",
    "website": "https://grupolacarboneria.net/taberna-la-luna-de-la-carboneria/",
    "latitude": 37.8783687,
    "longitude": -4.7828161
  },
  {
    "osmId": 5283083821,
    "name": "Taberna La Cuarta",
    "latitude": 37.8849251,
    "longitude": -4.7759959
  },
  {
    "osmId": 5283110021,
    "name": "Bodegas Mezquita",
    "latitude": 37.8799524,
    "longitude": -4.7755551
  },
  {
    "osmId": 5283249122,
    "name": "ReComiendo",
    "latitude": 37.9083408,
    "longitude": -4.7762494
  },
  {
    "osmId": 5291316215,
    "name": "Casa Lucía",
    "latitude": 37.0158883,
    "longitude": -4.5582828
  },
  {
    "osmId": 5291316524,
    "name": "El Angelote",
    "latitude": 37.0167667,
    "longitude": -4.5578225
  },
  {
    "osmId": 5320566137,
    "name": "Bodegas Mezquita",
    "website": "https://www.bodegasmezquita.com/",
    "latitude": 37.8786452,
    "longitude": -4.7773911
  },
  {
    "osmId": 5321996742,
    "name": "Taberna Casa El Viejo",
    "latitude": 37.8761407,
    "longitude": -4.7840861
  },
  {
    "osmId": 5326075551,
    "name": "Restaurante El Rincón de Carmen",
    "latitude": 37.8799203,
    "longitude": -4.7814071
  },
  {
    "osmId": 5366681739,
    "name": "Bar Casablanca",
    "latitude": 37.0947989,
    "longitude": -4.3876598
  },
  {
    "osmId": 5446065304,
    "name": "Asador El Capacho",
    "latitude": 37.5343528,
    "longitude": -5.0796254
  },
  {
    "osmId": 5515186121,
    "name": "Casa Mazal",
    "website": "https://casamazal.es/",
    "latitude": 37.8792416,
    "longitude": -4.7823992
  },
  {
    "osmId": 5520073908,
    "name": "Bar Restaurante Baldomero",
    "latitude": 37.7120163,
    "longitude": -4.8676807
  },
  {
    "osmId": 5520114861,
    "name": "Restaurante Carlos III",
    "website": "http://www.hostalrestaurantecarlosiii.com",
    "latitude": 37.7148735,
    "longitude": -4.8635292
  },
  {
    "osmId": 5536116578,
    "name": "Infante 20",
    "latitude": 37.0174209,
    "longitude": -4.5602639
  },
  {
    "osmId": 5536133811,
    "name": "Leila",
    "latitude": 37.0161884,
    "longitude": -4.5594368
  },
  {
    "osmId": 5536138882,
    "name": "Pañero",
    "latitude": 37.0160643,
    "longitude": -4.5589067
  },
  {
    "osmId": 5568560811,
    "name": "Restaurante Almudaina",
    "website": "https://restaurantealmudaina.com",
    "latitude": 37.8780589,
    "longitude": -4.7819062
  },
  {
    "osmId": 5576700421,
    "name": "Ategua",
    "latitude": 37.733377,
    "longitude": -4.6339707
  },
  {
    "osmId": 5576763228,
    "name": "Villegas",
    "latitude": 37.7332837,
    "longitude": -4.6371869
  },
  {
    "osmId": 5578376725,
    "name": "Restaurante Cope",
    "latitude": 37.8724858,
    "longitude": -4.7765585
  },
  {
    "osmId": 5579988121,
    "name": "La Flamenka",
    "latitude": 37.8788527,
    "longitude": -4.7770155
  },
  {
    "osmId": 5610950221,
    "name": "Casa Pepe Sanchís",
    "website": "https://arroceriacasapepesanchis.es/",
    "latitude": 37.8748547,
    "longitude": -4.7969686
  },
  {
    "osmId": 5610950222,
    "name": "La Camelia",
    "latitude": 37.8906492,
    "longitude": -4.7823222
  },
  {
    "osmId": 5610950321,
    "name": "Cerveceria El Aura",
    "latitude": 37.8726425,
    "longitude": -4.799869
  },
  {
    "osmId": 5713244120,
    "name": "Ricón taurino",
    "website": "http://www.rincontaurino.es",
    "latitude": 37.8823655,
    "longitude": -4.7933769
  },
  {
    "osmId": 5713254576,
    "name": "Canadian",
    "latitude": 37.8843882,
    "longitude": -4.7897265
  },
  {
    "osmId": 5718346014,
    "name": "Cerveceria La Mar de Gambas",
    "latitude": 37.8864063,
    "longitude": -4.8023247
  },
  {
    "osmId": 5718346015,
    "name": "Kavango",
    "latitude": 37.8871594,
    "longitude": -4.8034329
  },
  {
    "osmId": 5718346017,
    "name": "La Gitana Loca",
    "latitude": 37.8861648,
    "longitude": -4.8031576
  },
  {
    "osmId": 5751464475,
    "name": "Motiño Café",
    "latitude": 37.8874006,
    "longitude": -4.7526145
  },
  {
    "osmId": 5792681350,
    "name": "Pomodoro",
    "latitude": 37.8773542,
    "longitude": -4.766418
  },
  {
    "osmId": 5792681351,
    "name": "100 Montaditos",
    "latitude": 37.8774183,
    "longitude": -4.7665764
  },
  {
    "osmId": 5817789084,
    "name": "Peña flamenca",
    "latitude": 37.2680292,
    "longitude": -4.4172173
  },
  {
    "osmId": 5825157938,
    "name": "Los Tres Califas",
    "latitude": 37.8813806,
    "longitude": -4.7759929
  },
  {
    "osmId": 5881498385,
    "name": "Cafe Bar Lucas",
    "latitude": 37.8822236,
    "longitude": -4.7818634
  },
  {
    "osmId": 5885402451,
    "name": "Restaurante Yerbagüena",
    "latitude": 37.0362541,
    "longitude": -4.8652811
  },
  {
    "osmId": 5885402452,
    "name": "La Bodega",
    "latitude": 37.045709,
    "longitude": -4.8648121
  },
  {
    "osmId": 5895139763,
    "name": "Taberna La Montillana",
    "website": "https://tabernalamontillana.com",
    "latitude": 37.8857353,
    "longitude": -4.7798139
  },
  {
    "osmId": 5935456585,
    "name": "Brasas Bar Karibu",
    "website": "https://www.brasasbarkaribu.com",
    "latitude": 37.8846873,
    "longitude": -4.7775387
  },
  {
    "osmId": 5935456687,
    "name": "Taberna Góngora",
    "latitude": 37.8863576,
    "longitude": -4.7787781
  },
  {
    "osmId": 5938225269,
    "name": "El Romeral",
    "latitude": 37.0330888,
    "longitude": -4.5290951
  },
  {
    "osmId": 6047168888,
    "name": "Noor",
    "latitude": 37.8897912,
    "longitude": -4.7584891
  },
  {
    "osmId": 6068891285,
    "name": "La Fabbrica",
    "website": "http://restaurantelafabbrica.es",
    "latitude": 37.8830181,
    "longitude": -4.7898582
  },
  {
    "osmId": 6184125287,
    "name": "Lagar de Orive",
    "latitude": 37.8860526,
    "longitude": -4.7742336
  },
  {
    "osmId": 6184126786,
    "name": "Taberna El Abanico",
    "latitude": 37.8807636,
    "longitude": -4.7800225
  },
  {
    "osmId": 6257690492,
    "name": "Mesón Plaza Mollina",
    "latitude": 37.1256306,
    "longitude": -4.6580395
  },
  {
    "osmId": 6266063785,
    "name": "Saratoga - tapas & copas",
    "latitude": 37.6176353,
    "longitude": -4.3186199
  },
  {
    "osmId": 6274287198,
    "name": "El Astronauta",
    "website": "http://elastronauta.es",
    "latitude": 37.8841379,
    "longitude": -4.7763344
  },
  {
    "osmId": 6279252336,
    "name": "Al Grano",
    "website": "https://al-grano-arroces-y-mas.negocio.site/",
    "latitude": 37.8828125,
    "longitude": -4.7724099
  },
  {
    "osmId": 6282450316,
    "name": "La Esquinita de la Judería",
    "latitude": 37.8808672,
    "longitude": -4.7802224
  },
  {
    "osmId": 6282450317,
    "name": "Taberna El Abanico",
    "latitude": 37.8803042,
    "longitude": -4.7797281
  },
  {
    "osmId": 6282450319,
    "name": "Casa Cayetano",
    "latitude": 37.8803916,
    "longitude": -4.7797882
  },
  {
    "osmId": 6282450320,
    "name": "Taberna El Patio Andaluz",
    "latitude": 37.8805747,
    "longitude": -4.7799872
  },
  {
    "osmId": 6312422622,
    "name": "Taberna Corredera",
    "latitude": 37.8833321,
    "longitude": -4.77496
  },
  {
    "osmId": 6318101487,
    "name": "Taberna Échate pá llá",
    "latitude": 37.8857235,
    "longitude": -4.7795085
  },
  {
    "osmId": 6390231920,
    "name": "El Patrón",
    "latitude": 37.887483,
    "longitude": -4.7737147
  },
  {
    "osmId": 6406003255,
    "name": "Infante 20 Tapas",
    "latitude": 37.0172435,
    "longitude": -4.559792
  },
  {
    "osmId": 6406530352,
    "name": "Doña Pepa",
    "latitude": 37.019004,
    "longitude": -4.5583021
  },
  {
    "osmId": 6406530353,
    "name": "Asian Wok",
    "latitude": 37.0189242,
    "longitude": -4.5582658
  },
  {
    "osmId": 6406530542,
    "name": "Mesón Casa Carlos",
    "latitude": 37.0190325,
    "longitude": -4.5583171
  },
  {
    "osmId": 6406530785,
    "name": "Mercado",
    "latitude": 37.0193375,
    "longitude": -4.5581589
  },
  {
    "osmId": 6433622069,
    "name": "Hostal Restaurante Al-Andalus",
    "latitude": 37.6455306,
    "longitude": -4.8697227
  },
  {
    "osmId": 6433633951,
    "name": "Restaurante Casa Ani",
    "latitude": 37.6374586,
    "longitude": -4.8659398
  },
  {
    "osmId": 6440679785,
    "name": "Taberna La Alquería",
    "latitude": 37.8806638,
    "longitude": -4.7744182
  },
  {
    "osmId": 6446685985,
    "name": "Caracoles Los Patos I",
    "latitude": 37.8867058,
    "longitude": -4.7847499
  },
  {
    "osmId": 6491927086,
    "name": "Ágora",
    "latitude": 37.5386204,
    "longitude": -5.0736941
  },
  {
    "osmId": 6507085387,
    "name": "Pension La Palomas",
    "latitude": 37.3882568,
    "longitude": -4.5036542
  },
  {
    "osmId": 6544859186,
    "name": "Bienmesabe",
    "latitude": 37.0150176,
    "longitude": -4.5563172
  },
  {
    "osmId": 6565672731,
    "name": "El Castillo de Hidalgo",
    "latitude": 37.8678133,
    "longitude": -4.8090559
  },
  {
    "osmId": 6611785786,
    "name": "Adelfa",
    "latitude": 37.0283436,
    "longitude": -4.5352281
  },
  {
    "osmId": 6620767888,
    "name": "Junquillo Café",
    "latitude": 37.4732597,
    "longitude": -4.4472177
  },
  {
    "osmId": 6624647365,
    "name": "Salón Carmen",
    "latitude": 37.4762028,
    "longitude": -4.4354834
  },
  {
    "osmId": 6629915187,
    "name": "Triana",
    "latitude": 37.0169724,
    "longitude": -4.5610099
  },
  {
    "osmId": 6712176799,
    "name": "Restaurante Me Quedo Contigo",
    "latitude": 37.8317342,
    "longitude": -4.9285027
  },
  {
    "osmId": 6712176800,
    "name": "Restaurante La Querencia",
    "latitude": 37.8317787,
    "longitude": -4.9282264
  },
  {
    "osmId": 6788487085,
    "name": "Panzamorena",
    "latitude": 37.8844671,
    "longitude": -4.775558
  },
  {
    "osmId": 6828946595,
    "name": "Pizzería las Palomas",
    "latitude": 37.55517,
    "longitude": -4.3602953
  },
  {
    "osmId": 6869170988,
    "name": "Vaquena Burger",
    "latitude": 37.8813267,
    "longitude": -4.7877647
  },
  {
    "osmId": 6872683188,
    "name": "Ginos",
    "latitude": 37.8826385,
    "longitude": -4.7796676
  },
  {
    "osmId": 6898544205,
    "name": "La Fuente",
    "latitude": 37.8821133,
    "longitude": -4.77544
  },
  {
    "osmId": 6968771260,
    "name": "El Rincón de la Monicha",
    "latitude": 37.8958434,
    "longitude": -4.7746267
  },
  {
    "osmId": 7006190113,
    "name": "Bar Restaurante La Abuela",
    "latitude": 37.4687556,
    "longitude": -4.4273801
  },
  {
    "osmId": 7080034785,
    "name": "Pizzaiolo",
    "latitude": 37.8841772,
    "longitude": -4.7819667
  },
  {
    "osmId": 7130487782,
    "name": "Mesón El Ventero del Trabuco",
    "latitude": 37.0264564,
    "longitude": -4.3372706
  },
  {
    "osmId": 7141336780,
    "name": "Pizzería Buenos Aires",
    "latitude": 37.4750157,
    "longitude": -4.4376183
  },
  {
    "osmId": 7141336805,
    "name": "Asador King Food",
    "latitude": 37.4743052,
    "longitude": -4.4300907
  },
  {
    "osmId": 7145081380,
    "latitude": 37.027703,
    "longitude": -4.3370701
  },
  {
    "osmId": 7145097292,
    "name": "Mesón Ibérico Paco Tacones",
    "latitude": 37.029256,
    "longitude": -4.3358444
  },
  {
    "osmId": 7145097296,
    "name": "Los Cabales",
    "latitude": 37.0289113,
    "longitude": -4.3362487
  },
  {
    "osmId": 7145097310,
    "name": "Bar El Duque",
    "latitude": 37.026217,
    "longitude": -4.3404973
  },
  {
    "osmId": 7145097311,
    "name": "Venus",
    "latitude": 37.0263111,
    "longitude": -4.3407615
  },
  {
    "osmId": 7190614485,
    "name": "Vaquena",
    "latitude": 37.4841904,
    "longitude": -4.3815672
  },
  {
    "osmId": 7235003655,
    "latitude": 37.6740763,
    "longitude": -4.5572734
  },
  {
    "osmId": 7331460426,
    "name": "El Hacho",
    "latitude": 37.2767405,
    "longitude": -4.8384987
  },
  {
    "osmId": 7343232667,
    "name": "El Hacho II",
    "latitude": 37.2753274,
    "longitude": -4.8006682
  },
  {
    "osmId": 7531960225,
    "name": "Pizzeria Trattoria Passarella",
    "website": "https://www.trattoriapassarelacordoba.com/",
    "latitude": 37.9091443,
    "longitude": -4.7765876
  },
  {
    "osmId": 7578027555,
    "name": "Il Piccantino",
    "website": "https://ilpiccantino.es/",
    "latitude": 37.8749437,
    "longitude": -4.7978631
  },
  {
    "osmId": 7589839703,
    "name": "Blanco y Verde",
    "latitude": 37.8840035,
    "longitude": -4.7965831
  },
  {
    "osmId": 7622627238,
    "name": "Ándale",
    "latitude": 37.8811347,
    "longitude": -4.7920096
  },
  {
    "osmId": 7631761409,
    "name": "Maneki Neko",
    "website": "https://manekinekosushi.com/",
    "latitude": 37.8780324,
    "longitude": -4.7974365
  },
  {
    "osmId": 7698810582,
    "name": "Goiko Grill",
    "website": "https://www.goiko.com/restaurante/gran-capitan-26/",
    "latitude": 37.8883599,
    "longitude": -4.7824332
  },
  {
    "osmId": 7699216369,
    "name": "El Azafrán",
    "latitude": 37.8772361,
    "longitude": -4.795454
  },
  {
    "osmId": 7711513895,
    "name": "Pizzería los Argentinos",
    "website": "https://pizzeria-los-argentinos.eatbu.com/?lang=es",
    "latitude": 37.4761133,
    "longitude": -4.4254757
  },
  {
    "osmId": 7803731388,
    "name": "Restobar Las Flores",
    "website": "http://lasfloresrestobar.es/",
    "latitude": 37.8853423,
    "longitude": -4.8060014
  },
  {
    "osmId": 7813757293,
    "name": "El jardin del delirio",
    "website": "https://eljardindeldelirio.com/",
    "latitude": 37.8724918,
    "longitude": -4.7771294
  },
  {
    "osmId": 7820913880,
    "name": "Ventorrillo los Pelaos",
    "latitude": 37.4625639,
    "longitude": -4.3809413
  },
  {
    "osmId": 7820925257,
    "name": "Villa de Zambra",
    "latitude": 37.391255,
    "longitude": -4.3859276
  },
  {
    "osmId": 7843142886,
    "name": "Taj Mahal",
    "website": "http://tajmahal.xp3.biz/",
    "latitude": 37.8766757,
    "longitude": -4.7893582
  },
  {
    "osmId": 7843142887,
    "name": "Vicente",
    "latitude": 37.8766768,
    "longitude": -4.7894909
  },
  {
    "osmId": 7849587387,
    "name": "Wok Sakura",
    "latitude": 37.8695108,
    "longitude": -4.7798185
  },
  {
    "osmId": 7872103485,
    "name": "El Tecolote",
    "latitude": 37.8712543,
    "longitude": -4.7918374
  },
  {
    "osmId": 7878855386,
    "name": "Las Delicias",
    "latitude": 37.8837071,
    "longitude": -4.8039757
  },
  {
    "osmId": 7915957247,
    "name": "La Cueva de 1900",
    "website": "https://lacuevade1900.es/gran-capitan-22/",
    "latitude": 37.8881561,
    "longitude": -4.7823944
  },
  {
    "osmId": 7933796598,
    "name": "Foster's Hollywood",
    "website": "https://fostershollywood.es/restaurantes/cordoba/cordoba/fh-el-tablero",
    "latitude": 37.8999853,
    "longitude": -4.7966895
  },
  {
    "osmId": 8014253343,
    "name": "Restaurante El Coto",
    "latitude": 37.0075385,
    "longitude": -5.0203629
  },
  {
    "osmId": 8014253349,
    "name": "Restaurante El Cuarterón",
    "latitude": 37.0036271,
    "longitude": -5.0259823
  },
  {
    "osmId": 8051058221,
    "name": "Avenida",
    "latitude": 37.4100871,
    "longitude": -4.4925448
  },
  {
    "osmId": 8240045113,
    "name": "El Envero",
    "website": "https://elenvero.com/",
    "latitude": 37.8984659,
    "longitude": -4.7885567
  },
  {
    "osmId": 8240045114,
    "name": "Mesón Los Lagares",
    "latitude": 37.8767725,
    "longitude": -4.7871908
  },
  {
    "osmId": 8240045116,
    "name": "O Mamma Mia",
    "website": "https://www.omammamia.com/",
    "latitude": 37.8889978,
    "longitude": -4.7819931
  },
  {
    "osmId": 8405805965,
    "name": "Taberna Los Claveles",
    "latitude": 37.3273449,
    "longitude": -4.3643737
  },
  {
    "osmId": 8553997747,
    "name": "La Carihuela",
    "latitude": 37.8781467,
    "longitude": -4.7975115
  },
  {
    "osmId": 8623669668,
    "name": "Restaurante Miranda",
    "latitude": 37.7179056,
    "longitude": -4.8601741
  },
  {
    "osmId": 8623669669,
    "name": "Restaurante Maestre",
    "latitude": 37.7130423,
    "longitude": -4.8658968
  },
  {
    "osmId": 8632512564,
    "name": "Casa Rural El Melojo - Gastroteca Imela",
    "website": "https://casaruralelmelojo.com",
    "latitude": 37.8307747,
    "longitude": -5.2427655
  },
  {
    "osmId": 8705005658,
    "name": "E-Bento",
    "website": "tps://e-bento.es",
    "latitude": 37.8810994,
    "longitude": -4.796674
  },
  {
    "osmId": 8792517218,
    "name": "CuatroManos",
    "latitude": 37.8838316,
    "longitude": -4.7820091
  },
  {
    "osmId": 8792543217,
    "name": "La Sastrería",
    "website": "https://lasastreriarestaurante.com/",
    "latitude": 37.8886813,
    "longitude": -4.776574
  },
  {
    "osmId": 8814903558,
    "name": "El Extremeño",
    "latitude": 37.8808324,
    "longitude": -4.7804954
  },
  {
    "osmId": 8906989962,
    "name": "Mesón Casa del Monte",
    "latitude": 37.6142627,
    "longitude": -4.3258552
  },
  {
    "osmId": 8941291461,
    "name": "La Gamba de Oro",
    "website": "http://www.lagambadeoro.es/",
    "latitude": 37.8825347,
    "longitude": -4.8001786
  },
  {
    "osmId": 8974143920,
    "name": "Taberna La Carbonería",
    "website": "https://grupolacarboneria.net/taberna-la-carboneria/",
    "latitude": 37.8953886,
    "longitude": -4.7734453
  },
  {
    "osmId": 8980697506,
    "name": "La Oveja Negra",
    "latitude": 37.886622,
    "longitude": -4.8051925
  },
  {
    "osmId": 8982783327,
    "name": "Malaparte",
    "website": "https://malaparte.negocio.site",
    "latitude": 37.8894942,
    "longitude": -4.7812885
  },
  {
    "osmId": 8999482879,
    "name": "Café - Bar Titanic",
    "website": "https://cafe-bar-titanic.negocio.site/",
    "latitude": 37.0271537,
    "longitude": -4.3344885
  },
  {
    "osmId": 9001874739,
    "name": "Pizzería La Piazza",
    "latitude": 37.0284304,
    "longitude": -4.3381747
  },
  {
    "osmId": 9040525978,
    "name": "Asador de Nati",
    "latitude": 37.884257,
    "longitude": -4.7641658
  },
  {
    "osmId": 9080176317,
    "name": "La Despensa de la Corredera",
    "website": "https://ladespensadelacorredera.com/",
    "latitude": 37.8838393,
    "longitude": -4.7750263
  },
  {
    "osmId": 9081943819,
    "name": "Taberna los Berengueles",
    "latitude": 37.8864666,
    "longitude": -4.778852
  },
  {
    "osmId": 9131915269,
    "name": "La Contentura",
    "website": "https://lacontentura.com/",
    "latitude": 37.8855643,
    "longitude": -4.7758848
  },
  {
    "osmId": 9282688587,
    "name": "La Fuente",
    "latitude": 37.8819682,
    "longitude": -4.7759242
  },
  {
    "osmId": 9282688590,
    "name": "The Club",
    "latitude": 37.8732795,
    "longitude": -4.7785069
  },
  {
    "osmId": 9365914617,
    "name": "Alma de Triana",
    "latitude": 37.0211955,
    "longitude": -4.5642717
  },
  {
    "osmId": 9376155297,
    "name": "Mesón Adarve",
    "latitude": 37.0209389,
    "longitude": -4.5611601
  },
  {
    "osmId": 9381379717,
    "name": "El Pikoteo Tapas",
    "latitude": 37.0207196,
    "longitude": -4.564133
  },
  {
    "osmId": 9407963979,
    "name": "Cosso",
    "website": "https://grupolacarboneria.net/taberna-el-cosso-de-la-carboneria/",
    "latitude": 37.8822427,
    "longitude": -4.7943411
  },
  {
    "osmId": 9436515118,
    "name": "Lío",
    "latitude": 37.8964125,
    "longitude": -4.7966907
  },
  {
    "osmId": 9436515121,
    "name": "Verde y Albero",
    "website": "http://www.verdeyalbero.es/",
    "latitude": 37.8963934,
    "longitude": -4.796817
  },
  {
    "osmId": 9436515123,
    "name": "Los Chopos",
    "latitude": 37.8962177,
    "longitude": -4.7977323
  },
  {
    "osmId": 9441110660,
    "name": "Rojojamón",
    "latitude": 37.8849094,
    "longitude": -4.7801973
  },
  {
    "osmId": 9441110661,
    "name": "Pepe En Tu Casa",
    "website": "https://pepeentucasa.es/",
    "latitude": 37.8776032,
    "longitude": -4.7973939
  },
  {
    "osmId": 9450062463,
    "name": "Más Solera",
    "website": "https://www.massolera.com/",
    "latitude": 37.8965144,
    "longitude": -4.7963075
  },
  {
    "osmId": 9452418785,
    "name": "Costasol Gastrobar",
    "website": "https://costasolgastrobar.es/",
    "latitude": 37.8819941,
    "longitude": -4.7907489
  },
  {
    "osmId": 9452418786,
    "name": "Caravelle",
    "latitude": 37.8762391,
    "longitude": -4.7963315
  },
  {
    "osmId": 9477044102,
    "name": "Moriles Ribera",
    "website": "https://www.morilesribera.com/",
    "latitude": 37.8804553,
    "longitude": -4.774127
  },
  {
    "osmId": 9513435339,
    "name": "Foster's Hollywood",
    "website": "https://fostershollywood.es/restaurantes/cordoba/cordoba/fh-rafael-de-la-hoz",
    "latitude": 37.8920649,
    "longitude": -4.7841997
  },
  {
    "osmId": 9513435340,
    "name": "Tokyo",
    "website": "https://www.tokyocordoba.com/",
    "latitude": 37.8923585,
    "longitude": -4.7843991
  },
  {
    "osmId": 9543844941,
    "name": "El Globo",
    "website": "https://www.globorestaurante.es/",
    "latitude": 37.8943284,
    "longitude": -4.782046
  },
  {
    "osmId": 9549581013,
    "name": "Mesón La Espuela",
    "latitude": 37.3195117,
    "longitude": -4.3680134
  },
  {
    "osmId": 9560909270,
    "name": "Mesón Abuela María",
    "website": "https://www.mesonabuelamaria.com/",
    "latitude": 37.2564556,
    "longitude": -4.3071988
  },
  {
    "osmId": 9570638860,
    "name": "El Vado",
    "website": "https://www.restauranteelvado.es/",
    "latitude": 37.3589131,
    "longitude": -4.3792359
  },
  {
    "osmId": 9654659317,
    "name": "Restaurante Arxiduna",
    "website": "https://www.restaurantearxiduna.com/",
    "latitude": 37.0947045,
    "longitude": -4.390451
  },
  {
    "osmId": 9683132743,
    "name": "Sibarita Fussion",
    "latitude": 37.8918172,
    "longitude": -4.7840043
  },
  {
    "osmId": 9734695625,
    "name": "Comic Planet",
    "website": "http://comicplanetcordoba.es/",
    "latitude": 37.8853587,
    "longitude": -4.7908198
  },
  {
    "osmId": 9737474206,
    "name": "Los Pinares",
    "latitude": 37.9976755,
    "longitude": -4.7697508
  },
  {
    "osmId": 9749805453,
    "name": "Mar D'Gloria",
    "website": "https://mardegloria.es/",
    "latitude": 37.0190371,
    "longitude": -4.5623181
  },
  {
    "osmId": 9749805454,
    "name": "Bar Carrera",
    "latitude": 37.0192571,
    "longitude": -4.5553537
  },
  {
    "osmId": 9823476645,
    "name": "Santa Ana",
    "website": "https://santaanahotel.es/",
    "latitude": 37.6022319,
    "longitude": -4.9702209
  },
  {
    "osmId": 9870845390,
    "name": "La Alsacia",
    "latitude": 37.8539597,
    "longitude": -4.7955214
  },
  {
    "osmId": 9893154318,
    "name": "Taberna Flamenca Doble de Cepa",
    "website": "https://dobledecepa.es/",
    "latitude": 37.8797602,
    "longitude": -4.7786019
  },
  {
    "osmId": 10024806352,
    "name": "Las Cumbres",
    "latitude": 37.9275052,
    "longitude": -4.5816695
  },
  {
    "osmId": 10029293000,
    "name": "La Reserva de Turín",
    "latitude": 37.8788604,
    "longitude": -4.7841991
  },
  {
    "osmId": 10135107585,
    "name": "Taberna Moriles 3",
    "latitude": 37.87898,
    "longitude": -4.7980325
  },
  {
    "osmId": 10171579220,
    "name": "100 Montaditos",
    "website": "https://spain.100montaditos.com",
    "latitude": 37.8858232,
    "longitude": -4.7797793
  },
  {
    "osmId": 10259664664,
    "latitude": 37.1154259,
    "longitude": -4.6999818
  },
  {
    "osmId": 10269350029,
    "name": "La Bodeguita",
    "latitude": 37.3938251,
    "longitude": -4.766286
  },
  {
    "osmId": 10280232710,
    "name": "Casa Luis",
    "latitude": 37.8881294,
    "longitude": -4.7694044
  },
  {
    "osmId": 10599944812,
    "name": "Texamexa",
    "latitude": 37.8847056,
    "longitude": -4.7844991
  },
  {
    "osmId": 10692946609,
    "name": "Taberna Santi",
    "latitude": 37.8863365,
    "longitude": -4.772111
  },
  {
    "osmId": 10693058906,
    "name": "Taberna el Gallo",
    "latitude": 37.8847547,
    "longitude": -4.7768156
  },
  {
    "osmId": 10693120206,
    "name": "Chef Buffet",
    "latitude": 37.8793793,
    "longitude": -4.7788013
  },
  {
    "osmId": 10693349705,
    "name": "Pasillo Oriental",
    "latitude": 37.8805125,
    "longitude": -4.7799588
  },
  {
    "osmId": 10693386008,
    "name": "Montevideo",
    "latitude": 37.8787191,
    "longitude": -4.7821719
  },
  {
    "osmId": 10693481307,
    "name": "La Tía Juana",
    "website": "https://latiajuanamx.com/",
    "latitude": 37.8838066,
    "longitude": -4.7799619
  },
  {
    "osmId": 10694827505,
    "name": "Los Palancos",
    "latitude": 37.5436367,
    "longitude": -4.3162235
  },
  {
    "osmId": 10706971205,
    "name": "La Barbería",
    "latitude": 37.8866585,
    "longitude": -4.771961
  },
  {
    "osmId": 10732834216,
    "latitude": 37.5299701,
    "longitude": -5.0976858
  },
  {
    "osmId": 10737280635,
    "name": "Damajuana",
    "latitude": 37.8805327,
    "longitude": -4.7678058
  },
  {
    "osmId": 10758375205,
    "name": "Restaurante Casa Martín",
    "latitude": 37.8786675,
    "longitude": -4.7591917
  },
  {
    "osmId": 10905108867,
    "name": "Casa Lin",
    "latitude": 37.8922792,
    "longitude": -4.7989378
  },
  {
    "osmId": 10929224354,
    "name": "La Bodeguilla de Cañero",
    "latitude": 37.8888269,
    "longitude": -4.7542268
  },
  {
    "osmId": 11013791453,
    "name": "100 Montaditos",
    "latitude": 37.8929606,
    "longitude": -4.799237
  },
  {
    "osmId": 11013791454,
    "name": "La Sureña",
    "latitude": 37.8929532,
    "longitude": -4.7992285
  },
  {
    "osmId": 11015773588,
    "name": "Cielito Lindo Café",
    "website": "https://cielitolindocafe.es/",
    "latitude": 37.8867962,
    "longitude": -4.765226
  },
  {
    "osmId": 11026214710,
    "name": "El Rincón del Paseo",
    "latitude": 37.5434918,
    "longitude": -4.3169489
  },
  {
    "osmId": 11054467702,
    "name": "El Corralito",
    "latitude": 37.8833699,
    "longitude": -4.7980714
  },
  {
    "osmId": 11057386805,
    "name": "El Bar de Paco Morales",
    "website": "https://elbardepacomorales.com/",
    "latitude": 37.888861,
    "longitude": -4.7812626
  },
  {
    "osmId": 11066599219,
    "name": "100 Montaditos",
    "website": "https://spain.100montaditos.com",
    "latitude": 37.8816492,
    "longitude": -4.7913558
  },
  {
    "osmId": 11176413122,
    "name": "Al Salimi Kebab",
    "latitude": 37.9000358,
    "longitude": -4.7976398
  },
  {
    "osmId": 11200253659,
    "name": "Taberna del Rio",
    "latitude": 37.8804302,
    "longitude": -4.7742543
  },
  {
    "osmId": 11235599428,
    "name": "Pomodoro",
    "website": "https://pomodoro.es/",
    "latitude": 37.8804034,
    "longitude": -4.7985898
  },
  {
    "osmId": 11235599429,
    "name": "Onakasita",
    "website": "https://onakasita.com/",
    "latitude": 37.8802488,
    "longitude": -4.7983376
  },
  {
    "osmId": 11235814071,
    "name": "Horma",
    "latitude": 37.878973,
    "longitude": -4.7820382
  },
  {
    "osmId": 11298677669,
    "name": "Taberna Restaurante Puerta Sevilla",
    "latitude": 37.8752566,
    "longitude": -4.7857865
  },
  {
    "osmId": 11303031770,
    "name": "Ermita de la Calendaria",
    "latitude": 37.8821908,
    "longitude": -4.7738483
  },
  {
    "osmId": 11310789498,
    "name": "El Casino de Antequera",
    "latitude": 37.0185026,
    "longitude": -4.5619878
  },
  {
    "osmId": 11333633433,
    "name": "Lizarrán",
    "website": "https://www.lizarran.es/",
    "latitude": 37.8784812,
    "longitude": -4.7977159
  },
  {
    "osmId": 11338839069,
    "name": "Lambik",
    "latitude": 37.8850731,
    "longitude": -4.7795949
  },
  {
    "osmId": 11344563464,
    "name": "Peña Cultural Recreativa",
    "latitude": 37.5822502,
    "longitude": -4.7497912
  },
  {
    "osmId": 11358964087,
    "name": "Restaurante Venta El Empalme",
    "website": "https://es.restaurantguru.com/Venta-El-Empalme-Los-Algarbes",
    "latitude": 37.6032988,
    "longitude": -4.9722689
  },
  {
    "osmId": 11365108048,
    "name": "Mesón La Campiña",
    "latitude": 37.5301077,
    "longitude": -5.1244815
  },
  {
    "osmId": 11642460169,
    "name": "Entre Lias",
    "latitude": 37.8887821,
    "longitude": -4.7822411
  },
  {
    "osmId": 11681770069,
    "latitude": 37.019392,
    "longitude": -4.5582529
  },
  {
    "osmId": 11848276440,
    "name": "Sibuya",
    "website": "https://sibuyaurbansushibar.com/restaurante-japones-cordoba",
    "latitude": 37.8900401,
    "longitude": -4.7831162
  },
  {
    "osmId": 11851216071,
    "name": "Rincón del Conde",
    "website": "https://rincondelconde.es",
    "latitude": 37.5894992,
    "longitude": -4.6389809
  },
  {
    "osmId": 11851216072,
    "name": "La Tata",
    "latitude": 37.5875934,
    "longitude": -4.6390241
  },
  {
    "osmId": 11921977674,
    "name": "Casa Manolo",
    "latitude": 37.3694021,
    "longitude": -4.4902812
  },
  {
    "osmId": 11984918282,
    "name": "Restaurante Bembézar",
    "latitude": 37.8260802,
    "longitude": -5.2391561
  },
  {
    "osmId": 12010007369,
    "name": "Casa Qurtubah",
    "latitude": 37.8802657,
    "longitude": -4.7801941
  },
  {
    "osmId": 12052893285,
    "name": "Casa Mario",
    "latitude": 37.8798826,
    "longitude": -4.7971143
  },
  {
    "osmId": 12052893286,
    "name": "Sí, quiero, Go!",
    "latitude": 37.8877008,
    "longitude": -4.7962197
  },
  {
    "osmId": 12081710787,
    "name": "La Mafia",
    "website": "https://lamafia.es/",
    "latitude": 37.0198207,
    "longitude": -4.5611873
  },
  {
    "osmId": 12124279801,
    "name": "La Factoría del Ratón Pérez",
    "website": "https://lafactoriadelratonperez.com/",
    "latitude": 37.8765762,
    "longitude": -4.8007447
  },
  {
    "osmId": 12148525348,
    "name": "Bar Casa Luna",
    "latitude": 37.5898956,
    "longitude": -4.9824491
  },
  {
    "osmId": 12199124088,
    "name": "A mi Manera",
    "latitude": 37.0191142,
    "longitude": -4.5592707
  },
  {
    "osmId": 12219435861,
    "name": "La Lonja",
    "website": "https://www.lalonjacordoba.com",
    "latitude": 37.8971588,
    "longitude": -4.7936816
  },
  {
    "osmId": 12219435875,
    "name": "Godeo",
    "website": "https://www.godeo.es/",
    "latitude": 37.8861486,
    "longitude": -4.8068464
  },
  {
    "osmId": 12230280104,
    "name": "Vértigo",
    "website": "https://vertigorestaurante.com/",
    "latitude": 37.8912921,
    "longitude": -4.7865684
  },
  {
    "osmId": 12238312701,
    "name": "La esencia de Fatima",
    "latitude": 37.8985225,
    "longitude": -4.7609664
  },
  {
    "osmId": 12238312801,
    "name": "El rincón de Vilma",
    "latitude": 37.8977428,
    "longitude": -4.7509169
  },
  {
    "osmId": 12259700357,
    "name": "Café-Bar Gran Parada",
    "latitude": 37.709562,
    "longitude": -4.9488234
  },
  {
    "osmId": 12281067389,
    "name": "La Tranquera",
    "latitude": 37.8792074,
    "longitude": -4.7773531
  },
  {
    "osmId": 12290024851,
    "name": "Casa Pepe de la Judería",
    "latitude": 37.8798604,
    "longitude": -4.7815207
  },
  {
    "osmId": 12570966900,
    "name": "La Romana",
    "latitude": 37.8784332,
    "longitude": -4.7778523
  },
  {
    "osmId": 12570978901,
    "name": "El Patri",
    "latitude": 37.8837715,
    "longitude": -4.774125
  },
  {
    "osmId": 12573526004,
    "name": "La Furgo",
    "latitude": 37.8790312,
    "longitude": -4.7767457
  },
  {
    "osmId": 12700524022,
    "name": "Bambu",
    "latitude": 37.8793055,
    "longitude": -4.7883127
  },
  {
    "osmId": 12709822530,
    "name": "Con Alma",
    "latitude": 37.8866089,
    "longitude": -4.7715608
  },
  {
    "osmId": 12716176377,
    "name": "Taberna La Manuela",
    "latitude": 37.8786695,
    "longitude": -4.7781131
  },
  {
    "osmId": 12730980501,
    "name": "Taberna el Chato",
    "latitude": 37.8495629,
    "longitude": -4.9146719
  },
  {
    "osmId": 12731344001,
    "name": "La Antigua",
    "latitude": 37.8787804,
    "longitude": -4.77714
  },
  {
    "osmId": 12736497901,
    "name": "Taberna Turruñuelos",
    "latitude": 37.9002733,
    "longitude": -4.8076493
  },
  {
    "osmId": 12772810292,
    "name": "Casa Palacio Bandolero",
    "latitude": 37.8791378,
    "longitude": -4.7808251
  },
  {
    "osmId": 12790091695,
    "name": "Casa Claudio",
    "latitude": 37.8974459,
    "longitude": -4.7812741
  }
]