[
  {
    "type": "node",
    "id": 301234722,
    "lat": 28.3790415,
    "lon": -16.5164369,
    "timestamp": "2018-01-04T11:18:16Z",
    "version": 3,
    "changeset": 55154522,
    "user": "abcdefg1234",
    "uid": 7420780,
    "tags": {
      "amenity": "restaurant",
      "name": "Bodegón La Raposa",
      "opening_hours": "11:00-16:00,19:00-23:00",
      "source": "survey"
    }
  },
  {
    "type": "node",
    "id": 301235157,
    "lat": 28.4049194,
    "lon": -16.520136,
    "timestamp": "2008-10-05T09:46:47Z",
    "version": 2,
    "changeset": 75465,
    "user": "user_7568",
    "uid": 7568,
    "tags": {
      "amenity": "restaurant",
      "name": "Pico Viejo",
      "source": "survey"
    }
  },
  {
    "type": "node",
    "id": 301235198,
    "lat": 28.4049056,
    "lon": -16.5203198,
    "timestamp": "2019-04-13T08:34:05Z",
    "version": 3,
    "changeset": 69171027,
    "user": "Negreheb",
    "uid": 1656182,
    "tags": {
      "amenity": "restaurant",
      "name": "Canario",
      "source": "survey"
    }
  },
  {
    "type": "node",
    "id": 302221736,
    "lat": 28.4136897,
    "lon": -16.5387058,
    "timestamp": "2024-11-24T18:27:03Z",
    "version": 9,
    "changeset": 159544798,
    "user": "Thardev",
    "uid": 18591253,
    "tags": {
      "amenity": "restaurant",
      "cuisine": "pizza",
      "name": "Zebra Maria",
      "opening_hours": "Mo-Su,PH 13:00-23:30",
      "source": "survey"
    }
  },
  {
    "type": "node",
    "id": 309251758,
    "lat": 28.0310282,
    "lon": -16.6858725,
    "timestamp": "2008-11-01T20:55:02Z",
    "version": 1,
    "changeset": 651549,
    "user": "Bernd Rosenau",
    "uid": 40234,
    "tags": {
      "amenity": "restaurant",
      "name": "El Palmar"
    }
  },
  {
    "type": "node",
    "id": 309278572,
    "lat": 28.134907,
    "lon": -16.6900553,
    "timestamp": "2008-11-01T22:27:54Z",
    "version": 1,
    "changeset": 651549,
    "user": "Bernd Rosenau",
    "uid": 40234,
    "tags": {
      "amenity": "restaurant",
      "name": "El Dornajo"
    }
  },
  {
    "type": "node",
    "id": 309748431,
    "lat": 28.0292777,
    "lon": -16.5882326,
    "timestamp": "2024-05-24T15:37:05Z",
    "version": 3,
    "changeset": 151776655,
    "user": "davidmguest",
    "uid": 4221879,
    "tags": {
      "amenity": "restaurant",
      "name": "The Phoenix"
    }
  },
  {
    "type": "node",
    "id": 309748498,
    "lat": 28.0285389,
    "lon": -16.5900573,
    "timestamp": "2008-11-03T21:06:15Z",
    "version": 1,
    "changeset": 669543,
    "user": "guggis",
    "uid": 40577,
    "tags": {
      "amenity": "restaurant",
      "name": "La Marea"
    }
  },
  {
    "type": "node",
    "id": 309748618,
    "lat": 28.0299431,
    "lon": -16.5937192,
    "timestamp": "2013-11-08T20:16:00Z",
    "version": 2,
    "changeset": 18788879,
    "user": "Markus59",
    "uid": 39457,
    "tags": {
      "amenity": "restaurant",
      "name": "Tito"
    }
  },
  {
    "type": "node",
    "id": 309748620,
    "lat": 28.0296696,
    "lon": -16.5925859,
    "timestamp": "2008-11-03T21:06:28Z",
    "version": 1,
    "changeset": 669543,
    "user": "guggis",
    "uid": 40577,
    "tags": {
      "amenity": "restaurant",
      "name": "El Tablero II"
    }
  },
  {
    "type": "node",
    "id": 309748629,
    "lat": 28.0289566,
    "lon": -16.5931752,
    "timestamp": "2013-11-08T20:16:00Z",
    "version": 2,
    "changeset": 18788879,
    "user": "Markus59",
    "uid": 39457,
    "tags": {
      "amenity": "restaurant",
      "name": "La Tasquita del Puerto"
    }
  },
  {
    "type": "node",
    "id": 309748635,
    "lat": 28.0288867,
    "lon": -16.5929218,
    "timestamp": "2024-09-24T21:22:27Z",
    "version": 3,
    "changeset": 157057510,
    "user": "Ich2PunktNull",
    "uid": 11473887,
    "tags": {
      "amenity": "restaurant",
      "name": "La Paella"
    }
  },
  {
    "type": "node",
    "id": 309748641,
    "lat": 28.0285128,
    "lon": -16.5923973,
    "timestamp": "2011-03-18T12:20:57Z",
    "version": 2,
    "changeset": 7594806,
    "user": "tiger",
    "uid": 338866,
    "tags": {
      "amenity": "restaurant",
      "name": "Los Roques"
    }
  },
  {
    "type": "node",
    "id": 309748644,
    "lat": 28.0287384,
    "lon": -16.5925098,
    "timestamp": "2014-02-11T17:13:28Z",
    "version": 3,
    "changeset": 20507239,
    "user": "Zartbitter",
    "uid": 40397,
    "tags": {
      "amenity": "restaurant",
      "cuisine": "italian",
      "name": "la scarpetta"
    }
  },
  {
    "type": "node",
    "id": 309748645,
    "lat": 28.0288252,
    "lon": -16.5928593,
    "timestamp": "2011-03-18T12:20:54Z",
    "version": 2,
    "changeset": 7594806,
    "user": "tiger",
    "uid": 338866,
    "tags": {
      "amenity": "restaurant",
      "name": "El Ancla de Pepe"
    }
  },
  {
    "type": "node",
    "id": 309748646,
    "lat": 28.0285802,
    "lon": -16.5924186,
    "timestamp": "2011-03-18T12:20:50Z",
    "version": 2,
    "changeset": 7594806,
    "user": "tiger",
    "uid": 338866,
    "tags": {
      "amenity": "restaurant",
      "name": "El Picotero"
    }
  },
  {
    "type": "node",
    "id": 309748647,
    "lat": 28.02862,
    "lon": -16.5924194,
    "timestamp": "2011-03-18T12:20:46Z",
    "version": 2,
    "changeset": 7594806,
    "user": "tiger",
    "uid": 338866,
    "tags": {
      "amenity": "restaurant",
      "name": "Rinconcito"
    }
  },
  {
    "type": "node",
    "id": 309748706,
    "lat": 28.0309332,
    "lon": -16.594333,
    "timestamp": "2008-11-18T19:15:20Z",
    "version": 2,
    "changeset": 765771,
    "user": "guggis",
    "uid": 40577,
    "tags": {
      "amenity": "restaurant",
      "name": "Amigos Sports Bar"
    }
  },
  {
    "type": "node",
    "id": 309748763,
    "lat": 28.0485609,
    "lon": -16.6226214,
    "timestamp": "2008-11-03T21:07:00Z",
    "version": 1,
    "changeset": 669543,
    "user": "guggis",
    "uid": 40577,
    "tags": {
      "amenity": "restaurant",
      "name": "Tasca Tara"
    }
  },
  {
    "type": "node",
    "id": 309942206,
    "lat": 28.0788458,
    "lon": -16.5566508,
    "timestamp": "2008-11-04T20:46:38Z",
    "version": 1,
    "changeset": 679942,
    "user": "guggis",
    "uid": 40577,
    "tags": {
      "amenity": "restaurant",
      "name": "El Picoteo"
    }
  },
  {
    "type": "node",
    "id": 309942224,
    "lat": 28.0782656,
    "lon": -16.5568857,
    "timestamp": "2008-11-04T20:46:44Z",
    "version": 1,
    "changeset": 679942,
    "user": "guggis",
    "uid": 40577,
    "tags": {
      "amenity": "restaurant",
      "name": "El Jable"
    }
  },
  {
    "type": "node",
    "id": 309942274,
    "lat": 28.0759031,
    "lon": -16.5576224,
    "timestamp": "2008-11-04T20:46:59Z",
    "version": 1,
    "changeset": 679942,
    "user": "guggis",
    "uid": 40577,
    "tags": {
      "amenity": "restaurant",
      "name": "El Nuevo Descanso"
    }
  },
  {
    "type": "node",
    "id": 309942289,
    "lat": 28.0787027,
    "lon": -16.5600656,
    "timestamp": "2023-05-03T09:14:41Z",
    "version": 2,
    "changeset": 135650091,
    "user": "Separis",
    "uid": 699437,
    "tags": {
      "amenity": "restaurant",
      "name": "Bar Croissanteria Gomar"
    }
  },
  {
    "type": "node",
    "id": 309942451,
    "lat": 28.0453553,
    "lon": -16.539358,
    "timestamp": "2024-12-14T21:26:49Z",
    "version": 4,
    "changeset": 160292338,
    "user": "Danysan95",
    "uid": 4425563,
    "tags": {
      "amenity": "restaurant",
      "check_date": "2024-12-14",
      "name": "Cocina Mamá"
    }
  },
  {
    "type": "node",
    "id": 310010821,
    "lat": 28.1211789,
    "lon": -16.5775749,
    "timestamp": "2008-11-05T08:31:45Z",
    "version": 1,
    "changeset": 688522,
    "user": "guggis",
    "uid": 40577,
    "tags": {
      "amenity": "restaurant",
      "name": "La Recoba"
    }
  },
  {
    "type": "node",
    "id": 310010822,
    "lat": 28.1200136,
    "lon": -16.5767082,
    "timestamp": "2008-11-05T08:31:45Z",
    "version": 1,
    "changeset": 688522,
    "user": "guggis",
    "uid": 40577,
    "tags": {
      "amenity": "restaurant",
      "name": "Delicias del ur"
    }
  },
  {
    "type": "node",
    "id": 310010826,
    "lat": 28.1229896,
    "lon": -16.5773656,
    "timestamp": "2008-11-05T08:31:47Z",
    "version": 1,
    "changeset": 688522,
    "user": "guggis",
    "uid": 40577,
    "tags": {
      "amenity": "restaurant",
      "name": "Bar Roque"
    }
  },
  {
    "type": "node",
    "id": 310010837,
    "lat": 28.12584,
    "lon": -16.5768501,
    "timestamp": "2008-11-05T08:31:51Z",
    "version": 1,
    "changeset": 688522,
    "user": "guggis",
    "uid": 40577,
    "tags": {
      "amenity": "restaurant",
      "name": "El Terrero"
    }
  },
  {
    "type": "node",
    "id": 310011109,
    "lat": 28.1226104,
    "lon": -16.5730953,
    "timestamp": "2012-10-09T06:39:38Z",
    "version": 2,
    "changeset": 13422264,
    "user": "tiger",
    "uid": 338866,
    "tags": {
      "amenity": "restaurant",
      "name": "Bar del Barrio"
    }
  },
  {
    "type": "node",
    "id": 310424608,
    "lat": 28.1603722,
    "lon": -16.6427395,
    "timestamp": "2015-02-18T15:08:40Z",
    "version": 3,
    "changeset": 28935142,
    "user": "msdess",
    "uid": 593205,
    "tags": {
      "addr:city": "Vilaflor de Chasna",
      "addr:postcode": "38613",
      "addr:street": "Camino de San Roque",
      "amenity": "restaurant",
      "capacity": "50",
      "name": "La Vendimia",
      "opening_hours": "07:00-22:00",
      "smoking": "outside"
    }
  },
  {
    "type": "node",
    "id": 310424621,
    "lat": 28.15031,
    "lon": -16.6328675,
    "timestamp": "2015-05-10T16:59:00Z",
    "version": 2,
    "changeset": 30968992,
    "user": "bebbi",
    "uid": 565471,
    "tags": {
      "amenity": "restaurant",
      "name": "Rincon de Chasna",
      "source": "survey;gps"
    }
  },
  {
    "type": "node",
    "id": 310424623,
    "lat": 28.1530957,
    "lon": -16.639679,
    "timestamp": "2024-02-13T02:27:09Z",
    "version": 3,
    "changeset": 147390489,
    "user": "HAmap",
    "uid": 465931,
    "tags": {
      "amenity": "restaurant",
      "name": "Teide Flor"
    }
  },
  {
    "type": "node",
    "id": 310424656,
    "lat": 28.1586305,
    "lon": -16.6358157,
    "timestamp": "2024-02-13T21:16:23Z",
    "version": 7,
    "changeset": 147427063,
    "user": "HAmap",
    "uid": 465931,
    "tags": {
      "amenity": "restaurant",
      "capacity": "60",
      "name": "Casa Pana",
      "opening_hours": "Tu-Sa 12:00-19:00; Su 12:00-17:00; Mo off",
      "smoking": "outside"
    }
  },
  {
    "type": "node",
    "id": 310424659,
    "lat": 28.157142,
    "lon": -16.6374945,
    "timestamp": "2019-03-21T21:21:31Z",
    "version": 7,
    "changeset": 68388732,
    "user": "Creando",
    "uid": 132740,
    "tags": {
      "addr:city": "Vilaflor",
      "addr:housenumber": "27",
      "addr:postcode": "38613",
      "addr:street": "Avenida Hermano Pedro",
      "alt_name": "Tasca",
      "amenity": "restaurant",
      "name": "Rincón de Roberto",
      "opening_hours": "We-Su 12:00-22:00",
      "phone": "+34922709035;+34639294278"
    }
  },
  {
    "type": "node",
    "id": 310424668,
    "lat": 28.1561744,
    "lon": -16.6373422,
    "timestamp": "2024-02-16T20:55:18Z",
    "version": 6,
    "changeset": 147548604,
    "user": "HAmap",
    "uid": 465931,
    "tags": {
      "addr:city": "Vilaflor",
      "addr:housenumber": "1",
      "addr:postcode": "38613",
      "addr:street": "Calle Santo Domingo",
      "amenity": "restaurant",
      "name": "Pensión Germán",
      "rooms": "11",
      "tourism": "hotel"
    }
  },
  {
    "type": "node",
    "id": 310424678,
    "lat": 28.1589418,
    "lon": -16.6365514,
    "timestamp": "2024-02-22T21:02:17Z",
    "version": 7,
    "changeset": 147789625,
    "user": "HAmap",
    "uid": 465931,
    "tags": {
      "amenity": "restaurant",
      "cuisine": "regional",
      "name": "Fuente Hermano Pedro",
      "opening_hours": "Fr off",
      "outdoor_seating": "yes"
    }
  },
  {
    "type": "node",
    "id": 310424835,
    "lat": 28.1548705,
    "lon": -16.6379478,
    "timestamp": "2024-11-24T21:24:04Z",
    "version": 5,
    "changeset": 159550519,
    "user": "Daan Vanderveken",
    "uid": 20093357,
    "tags": {
      "addr:housenumber": "15",
      "addr:street": "Calle Santa Catalina",
      "amenity": "restaurant",
      "name": "Casa Chico (El Sombrerito)",
      "opening_hours": "Fr-We 13:00-21:00"
    }
  },
  {
    "type": "node",
    "id": 310631400,
    "lat": 28.0573899,
    "lon": -16.7227668,
    "timestamp": "2013-07-17T13:23:32Z",
    "version": 3,
    "changeset": 16987262,
    "user": "Fortress",
    "uid": 140521,
    "tags": {
      "amenity": "restaurant",
      "name": "El Gomero II"
    }
  },
  {
    "type": "node",
    "id": 310631415,
    "lat": 28.0573021,
    "lon": -16.7230349,
    "timestamp": "2011-01-11T08:30:17Z",
    "version": 2,
    "changeset": 6934280,
    "user": "tiger",
    "uid": 338866,
    "tags": {
      "amenity": "restaurant",
      "name": "Casa Toño",
      "source": "survey"
    }
  },
  {
    "type": "node",
    "id": 310631565,
    "lat": 28.0561376,
    "lon": -16.7252437,
    "timestamp": "2011-04-02T07:49:09Z",
    "version": 2,
    "changeset": 7741608,
    "user": "tiger",
    "uid": 338866,
    "tags": {
      "amenity": "restaurant",
      "name": "L'Amaretto",
      "source": "survey"
    }
  },
  {
    "type": "node",
    "id": 310631788,
    "lat": 28.0660112,
    "lon": -16.7296622,
    "timestamp": "2014-10-26T00:11:37Z",
    "version": 5,
    "changeset": 26332543,
    "user": "EinKonstanzer",
    "uid": 128720,
    "tags": {
      "amenity": "restaurant",
      "name": "Mito"
    }
  },
  {
    "type": "node",
    "id": 310631791,
    "lat": 28.061317,
    "lon": -16.7317824,
    "timestamp": "2025-03-30T12:12:07Z",
    "version": 5,
    "changeset": 164284669,
    "user": "starsep",
    "uid": 11306447,
    "tags": {
      "amenity": "restaurant",
      "check_date": "2025-03-30",
      "lunch": "menu",
      "name": "Las Rosas"
    }
  },
  {
    "type": "node",
    "id": 310631797,
    "lat": 28.0602775,
    "lon": -16.7328049,
    "timestamp": "2024-12-14T11:45:04Z",
    "version": 5,
    "changeset": 160276745,
    "user": "Danysan95",
    "uid": 4425563,
    "tags": {
      "amenity": "restaurant",
      "check_date": "2024-12-14",
      "cuisine": "pizza",
      "description": "Pizzeria - Cocktail Bar",
      "name": "Patch"
    }
  },
  {
    "type": "node",
    "id": 310631857,
    "lat": 28.0602159,
    "lon": -16.7328508,
    "timestamp": "2011-04-09T07:03:49Z",
    "version": 2,
    "changeset": 7810350,
    "user": "tiger",
    "uid": 338866,
    "tags": {
      "amenity": "restaurant",
      "name": "Los Angeles",
      "source": "survey"
    }
  },
  {
    "type": "node",
    "id": 311262548,
    "lat": 28.0994302,
    "lon": -16.7543014,
    "timestamp": "2024-12-09T11:07:50Z",
    "version": 7,
    "changeset": 160087669,
    "user": "ScaV82",
    "uid": 17468967,
    "tags": {
      "amenity": "restaurant",
      "cuisine": "spanish",
      "name": "Troqué"
    }
  },
  {
    "type": "node",
    "id": 311262588,
    "lat": 28.1009136,
    "lon": -16.7564576,
    "timestamp": "2018-07-07T23:13:56Z",
    "version": 4,
    "changeset": 60499145,
    "user": "Javier Sanchez",
    "uid": 47882,
    "tags": {
      "amenity": "restaurant",
      "cuisine": "spanish",
      "name": "La Caleta"
    }
  },
  {
    "type": "node",
    "id": 311262642,
    "lat": 28.1006251,
    "lon": -16.7551607,
    "timestamp": "2023-08-22T01:47:19Z",
    "version": 14,
    "changeset": 140205821,
    "user": "SomeoneElse_Revert",
    "uid": 1778799,
    "tags": {
      "addr:postcode": "38679",
      "addr:street": "Edificio Terrazas de la Caleta",
      "amenity": "restaurant",
      "cuisine": "regional;seafood",
      "name": "La Vieja",
      "name:ru": "Рыбный ресторар",
      "phone": "+34922711548",
      "website": "https://www.restaurantelavieja.com/",
      "wheelchair": "yes"
    }
  },
  {
    "type": "node",
    "id": 311262664,
    "lat": 28.1010794,
    "lon": -16.7558048,
    "timestamp": "2019-08-14T14:23:38Z",
    "version": 7,
    "changeset": 73351301,
    "user": "sanchi",
    "uid": 170106,
    "tags": {
      "addr:city": "La Caleta",
      "addr:country": "ES",
      "addr:housenumber": "3",
      "addr:postcode": "38679",
      "addr:street": "Calle el Muelle",
      "amenity": "restaurant",
      "description": "Moder cocina & grill",
      "designation": "restaurant",
      "name": "Masia del Mar",
      "opening_hours": "Mo-Su 11:00-23:00",
      "phone": "+34 922 71 08 95",
      "website": "http://www.masiadelmar.com",
      "wheelchair": "limited"
    }
  },
  {
    "type": "node",
    "id": 311262670,
    "lat": 28.1020418,
    "lon": -16.7571663,
    "timestamp": "2008-11-11T09:58:28Z",
    "version": 1,
    "changeset": 735349,
    "user": "guggis",
    "uid": 40577,
    "tags": {
      "amenity": "restaurant",
      "name": "Rincón El Varadero",
      "source": "gps by bike;survey"
    }
  },
  {
    "type": "node",
    "id": 312032215,
    "lat": 28.1288191,
    "lon": -16.7827885,
    "timestamp": "2008-11-14T19:27:13Z",
    "version": 1,
    "changeset": 748015,
    "user": "guggis",
    "uid": 40577,
    "tags": {
      "amenity": "restaurant",
      "name": "Beckham's"
    }
  },
  {
    "type": "node",
    "id": 312032223,
    "lat": 28.1281632,
    "lon": -16.7829223,
    "timestamp": "2008-11-14T19:27:14Z",
    "version": 1,
    "changeset": 748015,
    "user": "guggis",
    "uid": 40577,
    "tags": {
      "amenity": "restaurant",
      "name": "La Romantica"
    }
  },
  {
    "type": "node",
    "id": 312033522,
    "lat": 28.1801771,
    "lon": -16.817332,
    "timestamp": "2008-11-30T11:36:12Z",
    "version": 2,
    "changeset": 815407,
    "user": "guggis",
    "uid": 40577,
    "tags": {
      "amenity": "restaurant",
      "name": "Casa Amedeo",
      "source": "survey"
    }
  },
  {
    "type": "node",
    "id": 312033524,
    "lat": 28.1819659,
    "lon": -16.8141018,
    "timestamp": "2019-08-23T14:37:01Z",
    "version": 4,
    "changeset": 73671324,
    "user": "Britzz",
    "uid": 7550430,
    "tags": {
      "amenity": "restaurant",
      "name": "La Marina",
      "source": "survey"
    }
  },
  {
    "type": "node",
    "id": 312033527,
    "lat": 28.1801877,
    "lon": -16.8175588,
    "timestamp": "2024-04-15T03:30:28Z",
    "version": 3,
    "changeset": 150016086,
    "user": "davidmguest",
    "uid": 4221879,
    "tags": {
      "amenity": "restaurant",
      "cuisine": "chinese",
      "name": "Chino Sur"
    }
  },
  {
    "type": "node",
    "id": 312033529,
    "lat": 28.1810007,
    "lon": -16.8186968,
    "timestamp": "2023-01-31T19:41:22Z",
    "version": 4,
    "changeset": 131935318,
    "user": "mikr2019",
    "uid": 9485264,
    "tags": {
      "amenity": "restaurant",
      "name": "La Cremeria",
      "source": "survey"
    }
  },
  {
    "type": "node",
    "id": 312033532,
    "lat": 28.1808384,
    "lon": -16.8185859,
    "timestamp": "2019-08-23T21:21:26Z",
    "version": 5,
    "changeset": 73684061,
    "user": "Britzz",
    "uid": 7550430,
    "tags": {
      "amenity": "restaurant",
      "name": "Taberna marinera",
      "source": "survey"
    }
  },
  {
    "type": "node",
    "id": 312033541,
    "lat": 28.1817634,
    "lon": -16.8187059,
    "timestamp": "2024-06-26T12:17:54Z",
    "version": 4,
    "changeset": 153199934,
    "user": "wheelmap_visitor",
    "uid": 290680,
    "tags": {
      "amenity": "restaurant",
      "name": "Puesta de Sol",
      "source": "survey",
      "wheelchair": "yes"
    }
  },
  {
    "type": "node",
    "id": 312152459,
    "lat": 28.2305799,
    "lon": -16.7917469,
    "timestamp": "2021-02-12T13:44:28Z",
    "version": 3,
    "changeset": 99179682,
    "user": "Juniorjjrb",
    "uid": 10981379,
    "tags": {
      "amenity": "restaurant",
      "description": "Canarian typical food.",
      "name": "Restaurante Casa Sira",
      "opening_hours": "Tu-Su 10:00-23:00",
      "phone": "+34 922 85 04 50",
      "source": "survey"
    }
  },
  {
    "type": "node",
    "id": 312152467,
    "lat": 28.2094197,
    "lon": -16.778401,
    "timestamp": "2019-04-03T21:43:52Z",
    "version": 5,
    "changeset": 68858876,
    "user": "calli3756",
    "uid": 546812,
    "tags": {
      "amenity": "restaurant",
      "name": "Bar Central",
      "outdoor_seating": "yes",
      "start_date": "1951"
    }
  },
  {
    "type": "node",
    "id": 312152478,
    "lat": 28.209888,
    "lon": -16.7808863,
    "timestamp": "2025-03-27T20:14:00Z",
    "version": 6,
    "changeset": 164181477,
    "user": "StopConsuming_StartProducing",
    "uid": 5592573,
    "tags": {
      "amenity": "restaurant",
      "name": "Areperas Sabor Urbano",
      "opening_hours": "Mo, Tu, Fr-Su 14:00-22:00"
    }
  },
  {
    "type": "node",
    "id": 312544381,
    "lat": 28.0625383,
    "lon": -16.726631,
    "timestamp": "2014-09-30T14:26:54Z",
    "version": 3,
    "changeset": 25768849,
    "user": "EinKonstanzer",
    "uid": 128720,
    "tags": {
      "amenity": "restaurant",
      "name": "Mathew's"
    }
  },
  {
    "type": "node",
    "id": 312544405,
    "lat": 28.0624072,
    "lon": -16.7266211,
    "timestamp": "2014-09-30T14:26:55Z",
    "version": 2,
    "changeset": 25768849,
    "user": "EinKonstanzer",
    "uid": 128720,
    "tags": {
      "amenity": "restaurant",
      "name": "The Whiskey Jar"
    }
  },
  {
    "type": "node",
    "id": 312544423,
    "lat": 28.0620681,
    "lon": -16.7267382,
    "timestamp": "2014-10-07T22:06:04Z",
    "version": 3,
    "changeset": 25928513,
    "user": "EinKonstanzer",
    "uid": 128720,
    "tags": {
      "amenity": "restaurant",
      "name": "Lucana"
    }
  },
  {
    "type": "node",
    "id": 312544432,
    "lat": 28.0618526,
    "lon": -16.7280087,
    "timestamp": "2014-10-26T00:11:36Z",
    "version": 4,
    "changeset": 26332543,
    "user": "EinKonstanzer",
    "uid": 128720,
    "tags": {
      "amenity": "restaurant",
      "cuisine": "pizza",
      "name": "Michelangelo"
    }
  },
  {
    "type": "node",
    "id": 312544452,
    "lat": 28.0618815,
    "lon": -16.7281415,
    "timestamp": "2025-03-28T11:16:00Z",
    "version": 7,
    "changeset": 164202832,
    "user": "starsep",
    "uid": 11306447,
    "tags": {
      "amenity": "restaurant",
      "check_date": "2025-03-28",
      "cuisine": "steak",
      "name": "Aberdeen Steak House"
    }
  },
  {
    "type": "node",
    "id": 312544464,
    "lat": 28.0618906,
    "lon": -16.728182,
    "timestamp": "2025-03-28T11:16:00Z",
    "version": 5,
    "changeset": 164202832,
    "user": "starsep",
    "uid": 11306447,
    "tags": {
      "amenity": "restaurant",
      "check_date": "2025-03-28",
      "cuisine": "chinese",
      "name": "Pekin Garden"
    }
  },
  {
    "type": "node",
    "id": 312544472,
    "lat": 28.0619066,
    "lon": -16.7282337,
    "timestamp": "2025-03-28T11:16:00Z",
    "version": 4,
    "changeset": 164202832,
    "user": "starsep",
    "uid": 11306447,
    "tags": {
      "amenity": "restaurant",
      "check_date": "2025-03-28",
      "name": "Balkonen"
    }
  },
  {
    "type": "node",
    "id": 312544490,
    "lat": 28.0620645,
    "lon": -16.7288751,
    "timestamp": "2008-11-16T17:01:58Z",
    "version": 1,
    "changeset": 756492,
    "user": "ivansanchez",
    "uid": 5265,
    "tags": {
      "amenity": "restaurant",
      "name": "Tango"
    }
  },
  {
    "type": "node",
    "id": 312544517,
    "lat": 28.0622225,
    "lon": -16.7295221,
    "timestamp": "2014-10-26T00:11:36Z",
    "version": 2,
    "changeset": 26332543,
    "user": "EinKonstanzer",
    "uid": 128720,
    "tags": {
      "amenity": "restaurant",
      "name": "Carriages"
    }
  },
  {
    "type": "node",
    "id": 312544527,
    "lat": 28.0622381,
    "lon": -16.72959,
    "timestamp": "2025-03-28T11:16:00Z",
    "version": 5,
    "changeset": 164202832,
    "user": "starsep",
    "uid": 11306447,
    "tags": {
      "amenity": "restaurant",
      "check_date": "2025-03-28",
      "name": "The English Rose"
    }
  },
  {
    "type": "node",
    "id": 312544537,
    "lat": 28.0622498,
    "lon": -16.7296579,
    "timestamp": "2025-03-28T11:16:00Z",
    "version": 5,
    "changeset": 164202832,
    "user": "starsep",
    "uid": 11306447,
    "tags": {
      "amenity": "restaurant",
      "check_date": "2025-03-28",
      "name": "Mesón Atlantico"
    }
  },
  {
    "type": "node",
    "id": 312547496,
    "lat": 28.0622988,
    "lon": -16.7298797,
    "timestamp": "2025-03-28T11:16:00Z",
    "version": 5,
    "changeset": 164202832,
    "user": "starsep",
    "uid": 11306447,
    "tags": {
      "amenity": "restaurant",
      "check_date": "2025-03-28",
      "cuisine": "chinese",
      "name": "Hong Kong"
    }
  },
  {
    "type": "node",
    "id": 312547509,
    "lat": 28.0623141,
    "lon": -16.7299455,
    "timestamp": "2025-03-28T11:16:00Z",
    "version": 4,
    "changeset": 164202832,
    "user": "starsep",
    "uid": 11306447,
    "tags": {
      "amenity": "restaurant",
      "check_date": "2025-03-28",
      "name": "ILILI"
    }
  },
  {
    "type": "node",
    "id": 312547590,
    "lat": 28.0623485,
    "lon": -16.7300627,
    "timestamp": "2025-03-28T11:16:00Z",
    "version": 4,
    "changeset": 164202832,
    "user": "starsep",
    "uid": 11306447,
    "tags": {
      "amenity": "restaurant",
      "check_date": "2025-03-28",
      "cuisine": "chinese",
      "name": "Wok's Cooking"
    }
  },
  {
    "type": "node",
    "id": 312547638,
    "lat": 28.0623974,
    "lon": -16.7303177,
    "timestamp": "2025-03-28T11:16:00Z",
    "version": 4,
    "changeset": 164202832,
    "user": "starsep",
    "uid": 11306447,
    "tags": {
      "amenity": "restaurant",
      "check_date": "2025-03-28",
      "cuisine": "steak_house",
      "name": "La Boca"
    }
  },
  {
    "type": "node",
    "id": 312547648,
    "lat": 28.0626212,
    "lon": -16.7306025,
    "timestamp": "2025-03-28T12:49:00Z",
    "version": 3,
    "changeset": 164206559,
    "user": "starsep",
    "uid": 11306447,
    "tags": {
      "amenity": "restaurant",
      "check_date": "2025-03-28",
      "name": "Romantico"
    }
  },
  {
    "type": "node",
    "id": 312547837,
    "lat": 28.0634059,
    "lon": -16.7305253,
    "timestamp": "2025-03-28T11:16:00Z",
    "version": 3,
    "changeset": 164202832,
    "user": "starsep",
    "uid": 11306447,
    "tags": {
      "amenity": "restaurant",
      "check_date": "2025-03-28",
      "name": "Leonardo's"
    }
  },
  {
    "type": "node",
    "id": 312547867,
    "lat": 28.0639035,
    "lon": -16.7307828,
    "timestamp": "2025-03-28T12:49:00Z",
    "version": 2,
    "changeset": 164206559,
    "user": "starsep",
    "uid": 11306447,
    "tags": {
      "amenity": "restaurant",
      "check_date": "2025-03-28",
      "name": "El Americano"
    }
  },
  {
    "type": "node",
    "id": 312547886,
    "lat": 28.064091,
    "lon": -16.7307251,
    "timestamp": "2019-10-20T14:49:59Z",
    "version": 3,
    "changeset": 75955366,
    "user": "wheelmap_visitor",
    "uid": 290680,
    "tags": {
      "amenity": "restaurant",
      "name": "La Karina",
      "wheelchair": "yes"
    }
  },
  {
    "type": "node",
    "id": 312552979,
    "lat": 28.0658595,
    "lon": -16.730161,
    "timestamp": "2014-10-26T00:11:37Z",
    "version": 3,
    "changeset": 26332543,
    "user": "EinKonstanzer",
    "uid": 128720,
    "tags": {
      "amenity": "restaurant",
      "name": "The Wigan Arms"
    }
  },
  {
    "type": "node",
    "id": 312555514,
    "lat": 28.0659121,
    "lon": -16.7288154,
    "timestamp": "2008-11-16T17:50:07Z",
    "version": 1,
    "changeset": 756492,
    "user": "ivansanchez",
    "uid": 5265,
    "tags": {
      "amenity": "restaurant",
      "name": "Doña Juana"
    }
  },
  {
    "type": "node",
    "id": 312555519,
    "lat": 28.0657822,
    "lon": -16.7286174,
    "timestamp": "2023-11-26T12:54:20Z",
    "version": 3,
    "changeset": 144470599,
    "user": "robertogeb",
    "uid": 491515,
    "tags": {
      "amenity": "restaurant",
      "name": "Brazen Head II"
    }
  },
  {
    "type": "node",
    "id": 312555527,
    "lat": 28.0657697,
    "lon": -16.7282356,
    "timestamp": "2014-10-26T00:11:36Z",
    "version": 2,
    "changeset": 26332543,
    "user": "EinKonstanzer",
    "uid": 128720,
    "tags": {
      "amenity": "restaurant",
      "cuisine": "chinese",
      "name": "Golden Dragon"
    }
  },
  {
    "type": "node",
    "id": 313015525,
    "lat": 28.0442193,
    "lon": -16.5364926,
    "timestamp": "2024-12-14T21:26:49Z",
    "version": 6,
    "changeset": 160292338,
    "user": "Danysan95",
    "uid": 4425563,
    "tags": {
      "addr:housenumber": "32",
      "addr:street": "Paseo Marcial García",
      "amenity": "restaurant",
      "check_date": "2024-12-14",
      "diet:vegan": "yes",
      "diet:vegetarian": "yes",
      "email": "playachica.restaurante@gmail.com",
      "name": "Playa Chica",
      "phone": "+34 922 17 92 62",
      "wheelchair": "no"
    }
  },
  {
    "type": "node",
    "id": 313038536,
    "lat": 28.0305065,
    "lon": -16.5943587,
    "timestamp": "2008-11-18T19:15:11Z",
    "version": 1,
    "changeset": 765771,
    "user": "guggis",
    "uid": 40577,
    "tags": {
      "amenity": "restaurant",
      "name": "Felix Mar"
    }
  },
  {
    "type": "node",
    "id": 313401838,
    "lat": 28.0575895,
    "lon": -16.7337017,
    "timestamp": "2018-06-20T21:12:57Z",
    "version": 3,
    "changeset": 60023183,
    "user": "wheelmap_android",
    "uid": 524500,
    "tags": {
      "amenity": "restaurant",
      "name": "Garibaldi",
      "wheelchair": "limited"
    }
  },
  {
    "type": "node",
    "id": 313401839,
    "lat": 28.0574835,
    "lon": -16.7331105,
    "timestamp": "2019-06-13T15:40:06Z",
    "version": 6,
    "changeset": 71223180,
    "user": "mapman44",
    "uid": 2888253,
    "tags": {
      "amenity": "restaurant",
      "brand": "Tony Roma's",
      "brand:wikidata": "Q2213883",
      "brand:wikipedia": "en:Tony Roma's",
      "cuisine": "barbecue",
      "name": "Tony Roma's"
    }
  },
  {
    "type": "node",
    "id": 313411011,
    "lat": 28.0535426,
    "lon": -16.7273629,
    "timestamp": "2008-11-20T22:51:58Z",
    "version": 1,
    "changeset": 775353,
    "user": "guggis",
    "uid": 40577,
    "tags": {
      "amenity": "restaurant",
      "name": "Scampi's"
    }
  },
  {
    "type": "node",
    "id": 313411012,
    "lat": 28.0533671,
    "lon": -16.7274213,
    "timestamp": "2020-02-08T00:49:14Z",
    "version": 2,
    "changeset": 80712946,
    "user": "Marion_Moseby",
    "uid": 5379200,
    "tags": {
      "amenity": "restaurant",
      "name": "Rovers Return Inn"
    }
  },
  {
    "type": "node",
    "id": 313411013,
    "lat": 28.0531249,
    "lon": -16.7274889,
    "timestamp": "2020-02-08T00:49:14Z",
    "version": 2,
    "changeset": 80712946,
    "user": "Marion_Moseby",
    "uid": 5379200,
    "tags": {
      "amenity": "restaurant",
      "name": "Surfers Bar Restaurant"
    }
  },
  {
    "type": "node",
    "id": 313411015,
    "lat": 28.0524139,
    "lon": -16.7285234,
    "timestamp": "2015-05-26T10:58:32Z",
    "version": 7,
    "changeset": 31468841,
    "user": "kisaa",
    "uid": 68982,
    "tags": {
      "amenity": "restaurant",
      "cuisine": "steak",
      "name": "Aberdeen Steak House"
    }
  },
  {
    "type": "node",
    "id": 313411016,
    "lat": 28.0523557,
    "lon": -16.7283574,
    "timestamp": "2024-02-07T22:36:28Z",
    "version": 4,
    "changeset": 147195289,
    "user": "kapazao_import",
    "uid": 8770019,
    "tags": {
      "addr:city": "Costa Adeje",
      "addr:housenumber": "5, local 2B",
      "addr:postcode": "38660",
      "addr:street": "Calle Luis Díaz de Losada",
      "amenity": "restaurant",
      "capacity": "50",
      "cuisine": "canarian;spanish;russian",
      "name": "La MAR",
      "opening_hours": "12:00-24:00",
      "phone": "+ 34 922 79 23 14",
      "smoking": "outside",
      "source": "https://plus.google.com/u/0/b/115902962391599188185/dashboard/overview",
      "takeaway": "yes",
      "website": "http://www.lamar23.com/",
      "wheelchair": "yes"
    }
  },
  {
    "type": "node",
    "id": 313411028,
    "lat": 28.053656,
    "lon": -16.7258505,
    "timestamp": "2011-10-26T12:47:43Z",
    "version": 3,
    "changeset": 9659978,
    "user": "a_henderson",
    "uid": 215706,
    "tags": {
      "amenity": "restaurant",
      "name": "Raymond III",
      "wheelchair": "yes"
    }
  },
  {
    "type": "node",
    "id": 313411030,
    "lat": 28.0535673,
    "lon": -16.7255143,
    "timestamp": "2014-09-30T14:26:54Z",
    "version": 3,
    "changeset": 25768849,
    "user": "EinKonstanzer",
    "uid": 128720,
    "tags": {
      "amenity": "restaurant",
      "name": "Chouky's",
      "wheelchair": "yes"
    }
  },
  {
    "type": "node",
    "id": 313411044,
    "lat": 28.0517864,
    "lon": -16.7222101,
    "timestamp": "2008-11-20T22:52:01Z",
    "version": 1,
    "changeset": 775353,
    "user": "guggis",
    "uid": 40577,
    "tags": {
      "amenity": "restaurant",
      "name": "Las Vistas"
    }
  },
  {
    "type": "node",
    "id": 313411046,
    "lat": 28.051462,
    "lon": -16.7216195,
    "timestamp": "2014-02-01T17:00:48Z",
    "version": 3,
    "changeset": 20319913,
    "user": "wheelmap_android",
    "uid": 524500,
    "tags": {
      "amenity": "restaurant",
      "cuisine": "chinese",
      "name": "Slow Boat II",
      "wheelchair": "yes"
    }
  },
  {
    "type": "node",
    "id": 313411080,
    "lat": 28.0506673,
    "lon": -16.7208753,
    "timestamp": "2020-02-21T18:28:48Z",
    "version": 5,
    "changeset": 81324772,
    "user": "wheelmap_visitor",
    "uid": 290680,
    "tags": {
      "amenity": "restaurant",
      "name": "Chill Out",
      "toilets:wheelchair": "yes",
      "wheelchair": "yes"
    }
  },
  {
    "type": "node",
    "id": 313482469,
    "lat": 28.0611154,
    "lon": -16.7334766,
    "timestamp": "2024-12-14T11:45:04Z",
    "version": 4,
    "changeset": 160276745,
    "user": "Danysan95",
    "uid": 4425563,
    "tags": {
      "amenity": "restaurant",
      "check_date": "2024-12-14",
      "cuisine": "chinese",
      "name": "Rong Cheng",
      "source": "survey"
    }
  },
  {
    "type": "node",
    "id": 313482470,
    "lat": 28.0612909,
    "lon": -16.7337197,
    "timestamp": "2024-12-14T11:45:04Z",
    "version": 7,
    "changeset": 160276745,
    "user": "Danysan95",
    "uid": 4425563,
    "tags": {
      "amenity": "restaurant",
      "check_date": "2024-12-14",
      "cuisine": "steak",
      "name": "Aberdeen Steak House",
      "source": "survey"
    }
  },
  {
    "type": "node",
    "id": 313482474,
    "lat": 28.0608459,
    "lon": -16.7330553,
    "timestamp": "2024-12-14T11:45:04Z",
    "version": 3,
    "changeset": 160276745,
    "user": "Danysan95",
    "uid": 4425563,
    "tags": {
      "amenity": "restaurant",
      "check_date": "2024-12-14",
      "cuisine": "indian",
      "name": "Star Of India",
      "source": "survey"
    }
  },
  {
    "type": "node",
    "id": 313482482,
    "lat": 28.0635265,
    "lon": -16.7322532,
    "timestamp": "2024-12-14T11:45:04Z",
    "version": 6,
    "changeset": 160276745,
    "user": "Danysan95",
    "uid": 4425563,
    "tags": {
      "amenity": "restaurant",
      "brand": "Tony Roma's",
      "brand:wikidata": "Q2213883",
      "check_date": "2024-12-14",
      "cuisine": "barbecue",
      "name": "Limonella",
      "source": "survey"
    }
  },
  {
    "type": "node",
    "id": 313482496,
    "lat": 28.0653398,
    "lon": -16.7321057,
    "timestamp": "2008-11-21T12:20:14Z",
    "version": 1,
    "changeset": 775646,
    "user": "guggis",
    "uid": 40577,
    "tags": {
      "amenity": "restaurant",
      "name": "Royal Garden"
    }
  },
  {
    "type": "node",
    "id": 313482522,
    "lat": 28.0729792,
    "lon": -16.7309095,
    "timestamp": "2008-11-21T12:20:17Z",
    "version": 1,
    "changeset": 775646,
    "user": "guggis",
    "uid": 40577,
    "tags": {
      "amenity": "restaurant",
      "name": "La Cascada"
    }
  },
  {
    "type": "node",
    "id": 313482530,
    "lat": 28.0732828,
    "lon": -16.732546,
    "timestamp": "2020-01-18T17:04:26Z",
    "version": 2,
    "changeset": 79736269,
    "user": "Jonas Hansen",
    "uid": 30930,
    "tags": {
      "amenity": "restaurant",
      "name": "Bobby's III Indian Tandoori Restaurant",
      "source": "survey"
    }
  },
  {
    "type": "node",
    "id": 313482531,
    "lat": 28.0729321,
    "lon": -16.7324901,
    "timestamp": "2025-03-27T19:43:57Z",
    "version": 4,
    "changeset": 164180217,
    "user": "starsep",
    "uid": 11306447,
    "tags": {
      "amenity": "restaurant",
      "check_date": "2025-03-27",
      "name": "The castle"
    }
  },
  {
    "type": "node",
    "id": 313482535,
    "lat": 28.0742005,
    "lon": -16.7334327,
    "timestamp": "2008-11-21T12:20:19Z",
    "version": 1,
    "changeset": 775646,
    "user": "guggis",
    "uid": 40577,
    "tags": {
      "amenity": "restaurant",
      "name": "El Pescador",
      "source": "survey"
    }
  },
  {
    "type": "node",
    "id": 313482536,
    "lat": 28.0743767,
    "lon": -16.7336921,
    "timestamp": "2008-11-21T12:20:19Z",
    "version": 1,
    "changeset": 775646,
    "user": "guggis",
    "uid": 40577,
    "tags": {
      "amenity": "restaurant",
      "name": "Wolfi",
      "source": "survey"
    }
  },
  {
    "type": "node",
    "id": 313482736,
    "lat": 28.0755015,
    "lon": -16.7314042,
    "timestamp": "2017-01-08T21:01:28Z",
    "version": 2,
    "changeset": 45011863,
    "user": "polkillas",
    "uid": 42055,
    "tags": {
      "amenity": "restaurant",
      "name": "Rossini's",
      "source": "survey"
    }
  },
  {
    "type": "node",
    "id": 313482750,
    "lat": 28.076226,
    "lon": -16.7346872,
    "timestamp": "2008-11-21T12:20:41Z",
    "version": 1,
    "changeset": 775646,
    "user": "guggis",
    "uid": 40577,
    "tags": {
      "amenity": "restaurant",
      "name": "Gran Paella Valenciana",
      "source": "survey"
    }
  },
  {
    "type": "node",
    "id": 313503699,
    "lat": 28.0784913,
    "lon": -16.7322205,
    "timestamp": "2013-06-16T09:28:57Z",
    "version": 2,
    "changeset": 16572957,
    "user": "ullus",
    "uid": 398817,
    "tags": {
      "amenity": "restaurant",
      "name": "Mario's",
      "source": "survey"
    }
  },
  {
    "type": "node",
    "id": 313503846,
    "lat": 28.0801022,
    "lon": -16.7348923,
    "timestamp": "2021-10-01T23:48:06Z",
    "version": 2,
    "changeset": 111985098,
    "user": "Fnordson",
    "uid": 1723567,
    "tags": {
      "amenity": "restaurant",
      "name": "Monaco",
      "opening_hours:signed": "no"
    }
  },
  {
    "type": "node",
    "id": 313503849,
    "lat": 28.0790072,
    "lon": -16.735045,
    "timestamp": "2011-10-29T11:48:32Z",
    "version": 2,
    "changeset": 9683961,
    "user": "a_henderson",
    "uid": 215706,
    "tags": {
      "amenity": "restaurant",
      "name": "Royal Beach",
      "source": "survey"
    }
  },
  {
    "type": "node",
    "id": 313503981,
    "lat": 28.0909886,
    "lon": -16.7422012,
    "timestamp": "2021-09-30T23:47:25Z",
    "version": 4,
    "changeset": 111938988,
    "user": "Fnordson",
    "uid": 1723567,
    "tags": {
      "amenity": "restaurant",
      "name": "La Casa del Lago",
      "opening_hours:signed": "no",
      "source": "survey",
      "wheelchair": "limited"
    }
  },
  {
    "type": "node",
    "id": 313561005,
    "lat": 28.0932651,
    "lon": -16.7140545,
    "timestamp": "2015-12-31T21:01:13Z",
    "version": 2,
    "changeset": 36289617,
    "user": "Carstenerife",
    "uid": 550713,
    "tags": {
      "amenity": "restaurant",
      "name": "Club 10/17"
    }
  },
  {
    "type": "node",
    "id": 313561105,
    "lat": 28.0920376,
    "lon": -16.7443603,
    "timestamp": "2023-10-02T00:33:46Z",
    "version": 6,
    "changeset": 142014189,
    "user": "b-jazz-bot",
    "uid": 9451067,
    "tags": {
      "addr:city": "Adeje",
      "addr:country": "ES",
      "addr:postcode": "38660",
      "amenity": "restaurant",
      "name": "La Torre del Mirador",
      "phone": "+34 922 712 209",
      "website": "https://latorredelmirador.es/"
    }
  },
  {
    "type": "node",
    "id": 313776405,
    "lat": 28.0710749,
    "lon": -16.730897,
    "timestamp": "2008-11-22T19:02:33Z",
    "version": 1,
    "changeset": 781301,
    "user": "ivansanchez",
    "uid": 5265,
    "tags": {
      "amenity": "restaurant",
      "name": "Central Park"
    }
  },
  {
    "type": "node",
    "id": 313777350,
    "lat": 28.0728029,
    "lon": -16.7299216,
    "timestamp": "2024-01-28T17:29:27Z",
    "version": 3,
    "changeset": 146788509,
    "user": "kapazao_import",
    "uid": 8770019,
    "tags": {
      "amenity": "restaurant",
      "contact:facebook": "https://www.facebook.com/carlosrestauranttenerife/",
      "name": "Carlos",
      "opening_hours": "Tu-Sa 17:30-22:00"
    }
  },
  {
    "type": "node",
    "id": 313911235,
    "lat": 28.2276254,
    "lon": -16.7901285,
    "timestamp": "2013-01-07T16:30:12Z",
    "version": 2,
    "changeset": 14563874,
    "user": "tiger",
    "uid": 338866,
    "tags": {
      "amenity": "restaurant",
      "name": "Los Cazadores",
      "source": "survey"
    }
  },
  {
    "type": "node",
    "id": 313911238,
    "lat": 28.2080991,
    "lon": -16.7776372,
    "timestamp": "2015-09-01T08:01:33Z",
    "version": 2,
    "changeset": 33720343,
    "user": "Javier Sanchez",
    "uid": 47882,
    "tags": {
      "amenity": "restaurant",
      "name": "Delicias de Guia",
      "outdoor_seating": "yes",
      "source": "survey"
    }
  },
  {
    "type": "node",
    "id": 313911428,
    "lat": 28.2305041,
    "lon": -16.8408368,
    "timestamp": "2023-03-17T12:56:33Z",
    "version": 5,
    "changeset": 133787463,
    "user": "StopConsuming_StartProducing",
    "uid": 5592573,
    "tags": {
      "addr:city": "Santiago del Teide",
      "addr:housenumber": "26",
      "addr:postcode": "38683",
      "addr:street": "Avenida Marítima Puerto de Santiago",
      "amenity": "restaurant",
      "email": "info@panchorestaurante.es",
      "name": "Pancho",
      "phone": "+34 922 86 13 23",
      "source": "survey",
      "wheelchair": "limited"
    }
  },
  {
    "type": "node",
    "id": 313911629,
    "lat": 28.2383666,
    "lon": -16.8450395,
    "timestamp": "2024-01-01T21:33:52Z",
    "version": 4,
    "changeset": 145776579,
    "user": "gpesquero",
    "uid": 3584,
    "tags": {
      "amenity": "restaurant",
      "name": "La Pérgola",
      "opening_hours": "PH,Fr-Tu 12:00-23:30",
      "source": "survey"
    }
  },
  {
    "type": "node",
    "id": 313911654,
    "lat": 28.246396,
    "lon": -16.8422946,
    "timestamp": "2011-04-03T08:47:15Z",
    "version": 4,
    "changeset": 7751448,
    "user": "tiger",
    "uid": 338866,
    "tags": {
      "amenity": "restaurant",
      "cuisine": "austrian",
      "name": "König - Pilsener Treff am Hafen"
    }
  },
  {
    "type": "node",
    "id": 313911655,
    "lat": 28.2465517,
    "lon": -16.8421164,
    "timestamp": "2011-04-03T08:47:15Z",
    "version": 3,
    "changeset": 7751448,
    "user": "tiger",
    "uid": 338866,
    "tags": {
      "amenity": "restaurant",
      "name": "Taberna Santa Maria"
    }
  },
  {
    "type": "node",
    "id": 313911656,
    "lat": 28.2466101,
    "lon": -16.8420213,
    "timestamp": "2024-05-14T16:35:17Z",
    "version": 6,
    "changeset": 151321430,
    "user": "Christof69300",
    "uid": 7698949,
    "tags": {
      "addr:postcode": "38683",
      "addr:street": "Calle Poblado Marinero",
      "amenity": "restaurant",
      "cuisine": "fish",
      "name": "PejeVerde",
      "name:en": "Pejeverde Los Gigantes",
      "source": "survey"
    }
  },
  {
    "type": "node",
    "id": 313911657,
    "lat": 28.2473313,
    "lon": -16.8411972,
    "timestamp": "2011-04-03T08:47:15Z",
    "version": 3,
    "changeset": 7751448,
    "user": "tiger",
    "uid": 338866,
    "tags": {
      "amenity": "restaurant",
      "name": "Harbour Lites Bistro"
    }
  },
  {
    "type": "node",
    "id": 313911677,
    "lat": 28.247169,
    "lon": -16.8405317,
    "timestamp": "2008-11-29T10:52:02Z",
    "version": 2,
    "changeset": 807098,
    "user": "guggis",
    "uid": 40577,
    "tags": {
      "amenity": "restaurant",
      "name": "Marinero Jessi"
    }
  },
  {
    "type": "node",
    "id": 314031856,
    "lat": 28.2626646,
    "lon": -16.8216652,
    "timestamp": "2011-05-13T16:09:52Z",
    "version": 2,
    "changeset": 8133004,
    "user": "tiger",
    "uid": 338866,
    "tags": {
      "amenity": "restaurant",
      "name": "Aires del Sur",
      "source": "survey"
    }
  },
  {
    "type": "node",
    "id": 314031881,
    "lat": 28.2701737,
    "lon": -16.8180239,
    "timestamp": "2008-11-23T21:08:21Z",
    "version": 1,
    "changeset": 785058,
    "user": "guggis",
    "uid": 40577,
    "tags": {
      "amenity": "restaurant",
      "name": "Tamay",
      "source": "survey"
    }
  },
  {
    "type": "node",
    "id": 314031888,
    "lat": 28.2737384,
    "lon": -16.8168827,
    "timestamp": "2017-09-24T11:16:34Z",
    "version": 3,
    "changeset": 52325952,
    "user": "hjuergenk",
    "uid": 4357409,
    "tags": {
      "addr:housenumber": "80",
      "addr:postcode": "38684",
      "addr:street": "Avenida Coronel Gorrín",
      "amenity": "restaurant",
      "created_by": "Potlatch 0.10f",
      "name": "Vista Guama",
      "phone": "+34922863697",
      "source": "survey"
    }
  },
  {
    "type": "node",
    "id": 314031896,
    "lat": 28.292971,
    "lon": -16.8149539,
    "timestamp": "2024-04-10T17:02:24Z",
    "version": 3,
    "changeset": 149830207,
    "user": "kapazao_import",
    "uid": 8770019,
    "tags": {
      "amenity": "restaurant",
      "contact:email": "elpatiosantiagodelteide@hotmail.com",
      "contact:phone": "+34 922839201",
      "cuisine": "regional",
      "name": "El Patio",
      "source": "survey"
    }
  },
  {
    "type": "node",
    "id": 314031910,
    "lat": 28.2962117,
    "lon": -16.8153553,
    "timestamp": "2015-08-05T21:22:33Z",
    "version": 4,
    "changeset": 33141323,
    "user": "Javier Sanchez",
    "uid": 47882,
    "tags": {
      "amenity": "restaurant",
      "name": "Santiago del Teide",
      "source": "survey"
    }
  },
  {
    "type": "node",
    "id": 314032055,
    "lat": 28.3049985,
    "lon": -16.8403794,
    "timestamp": "2024-12-18T16:17:09Z",
    "version": 6,
    "changeset": 160358355,
    "user": "Danysan95",
    "uid": 4425563,
    "tags": {
      "amenity": "restaurant",
      "check_date": "2024-12-18",
      "name": "Chez Arlette",
      "phone": "+34922863459",
      "source": "survey"
    }
  },
  {
    "type": "node",
    "id": 314032057,
    "lat": 28.3095721,
    "lon": -16.8427093,
    "timestamp": "2010-03-10T22:56:07Z",
    "version": 2,
    "changeset": 4094177,
    "user": "Javier Sanchez",
    "uid": 47882,
    "tags": {
      "amenity": "restaurant",
      "name": "Masca",
      "source": "survey"
    }
  },
  {
    "type": "node",
    "id": 314032064,
    "lat": 28.3264093,
    "lon": -16.8455291,
    "timestamp": "2018-10-07T13:33:01Z",
    "version": 3,
    "changeset": 63279313,
    "user": "fntamap",
    "uid": 634460,
    "tags": {
      "addr:city": "Buenavista del Norte",
      "addr:hamlet": "Las Portelas",
      "addr:housenumber": "1",
      "addr:street": "Calle Masca",
      "amenity": "restaurant",
      "cuisine": "local",
      "name": "Mesón del Norte",
      "opening_hours": "Tu-Su",
      "phone": "+34 922 128 049",
      "source": "survey"
    }
  },
  {
    "type": "node",
    "id": 314451952,
    "lat": 28.3745577,
    "lon": -16.7946762,
    "timestamp": "2008-11-24T23:02:10Z",
    "version": 1,
    "changeset": 792396,
    "user": "guggis",
    "uid": 40577,
    "tags": {
      "amenity": "restaurant",
      "name": "Casa Nicolas",
      "source": "survey"
    }
  },
  {
    "type": "node",
    "id": 314452051,
    "lat": 28.3728086,
    "lon": -16.7822056,
    "timestamp": "2025-04-06T08:27:12Z",
    "version": 11,
    "changeset": 164579071,
    "user": "aTarom",
    "uid": 5127355,
    "tags": {
      "air_conditioning": "no",
      "amenity": "restaurant",
      "diet:vegetarian": "no",
      "indoor_seating": "yes",
      "name": "Ribamar",
      "opening_hours": "Mo,We-Fr,Su 12:30-17:00; Sa 12:30-22:00; Tu off",
      "outdoor_seating": "yes",
      "payment:credit_cards": "yes",
      "payment:debit_cards": "yes",
      "phone": "+34 922 83 13 11",
      "smoking": "no",
      "source": "survey",
      "website:menu": "https://restmenu.freitasgroup.es/Ribamar",
      "wheelchair": "yes"
    }
  },
  {
    "type": "node",
    "id": 314452057,
    "lat": 28.3743438,
    "lon": -16.7649819,
    "timestamp": "2024-11-30T18:03:41Z",
    "version": 7,
    "changeset": 159783131,
    "user": "fntamap",
    "uid": 634460,
    "tags": {
      "addr:city": "Garachico",
      "addr:housenumber": "4",
      "addr:street": "Avenida Tomé Cano",
      "amenity": "restaurant",
      "contact:instagram": "ardeola_arroceria",
      "cuisine": "rice",
      "name": "Ardeola Arrocería",
      "opening_hours": "Th-Mo 13:00-17:00",
      "outdoor_seating": "yes",
      "source": "survey"
    }
  },
  {
    "type": "node",
    "id": 314452060,
    "lat": 28.3727737,
    "lon": -16.7645591,
    "timestamp": "2024-12-18T16:17:12Z",
    "version": 5,
    "changeset": 160358357,
    "user": "Danysan95",
    "uid": 4425563,
    "tags": {
      "amenity": "restaurant",
      "check_date": "2024-12-18",
      "name": "Aristides",
      "source": "survey"
    }
  },
  {
    "type": "node",
    "id": 314452128,
    "lat": 28.3735439,
    "lon": -16.7658747,
    "timestamp": "2022-10-27T15:49:11Z",
    "version": 12,
    "changeset": 128136322,
    "user": "calli3756",
    "uid": 546812,
    "tags": {
      "air_conditioning": "no",
      "amenity": "restaurant",
      "indoor_seating": "no",
      "name": "El Caletón",
      "opening_hours": "PH,Mo-Su 12:00-21:00",
      "outdoor_seating": "yes",
      "smoking": "no",
      "source": "survey"
    }
  },
  {
    "type": "node",
    "id": 315387301,
    "lat": 28.0824641,
    "lon": -17.3337549,
    "timestamp": "2016-12-19T17:58:38Z",
    "version": 8,
    "changeset": 44521648,
    "user": "Schoko48",
    "uid": 97454,
    "tags": {
      "amenity": "restaurant",
      "name": "Tuyo"
    }
  },
  {
    "type": "node",
    "id": 315394499,
    "lat": 28.0874227,
    "lon": -17.3346765,
    "timestamp": "2023-08-13T21:01:26Z",
    "version": 5,
    "changeset": 139844729,
    "user": "mavrut5",
    "uid": 1510100,
    "tags": {
      "addr:street": "Calle La Palomera",
      "amenity": "restaurant",
      "name": "El Coco Loco",
      "website": "https://www.cocoloco-lagomera.com/"
    }
  },
  {
    "type": "node",
    "id": 315402884,
    "lat": 28.0884419,
    "lon": -17.3390086,
    "timestamp": "2017-10-07T17:45:44Z",
    "version": 6,
    "changeset": 52713796,
    "user": "werner2101",
    "uid": 110263,
    "tags": {
      "amenity": "restaurant",
      "name": "El Molino"
    }
  },
  {
    "type": "node",
    "id": 315505129,
    "lat": 28.3494831,
    "lon": -16.7886236,
    "timestamp": "2011-04-10T08:47:47Z",
    "version": 2,
    "changeset": 7820492,
    "user": "tiger",
    "uid": 338866,
    "tags": {
      "amenity": "restaurant",
      "name": "Los Camellos"
    }
  },
  {
    "type": "node",
    "id": 317814044,
    "lat": 28.1796019,
    "lon": -17.2659806,
    "timestamp": "2024-03-08T11:57:45Z",
    "version": 5,
    "changeset": 148380889,
    "user": "Frosch42",
    "uid": 9450227,
    "tags": {
      "amenity": "restaurant",
      "cuisine": "fish;regional",
      "indoor_seating": "yes",
      "name": "Agana",
      "opening_hours": "Mo, We-Su 10:00-00:00",
      "outdoor_seating": "yes"
    }
  },
  {
    "type": "node",
    "id": 317814073,
    "lat": 28.1781626,
    "lon": -17.2657006,
    "timestamp": "2022-09-19T10:13:58Z",
    "version": 2,
    "changeset": 126364452,
    "user": "pi=3",
    "uid": 10178286,
    "tags": {
      "amenity": "restaurant",
      "name": "Trigua"
    }
  },
  {
    "type": "node",
    "id": 317814076,
    "lat": 28.1794803,
    "lon": -17.2663905,
    "timestamp": "2024-03-08T16:13:30Z",
    "version": 5,
    "changeset": 148391305,
    "user": "Frosch42",
    "uid": 9450227,
    "tags": {
      "amenity": "restaurant",
      "indoor_seating": "yes",
      "name": "Bar Central",
      "opening_hours": "Mo-Sa 06:00-16:00",
      "outdoor_seating": "yes"
    }
  },
  {
    "type": "node",
    "id": 318419556,
    "lat": 28.1711262,
    "lon": -17.2419906,
    "timestamp": "2023-01-20T12:50:00Z",
    "version": 5,
    "changeset": 131507330,
    "user": "BesenDD",
    "uid": 2897679,
    "tags": {
      "amenity": "restaurant",
      "description": "Cocina de 12.30 a 16.30",
      "name": "Roque Blanco",
      "opening_hours": "Tu-Su 10:00-17:00",
      "phone": "+34 922800483"
    }
  },
  {
    "type": "node",
    "id": 318421709,
    "lat": 28.0911238,
    "lon": -17.1097806,
    "timestamp": "2022-05-24T20:56:11Z",
    "version": 4,
    "changeset": 121445241,
    "user": "Nic727",
    "uid": 7670946,
    "tags": {
      "addr:housenumber": "8",
      "addr:street": "Plaza de la Constitución",
      "amenity": "restaurant",
      "cuisine": "pizza",
      "name": "Los Laureles"
    }
  },
  {
    "type": "node",
    "id": 318421712,
    "lat": 28.0908718,
    "lon": -17.1097307,
    "timestamp": "2022-05-23T19:48:10Z",
    "version": 8,
    "changeset": 121387708,
    "user": "Nic727",
    "uid": 7670946,
    "tags": {
      "addr:housenumber": "2",
      "addr:street": "Plaza de la Constitución",
      "amenity": "restaurant",
      "atm": "yes",
      "atm:network": "Servired",
      "cuisine": "italian_pizza",
      "name": "Agando",
      "opening_hours": "Mo-Su 12:00-23:00",
      "phone": "629 92 57 37"
    }
  },
  {
    "type": "node",
    "id": 318421713,
    "lat": 28.0907836,
    "lon": -17.109724,
    "timestamp": "2019-07-16T22:30:54Z",
    "version": 11,
    "changeset": 72324990,
    "user": "Juan_Carlos_G_F-imports",
    "uid": 2802925,
    "tags": {
      "addr:country": "ES",
      "addr:housenumber": "10",
      "addr:street": "Plaza de las Américas",
      "amenity": "restaurant",
      "atm": "yes",
      "atm:network": "Telebanco 4B",
      "atm:operator": "Banco Santander",
      "name": "Silbados",
      "network": "Telebanco 4B",
      "operator": "Banco Santander"
    }
  },
  {
    "type": "node",
    "id": 318421753,
    "lat": 28.0913473,
    "lon": -17.1105315,
    "timestamp": "2021-01-30T21:28:25Z",
    "version": 4,
    "changeset": 98429957,
    "user": "mariotomo",
    "uid": 248722,
    "tags": {
      "addr:country": "ES",
      "amenity": "restaurant",
      "name": "Colón"
    }
  },
  {
    "type": "node",
    "id": 318421754,
    "lat": 28.0913224,
    "lon": -17.1106938,
    "timestamp": "2022-03-05T19:40:16Z",
    "version": 2,
    "changeset": 118138443,
    "user": "osmoj",
    "uid": 6240911,
    "tags": {
      "amenity": "restaurant",
      "name": "Bar Restaurante Breñusca",
      "outdoor_seating": "sidewalk"
    }
  },
  {
    "type": "node",
    "id": 318421760,
    "lat": 28.0915967,
    "lon": -17.1106671,
    "timestamp": "2015-03-29T19:56:02Z",
    "version": 2,
    "changeset": 29836043,
    "user": "C-P-M",
    "uid": 1580969,
    "tags": {
      "amenity": "restaurant",
      "name": "El Pejin"
    }
  },
  {
    "type": "node",
    "id": 318615851,
    "lat": 28.1599828,
    "lon": -16.7634154,
    "timestamp": "2008-12-14T14:16:36Z",
    "version": 1,
    "changeset": 367748,
    "user": "guggis",
    "uid": 40577,
    "tags": {
      "amenity": "restaurant",
      "name": "Chamachete"
    }
  },
  {
    "type": "node",
    "id": 318877327,
    "lat": 28.0954491,
    "lon": -17.3421127,
    "timestamp": "2024-10-29T09:39:04Z",
    "version": 12,
    "changeset": 158489340,
    "user": "kapazao_import",
    "uid": 8770019,
    "tags": {
      "amenity": "restaurant",
      "contact:facebook": "https://www.facebook.com/people/Trasmallo-Steak/100077180713834/",
      "cuisine": "fish;steak_house;grill",
      "name": "Trasmallo",
      "opening_hours": "Fr-We 12:30-22:00",
      "outdoor_seating": "yes",
      "phone": "+34922806271;+34636873583"
    }
  },
  {
    "type": "node",
    "id": 318877368,
    "lat": 28.0958441,
    "lon": -17.3433051,
    "timestamp": "2015-11-14T22:43:37Z",
    "version": 5,
    "changeset": 35318419,
    "user": "Adi Roiban",
    "uid": 65104,
    "tags": {
      "addr:street": "Carretera Playa de Inglés",
      "amenity": "restaurant",
      "cuisine": "pizza",
      "name": "La Islita Pizzeria"
    }
  },
  {
    "type": "node",
    "id": 318877467,
    "lat": 28.0838232,
    "lon": -17.3349773,
    "timestamp": "2023-04-14T19:34:55Z",
    "version": 8,
    "changeset": 134918741,
    "user": "jmsbert",
    "uid": 3484277,
    "tags": {
      "addr:housenumber": "31",
      "addr:street": "Avenida El Llano",
      "amenity": "restaurant",
      "cuisine": "spanish",
      "name": "Dolce Vita",
      "opening_hours": "Mo-Sa 08:00-23:00; Su off"
    }
  },
  {
    "type": "node",
    "id": 319070685,
    "lat": 28.0274612,
    "lon": -17.1985552,
    "timestamp": "2019-08-14T14:00:44Z",
    "version": 5,
    "changeset": 73351301,
    "user": "sanchi",
    "uid": 170106,
    "tags": {
      "amenity": "restaurant",
      "contact:phone": "+34 922 89 55 68",
      "delivery": "no",
      "name": "La Cuevita",
      "outdoor_seating": "yes",
      "smoking": "outside",
      "takeaway": "no"
    }
  },
  {
    "type": "node",
    "id": 319070806,
    "lat": 28.0282094,
    "lon": -17.1977905,
    "timestamp": "2013-03-23T09:51:36Z",
    "version": 3,
    "changeset": 15463593,
    "user": "Bohnix",
    "uid": 195637,
    "tags": {
      "amenity": "restaurant",
      "cuisine": "regional",
      "name": "Playa",
      "operator": "Da. Maria Luz Concepcion Gonzalez"
    }
  },
  {
    "type": "node",
    "id": 319070808,
    "lat": 28.0284762,
    "lon": -17.1973212,
    "timestamp": "2019-11-26T00:51:44Z",
    "version": 3,
    "changeset": 77547490,
    "user": "Hugo_Ball",
    "uid": 8759012,
    "tags": {
      "amenity": "restaurant",
      "name": "Avenida"
    }
  },
  {
    "type": "node",
    "id": 319070816,
    "lat": 28.0279592,
    "lon": -17.1983877,
    "timestamp": "2022-06-07T11:36:17Z",
    "version": 7,
    "changeset": 122068328,
    "user": "mikatool",
    "uid": 11858274,
    "tags": {
      "amenity": "restaurant",
      "contact:phone": "+34 922 89 57 61",
      "cuisine": "regional",
      "name": "Kuss",
      "smoking": "no",
      "takeaway": "no"
    }
  },
  {
    "type": "node",
    "id": 319070820,
    "lat": 28.0285891,
    "lon": -17.197103,
    "timestamp": "2019-11-26T00:51:44Z",
    "version": 3,
    "changeset": 77547490,
    "user": "Hugo_Ball",
    "uid": 8759012,
    "tags": {
      "amenity": "restaurant",
      "name": "Bodegon del Mar"
    }
  },
  {
    "type": "node",
    "id": 319070822,
    "lat": 28.0280178,
    "lon": -17.1982875,
    "timestamp": "2018-10-01T11:23:56Z",
    "version": 2,
    "changeset": 63091126,
    "user": "diegocd_",
    "uid": 8833902,
    "tags": {
      "addr:city": "Alajeró",
      "amenity": "restaurant",
      "capacity": "60",
      "cuisine": "italian;pizza",
      "delivery": "yes",
      "name": "Don Tomate",
      "outdoor_seating": "yes",
      "smoking": "outside",
      "takeaway": "yes"
    }
  },
  {
    "type": "node",
    "id": 319070888,
    "lat": 28.0293067,
    "lon": -17.1954786,
    "timestamp": "2008-12-15T20:33:39Z",
    "version": 1,
    "changeset": 403591,
    "user": "Jacques_N",
    "uid": 46145,
    "tags": {
      "amenity": "restaurant",
      "name": "Bar Restaurant Casanova"
    }
  },
  {
    "type": "node",
    "id": 319142026,
    "lat": 28.1259734,
    "lon": -17.2579614,
    "timestamp": "2024-03-17T17:08:45Z",
    "version": 5,
    "changeset": 148782037,
    "user": "Frosch42",
    "uid": 9450227,
    "tags": {
      "amenity": "restaurant",
      "indoor_seating": "yes",
      "name": "Laguna Grande",
      "outdoor_seating": "yes"
    }
  },
  {
    "type": "node",
    "id": 319254089,
    "lat": 28.0963336,
    "lon": -17.3341754,
    "timestamp": "2018-10-22T11:51:18Z",
    "version": 4,
    "changeset": 63756512,
    "user": "Test360",
    "uid": 1418137,
    "tags": {
      "amenity": "restaurant",
      "name": "Bar Restaurante Sebastian"
    }
  },
  {
    "type": "node",
    "id": 319563763,
    "lat": 28.1485469,
    "lon": -17.199383,
    "timestamp": "2024-03-13T18:15:24Z",
    "version": 5,
    "changeset": 148607246,
    "user": "Frosch42",
    "uid": 9450227,
    "tags": {
      "addr:housenumber": "5",
      "addr:street": "Calle Lomo San Pedro",
      "amenity": "restaurant",
      "cuisine": "regional",
      "indoor_seating": "yes",
      "name": "Las Chacaras",
      "opening_hours": "Mo-Sa 08:30-01:00; Su closed",
      "opening_hours:kitchen": "Mo-Sa 12:30-16:00, 19:00-23:00; Su Off",
      "outdoor_seating": "yes",
      "phone": "+34 92881039",
      "smoking": "no",
      "website": "http://laschacaras.com/",
      "wheelchair": "yes"
    }
  },
  {
    "type": "node",
    "id": 319563765,
    "lat": 28.177809,
    "lon": -17.1832808,
    "timestamp": "2019-02-15T16:30:42Z",
    "version": 3,
    "changeset": 67232011,
    "user": "stefanschauer",
    "uid": 3925985,
    "tags": {
      "amenity": "restaurant",
      "name": "El Faro",
      "opening_hours": "Mo-Su 11:00-22:30"
    }
  },
  {
    "type": "node",
    "id": 320037346,
    "lat": 28.1835741,
    "lon": -17.237303,
    "timestamp": "2011-12-21T19:19:24Z",
    "version": 2,
    "changeset": 10174122,
    "user": "schiwi",
    "uid": 446175,
    "tags": {
      "amenity": "restaurant",
      "name": "Los Mocanes"
    }
  },
  {
    "type": "node",
    "id": 321425378,
    "lat": 28.126089,
    "lon": -16.7237403,
    "timestamp": "2024-03-03T18:03:38Z",
    "version": 7,
    "changeset": 148176513,
    "user": "gpesquero",
    "uid": 3584,
    "tags": {
      "amenity": "restaurant",
      "email": "info@restauranteotelo1tf.com",
      "name": "Bar Otelo",
      "opening_hours": "Tu off",
      "phone": "+34 922780374",
      "website": "https://www.restauranteotelo1tf.com/"
    }
  },
  {
    "type": "node",
    "id": 329584206,
    "lat": 28.1872532,
    "lon": -17.1954843,
    "timestamp": "2024-02-21T18:10:18Z",
    "version": 3,
    "changeset": 147743856,
    "user": "wicking",
    "uid": 102755,
    "tags": {
      "amenity": "restaurant",
      "cuisine": "regional",
      "name": "Alameda",
      "phone": "+3467174954"
    }
  },
  {
    "type": "node",
    "id": 331505263,
    "lat": 28.1382697,
    "lon": -17.3350405,
    "timestamp": "2024-03-15T16:06:34Z",
    "version": 9,
    "changeset": 148696230,
    "user": "Frosch42",
    "uid": 9450227,
    "tags": {
      "amenity": "restaurant",
      "indoor_seating": "yes",
      "name": "Restaurante Taguluche",
      "opening_hours": "Mo off; Tu-Su,PH 09:00-14:00,17:30-22:30",
      "outdoor_seating": "yes",
      "phone": "+34 922 804002"
    }
  },
  {
    "type": "node",
    "id": 331788733,
    "lat": 28.0829878,
    "lon": -17.3345126,
    "timestamp": "2017-10-07T17:45:44Z",
    "version": 8,
    "changeset": 52713796,
    "user": "werner2101",
    "uid": 110263,
    "tags": {
      "addr:housenumber": "7",
      "addr:street": "Calle Cuesta de Abisinia",
      "amenity": "restaurant",
      "cuisine": "regional",
      "name": "Abisinia"
    }
  },
  {
    "type": "node",
    "id": 331872953,
    "lat": 28.0883761,
    "lon": -17.3390455,
    "timestamp": "2024-07-16T17:02:39Z",
    "version": 12,
    "changeset": 154024991,
    "user": "wicking",
    "uid": 102755,
    "tags": {
      "amenity": "restaurant",
      "cuisine": "arab",
      "name": "La Garbanza",
      "outdoor_seating": "yes",
      "phone": "+34922805456"
    }
  },
  {
    "type": "node",
    "id": 371623293,
    "lat": 28.1355326,
    "lon": -17.3180232,
    "timestamp": "2024-12-08T13:24:26Z",
    "version": 4,
    "changeset": 160056910,
    "user": "pi=3",
    "uid": 10178286,
    "tags": {
      "amenity": "restaurant",
      "cuisine": "regional",
      "name": "Casa Conchita",
      "phone": "+34620506700"
    }
  },
  {
    "type": "node",
    "id": 372110371,
    "lat": 28.0830548,
    "lon": -17.3344951,
    "timestamp": "2017-10-07T17:45:44Z",
    "version": 7,
    "changeset": 52713796,
    "user": "werner2101",
    "uid": 110263,
    "tags": {
      "amenity": "restaurant",
      "cuisine": "regional",
      "name": "Pescador"
    }
  },
  {
    "type": "node",
    "id": 419034803,
    "lat": 28.4150252,
    "lon": -16.4069401,
    "timestamp": "2016-11-15T11:51:25Z",
    "version": 3,
    "changeset": 43668483,
    "user": "Chumaa",
    "uid": 2946617,
    "tags": {
      "amenity": "restaurant",
      "cuisine": "regional",
      "name": "Las Lagunetas"
    }
  },
  {
    "type": "node",
    "id": 419063617,
    "lat": 28.4172365,
    "lon": -16.5521283,
    "timestamp": "2021-09-21T13:31:27Z",
    "version": 7,
    "changeset": 111496980,
    "user": "tiger",
    "uid": 338866,
    "tags": {
      "amenity": "restaurant",
      "cuisine": "german;spanish",
      "name": "Templo del Vino",
      "website": "http://templodelvino.com/"
    }
  },
  {
    "type": "node",
    "id": 423006842,
    "lat": 28.4510532,
    "lon": -16.4637904,
    "timestamp": "2022-05-13T03:17:53Z",
    "version": 3,
    "changeset": 120911918,
    "user": "b-jazz-bot",
    "uid": 9451067,
    "tags": {
      "addr:housenumber": "77",
      "addr:postcode": "38379",
      "addr:street": "Calle Acentejo",
      "amenity": "restaurant",
      "name": "Casa Juan",
      "opening_hours": "We-Su 12:30-20:30",
      "website": "https://www.casajuan.net/"
    }
  },
  {
    "type": "node",
    "id": 426907301,
    "lat": 28.3037714,
    "lon": -16.8406945,
    "timestamp": "2024-12-18T16:17:09Z",
    "version": 3,
    "changeset": 160358355,
    "user": "Danysan95",
    "uid": 4425563,
    "tags": {
      "amenity": "restaurant",
      "check_date": "2024-12-18",
      "cuisine": "regional",
      "name": "Bar Blanky - Casa Fidel"
    }
  },
  {
    "type": "node",
    "id": 428031282,
    "lat": 28.4130263,
    "lon": -16.5378586,
    "timestamp": "2016-01-14T10:08:56Z",
    "version": 11,
    "changeset": 36566770,
    "user": "FelipeTFN",
    "uid": 258029,
    "tags": {
      "addr:city": "Puerto De La Cruz",
      "addr:postcode": "38400",
      "addr:street": "Carretera Del Botanico ( Canary Center )",
      "amenity": "restaurant",
      "name": "Tiroler Alm",
      "phone": "+34 922 382470",
      "toilets:wheelchair": "no",
      "wheelchair": "limited",
      "wheelchair:description": "Posible comer en la terraza exterior bajo sombrillas. Comida austriaca. Sin facilidades en el interior, no acceso al los servicios."
    }
  },
  {
    "type": "node",
    "id": 428031285,
    "lat": 28.4177078,
    "lon": -16.5438729,
    "timestamp": "2011-12-17T10:00:11Z",
    "version": 3,
    "changeset": 10136979,
    "user": "hwm",
    "uid": 82873,
    "tags": {
      "amenity": "restaurant",
      "name": "Goldene Gans",
      "old_name": "Budapest"
    }
  },
  {
    "type": "node",
    "id": 440742644,
    "lat": 28.417392,
    "lon": -16.5521832,
    "timestamp": "2012-12-24T10:51:15Z",
    "version": 5,
    "changeset": 14388455,
    "user": "hwm",
    "uid": 82873,
    "tags": {
      "amenity": "restaurant",
      "cuisine": "international",
      "name": "Mil Sabores"
    }
  },
  {
    "type": "node",
    "id": 440744027,
    "lat": 28.4094644,
    "lon": -16.5506984,
    "timestamp": "2017-11-09T22:11:01Z",
    "version": 4,
    "changeset": 53651999,
    "user": "fogfrog007",
    "uid": 517770,
    "tags": {
      "amenity": "restaurant",
      "name": "tbd. (Restaurant)"
    }
  },
  {
    "type": "node",
    "id": 442052092,
    "lat": 28.4193481,
    "lon": -16.5422502,
    "timestamp": "2023-09-14T14:10:12Z",
    "version": 8,
    "changeset": 141260168,
    "user": "jsmitsodiliapeel",
    "uid": 1710278,
    "tags": {
      "addr:postcode": "CF95+R4 Puerto de la Cruz, Spanje",
      "amenity": "restaurant",
      "name": "La Coronela",
      "phone": "+34922381267",
      "website": "https://beermenu.usabi.es/menu/106/restaurante---cafeteria-la-coronela",
      "wheelchair": "yes"
    }
  },
  {
    "type": "node",
    "id": 443004559,
    "lat": 28.4037614,
    "lon": -16.5348091,
    "timestamp": "2011-12-16T22:09:53Z",
    "version": 3,
    "changeset": 10134644,
    "user": "hwm",
    "uid": 82873,
    "tags": {
      "amenity": "restaurant",
      "name": "El Durazno - Casa El Rubio"
    }
  },
  {
    "type": "node",
    "id": 445408146,
    "lat": 28.4156998,
    "lon": -16.5318067,
    "timestamp": "2015-05-26T10:58:55Z",
    "version": 8,
    "changeset": 31468841,
    "user": "kisaa",
    "uid": 68982,
    "tags": {
      "amenity": "restaurant",
      "cuisine": "steak",
      "name": "Steak Ranch"
    }
  },
  {
    "type": "node",
    "id": 467114211,
    "lat": 28.3158435,
    "lon": -16.4101326,
    "timestamp": "2025-03-31T12:18:40Z",
    "version": 5,
    "changeset": 164327778,
    "user": "StopConsuming_StartProducing",
    "uid": 5592573,
    "tags": {
      "amenity": "restaurant",
      "cuisine": "china;oriental",
      "name": "Restaurante Hong-Kong"
    }
  },
  {
    "type": "node",
    "id": 479796454,
    "lat": 28.0950169,
    "lon": -17.3429581,
    "timestamp": "2024-06-23T10:17:13Z",
    "version": 9,
    "changeset": 153061010,
    "user": "Leonmvd",
    "uid": 2400111,
    "tags": {
      "addr:housenumber": "8",
      "addr:street": "Paseo Las Palmeras",
      "amenity": "restaurant",
      "bar": "yes",
      "brewery": "yes",
      "check_date": "2024-06-23",
      "cuisine": "regional;spanish",
      "delivery": "no",
      "diet:fish": "yes",
      "indoor_seating": "yes",
      "name": "YAYA",
      "outdoor_seating": "yes"
    }
  },
  {
    "type": "node",
    "id": 479796455,
    "lat": 28.0951238,
    "lon": -17.3427652,
    "timestamp": "2024-10-29T09:39:04Z",
    "version": 10,
    "changeset": 158489340,
    "user": "kapazao_import",
    "uid": 8770019,
    "tags": {
      "addr:housenumber": "6",
      "addr:street": "Paseo Las Palmeras",
      "amenity": "restaurant",
      "contact:facebook": "https://www.facebook.com/lamaresiarestaurante",
      "cuisine": "pizza",
      "email": "lamaresiarestaurante@gmail.com",
      "name": "La Maresía",
      "outdoor_seating": "yes",
      "phone": "+34922806195;+34666968341"
    }
  },
  {
    "type": "node",
    "id": 479796456,
    "lat": 28.0951883,
    "lon": -17.3426941,
    "timestamp": "2023-04-14T21:02:00Z",
    "version": 7,
    "changeset": 134921090,
    "user": "jmsbert",
    "uid": 3484277,
    "tags": {
      "amenity": "restaurant",
      "cuisine": "pizza",
      "name": "Pizzeria Avenida",
      "outdoor_seating": "yes"
    }
  },
  {
    "type": "node",
    "id": 479796457,
    "lat": 28.0954097,
    "lon": -17.3423414,
    "timestamp": "2023-04-14T21:02:00Z",
    "version": 9,
    "changeset": 134921090,
    "user": "jmsbert",
    "uid": 3484277,
    "tags": {
      "addr:housenumber": "2",
      "addr:street": "Paseo Las Palmeras",
      "amenity": "restaurant",
      "contact:facebook": "https://m.facebook.com/mangolagomera",
      "cuisine": "regional;spanish;portuguese;seafood",
      "internet_access": "wlan",
      "name": "Mango",
      "opening_hours": "Th-Tu 10:00-23:15",
      "outdoor_seating": "yes"
    }
  },
  {
    "type": "node",
    "id": 480959214,
    "lat": 28.0884895,
    "lon": -17.3388513,
    "timestamp": "2024-03-06T15:36:52Z",
    "version": 12,
    "changeset": 148301161,
    "user": "EvaUnterwegs",
    "uid": 10301161,
    "tags": {
      "addr:city": "Valle Gran Rey",
      "addr:housenumber": "4",
      "addr:postcode": "38870",
      "addr:street": "Calle El Molino",
      "amenity": "restaurant",
      "capacity": "60",
      "cuisine": "regional",
      "delivery": "no",
      "diet:vegan": "yes",
      "diet:vegetarian": "yes",
      "ele": "2",
      "indoor_seating": "yes",
      "name": "Abraxas",
      "opening_hours": "Mo-We, Fr-Su 18:30-23:00",
      "outdoor_seating": "yes",
      "phone": "+34 922 80 59 82",
      "smoking": "outside",
      "takeaway": "yes",
      "website": "http://www.abraxas-la-gomera.com/"
    }
  },
  {
    "type": "node",
    "id": 480959247,
    "lat": 28.0881417,
    "lon": -17.3387874,
    "timestamp": "2025-01-19T03:19:17Z",
    "version": 5,
    "changeset": 161512135,
    "user": "H_Tim",
    "uid": 2226509,
    "tags": {
      "amenity": "restaurant",
      "cuisine": "pizza",
      "name": "Pizzeria Pinocchio",
      "opening_hours": "Mo-Sa 18:00-23:00"
    }
  },
  {
    "type": "node",
    "id": 531615959,
    "lat": 28.4171335,
    "lon": -16.5472694,
    "timestamp": "2011-12-11T11:31:37Z",
    "version": 5,
    "changeset": 10088601,
    "user": "hwm",
    "uid": 82873,
    "tags": {
      "addr:city": "Puerto de la Cruz",
      "addr:country": "ES",
      "addr:housenumber": "10",
      "addr:postcode": "38400",
      "addr:street": "Paseo de San Telmo",
      "amenity": "restaurant",
      "cuisine": "german",
      "name": "Rancho Grande",
      "wheelchair": "no"
    }
  },
  {
    "type": "node",
    "id": 531615961,
    "lat": 28.4171792,
    "lon": -16.5466884,
    "timestamp": "2018-08-01T19:56:09Z",
    "version": 5,
    "changeset": 61273271,
    "user": "mor",
    "uid": 220932,
    "tags": {
      "amenity": "restaurant",
      "cuisine": "asian",
      "name": "Dragón de Oro",
      "wheelchair": "no"
    }
  },
  {
    "type": "node",
    "id": 532082830,
    "lat": 28.4146169,
    "lon": -16.5418447,
    "timestamp": "2022-12-25T10:41:59Z",
    "version": 3,
    "changeset": 130478044,
    "user": "navajo72",
    "uid": 313117,
    "tags": {
      "amenity": "restaurant",
      "cuisine": "asian",
      "name": "Jade Verde"
    }
  },
  {
    "type": "node",
    "id": 581793878,
    "lat": 28.095097,
    "lon": -17.3431912,
    "timestamp": "2011-10-26T10:45:46Z",
    "version": 3,
    "changeset": 9658996,
    "user": "schiwi",
    "uid": 446175,
    "tags": {
      "amenity": "restaurant",
      "cuisine": "german",
      "name": "Colorado"
    }
  },
  {
    "type": "node",
    "id": 585094559,
    "lat": 28.0985973,
    "lon": -17.1832824,
    "timestamp": "2024-10-31T14:59:28Z",
    "version": 8,
    "changeset": 158585258,
    "user": "PendlerMa",
    "uid": 11040791,
    "tags": {
      "amenity": "restaurant",
      "name": "Degollada de Peraza",
      "opening_hours": "Mo-Fr 07:00-18:00; Sa,Su 08:00-18:00",
      "phone": "+34 679 56 71 16"
    }
  },
  {
    "type": "node",
    "id": 596406374,
    "lat": 28.0894077,
    "lon": -17.1113426,
    "timestamp": "2022-03-05T18:57:39Z",
    "version": 3,
    "changeset": 118137286,
    "user": "osmoj",
    "uid": 6240911,
    "tags": {
      "amenity": "restaurant",
      "cuisine": "regional",
      "name": "El Pajarito",
      "opening_hours": "11:00-23:00"
    }
  },
  {
    "type": "node",
    "id": 640401792,
    "lat": 28.134916,
    "lon": -16.5503923,
    "timestamp": "2022-05-13T03:14:29Z",
    "version": 2,
    "changeset": 120911827,
    "user": "b-jazz-bot",
    "uid": 9451067,
    "tags": {
      "amenity": "restaurant",
      "name": "Bodegas Frontos",
      "website": "https://www.tierradefrontos.com/"
    }
  },
  {
    "type": "node",
    "id": 663334685,
    "lat": 28.2348605,
    "lon": -16.8413096,
    "timestamp": "2023-01-14T18:31:02Z",
    "version": 6,
    "changeset": 131274405,
    "user": "frauzack",
    "uid": 1172645,
    "tags": {
      "amenity": "restaurant",
      "cuisine": "italian",
      "name": "Night and Day",
      "opening_hours": "Sa-We 13:30-15:30,18:00-22:30",
      "phone": "+34 604 38 55 92"
    }
  },
  {
    "type": "node",
    "id": 663555820,
    "lat": 28.0551457,
    "lon": -16.7350226,
    "timestamp": "2011-10-28T10:42:02Z",
    "version": 2,
    "changeset": 9673767,
    "user": "wheelmap_visitor",
    "uid": 290680,
    "tags": {
      "amenity": "restaurant",
      "cuisine": "regional,grill,seafood",
      "name": "La Rana",
      "wheelchair": "yes"
    }
  },
  {
    "type": "node",
    "id": 666203983,
    "lat": 28.3956139,
    "lon": -16.5940389,
    "timestamp": "2018-04-12T16:02:20Z",
    "version": 4,
    "changeset": 58039839,
    "user": "wicking",
    "uid": 102755,
    "tags": {
      "amenity": "restaurant",
      "cuisine": "regional",
      "email": "miradorsanpedro@hotmail.com",
      "name": "Mirador San Pedro",
      "phone": "+34 922 34 08 75"
    }
  },
  {
    "type": "node",
    "id": 671765772,
    "lat": 28.3711772,
    "lon": -16.6568894,
    "timestamp": "2013-06-23T22:50:30Z",
    "version": 3,
    "changeset": 16677120,
    "user": "Javier Sanchez",
    "uid": 47882,
    "tags": {
      "amenity": "restaurant",
      "name": "Monte Frio"
    }
  },
  {
    "type": "node",
    "id": 672976894,
    "lat": 28.096103,
    "lon": -17.3348438,
    "timestamp": "2017-10-25T18:16:48Z",
    "version": 5,
    "changeset": 53242778,
    "user": "projecter63",
    "uid": 251726,
    "tags": {
      "amenity": "restaurant",
      "cuisine": "regional",
      "name": "El Mirador",
      "opening_hours": "13:00-21:00; Th off"
    }
  },
  {
    "type": "node",
    "id": 678433872,
    "lat": 28.3089156,
    "lon": -16.8401327,
    "timestamp": "2016-12-19T15:01:55Z",
    "version": 3,
    "changeset": 44518013,
    "user": "Javier Sanchez",
    "uid": 47882,
    "tags": {
      "amenity": "restaurant",
      "name": "La Pimentera"
    }
  },
  {
    "type": "node",
    "id": 693353802,
    "lat": 28.3762267,
    "lon": -16.7960808,
    "timestamp": "2024-11-03T17:53:48Z",
    "version": 12,
    "changeset": 158710238,
    "user": "PendlerMa",
    "uid": 11040791,
    "tags": {
      "addr:city": "La Caleta de Interián",
      "addr:country": "ES",
      "addr:housenumber": "18",
      "addr:postcode": "38460",
      "addr:street": "Calle la Marina",
      "air_conditioning": "yes",
      "amenity": "restaurant",
      "check_date": "2024-11-03",
      "cuisine": "regional;seafood",
      "diet:vegetarian": "no",
      "indoor_seating": "yes",
      "name": "El Mundial 82",
      "opening_hours": "Th-Tu",
      "outdoor_seating": "no",
      "payment:credit_cards": "yes",
      "payment:debit_cards": "yes",
      "phone": "+34 922 840 969",
      "smoking": "no",
      "wheelchair": "yes"
    }
  },
  {
    "type": "node",
    "id": 697980777,
    "lat": 28.1836476,
    "lon": -17.2240074,
    "timestamp": "2024-02-16T22:53:35Z",
    "version": 7,
    "changeset": 147551659,
    "user": "wicking",
    "uid": 102755,
    "tags": {
      "addr:city": "Las Rosas",
      "amenity": "restaurant",
      "cuisine": "regional",
      "name": "El Cruce",
      "outdoor_seating": "yes",
      "phone": "+34 922 69 34 64;+34 634 34 69 34"
    }
  },
  {
    "type": "node",
    "id": 746957685,
    "lat": 28.4147575,
    "lon": -16.5382671,
    "timestamp": "2022-12-25T10:50:01Z",
    "version": 3,
    "changeset": 130478247,
    "user": "navajo72",
    "uid": 313117,
    "tags": {
      "addr:city": "Puerto de la Cruz",
      "addr:country": "ES",
      "addr:housenumber": "4",
      "addr:postcode": "38400",
      "addr:street": "Calle Aceviño",
      "amenity": "restaurant",
      "cuisine": "indian",
      "name": "Mother India"
    }
  },
  {
    "type": "node",
    "id": 886087707,
    "lat": 28.4177151,
    "lon": -16.5434719,
    "timestamp": "2011-12-17T10:00:10Z",
    "version": 2,
    "changeset": 10136979,
    "user": "hwm",
    "uid": 82873,
    "tags": {
      "amenity": "restaurant",
      "name": "Biskal"
    }
  },
  {
    "type": "node",
    "id": 886087740,
    "lat": 28.4116434,
    "lon": -16.5591013,
    "timestamp": "2024-12-14T11:45:08Z",
    "version": 3,
    "changeset": 160276748,
    "user": "Danysan95",
    "uid": 4425563,
    "tags": {
      "amenity": "restaurant",
      "check_date": "2024-12-13",
      "name": "Alanda"
    }
  },
  {
    "type": "node",
    "id": 886087798,
    "lat": 28.4145986,
    "lon": -16.5510051,
    "timestamp": "2024-11-17T13:33:22Z",
    "version": 5,
    "changeset": 159242853,
    "user": "tiger",
    "uid": 338866,
    "tags": {
      "amenity": "restaurant",
      "name": "Casa Mel",
      "outdoor_seating": "yes"
    }
  },
  {
    "type": "node",
    "id": 886087813,
    "lat": 28.4117791,
    "lon": -16.5587782,
    "timestamp": "2022-09-25T11:55:30Z",
    "version": 3,
    "changeset": 126612840,
    "user": "chuma import",
    "uid": 10814499,
    "tags": {
      "amenity": "restaurant",
      "cuisine": "chinese",
      "name": "Jardin Imperial"
    }
  },
  {
    "type": "node",
    "id": 886087853,
    "lat": 28.415348,
    "lon": -16.5510002,
    "timestamp": "2024-01-21T17:28:47Z",
    "version": 4,
    "changeset": 146519706,
    "user": "hwm",
    "uid": 82873,
    "tags": {
      "addr:housenumber": "7A",
      "addr:street": "Calle Doctor Ingram",
      "amenity": "restaurant",
      "cuisine": "spanish",
      "name": "Puerto Cruz",
      "opening_hours": "Fr-We 12:00-23:00"
    }
  },
  {
    "type": "node",
    "id": 886087854,
    "lat": 28.418318,
    "lon": -16.5425455,
    "timestamp": "2024-11-04T10:43:01Z",
    "version": 3,
    "changeset": 158734594,
    "user": "tiger",
    "uid": 338866,
    "tags": {
      "amenity": "restaurant",
      "name": "Perra Chica"
    }
  },
  {
    "type": "node",
    "id": 886087918,
    "lat": 28.4157632,
    "lon": -16.5496034,
    "timestamp": "2024-11-04T10:43:01Z",
    "version": 4,
    "changeset": 158734594,
    "user": "tiger",
    "uid": 338866,
    "tags": {
      "amenity": "restaurant",
      "name": "Simo"
    }
  },
  {
    "type": "node",
    "id": 886087928,
    "lat": 28.4170754,
    "lon": -16.5527116,
    "timestamp": "2024-11-21T17:57:35Z",
    "version": 5,
    "changeset": 159426952,
    "user": "tiger",
    "uid": 338866,
    "tags": {
      "addr:city": "Puerto de la Cruz",
      "addr:country": "ES",
      "addr:housenumber": "17",
      "addr:postcode": "38400",
      "addr:street": "Calle Del Lomo",
      "amenity": "restaurant",
      "name": "El Padrino",
      "opening_hours": "Tu-Sa 14:00-22:00"
    }
  },
  {
    "type": "node",
    "id": 886088099,
    "lat": 28.4136667,
    "lon": -16.5391557,
    "timestamp": "2019-08-21T07:53:30Z",
    "version": 4,
    "changeset": 73567493,
    "user": "sanchi",
    "uid": 170106,
    "tags": {
      "amenity": "restaurant",
      "name": "Asador de Pollos",
      "phone": "+34 922 368 307"
    }
  },
  {
    "type": "node",
    "id": 886088128,
    "lat": 28.4181705,
    "lon": -16.5437349,
    "timestamp": "2023-01-29T09:22:35Z",
    "version": 3,
    "changeset": 131833242,
    "user": "jeslop",
    "uid": 275212,
    "tags": {
      "addr:city": "Puerto de la Cruz",
      "addr:country": "ES",
      "addr:housenumber": "5",
      "addr:postcode": "38400",
      "addr:street": "Calle Uruguay",
      "amenity": "restaurant",
      "name": "El Pescado"
    }
  },
  {
    "type": "node",
    "id": 886088131,
    "lat": 28.4166963,
    "lon": -16.5465893,
    "timestamp": "2011-12-11T11:15:19Z",
    "version": 2,
    "changeset": 10088471,
    "user": "hwm",
    "uid": 82873,
    "tags": {
      "amenity": "restaurant",
      "cuisine": "italian",
      "name": "Sapora d'Italia"
    }
  },
  {
    "type": "node",
    "id": 886088193,
    "lat": 28.4176656,
    "lon": -16.5514195,
    "timestamp": "2018-09-24T13:17:42Z",
    "version": 9,
    "changeset": 62880139,
    "user": "tiger",
    "uid": 338866,
    "tags": {
      "addr:city": "Puerto de la Cruz",
      "addr:country": "ES",
      "addr:housenumber": "1",
      "addr:postcode": "38400",
      "addr:street": "Calle Mequínez",
      "amenity": "restaurant",
      "cuisine": "spanish",
      "name": "Oregon",
      "source": "survey"
    }
  },
  {
    "type": "node",
    "id": 886088219,
    "lat": 28.4152222,
    "lon": -16.5520045,
    "timestamp": "2024-11-11T10:41:14Z",
    "version": 4,
    "changeset": 159002516,
    "user": "tiger",
    "uid": 338866,
    "tags": {
      "amenity": "restaurant",
      "cuisine": "burger",
      "name": "Taboo"
    }
  },
  {
    "type": "node",
    "id": 886088249,
    "lat": 28.4159381,
    "lon": -16.5525191,
    "timestamp": "2018-09-08T11:05:14Z",
    "version": 4,
    "changeset": 62399103,
    "user": "tiger",
    "uid": 338866,
    "tags": {
      "addr:city": "Puerto de la Cruz",
      "addr:country": "ES",
      "addr:housenumber": "22",
      "addr:postcode": "38400",
      "addr:street": "Calle Puerto Viejo",
      "amenity": "restaurant",
      "name": "Mesón Andalucía"
    }
  },
  {
    "type": "node",
    "id": 886088261,
    "lat": 28.4159339,
    "lon": -16.5526338,
    "timestamp": "2015-05-20T16:29:18Z",
    "version": 5,
    "changeset": 31319037,
    "user": "LaTorreTfe",
    "uid": 2923782,
    "tags": {
      "addr:city": "Puerto de la Cruz",
      "addr:country": "ES",
      "addr:housenumber": "22",
      "addr:postcode": "38400",
      "addr:street": "Calle Puerto Viejo",
      "amenity": "restaurant",
      "name": "El Arado",
      "phone": "+34 922 373085",
      "toilets:wheelchair": "no",
      "wheelchair": "limited",
      "wheelchair:description": "Gemeinsam mit dem gleich gegenüber liegenden Restaurant \"La Guapa\" bieten sich die Aussenterrassen an. Regionale Küche zu guten Preisen. Leider kein rollstuhlgerechte WC."
    }
  },
  {
    "type": "node",
    "id": 886088338,
    "lat": 28.4161581,
    "lon": -16.5456359,
    "timestamp": "2024-11-04T10:43:01Z",
    "version": 3,
    "changeset": 158734594,
    "user": "tiger",
    "uid": 338866,
    "tags": {
      "amenity": "restaurant",
      "name": "Donde Ani"
    }
  },
  {
    "type": "node",
    "id": 886088391,
    "lat": 28.4159618,
    "lon": -16.5523305,
    "timestamp": "2025-01-04T01:50:52Z",
    "version": 5,
    "changeset": 160972274,
    "user": "b-jazz-bot",
    "uid": 9451067,
    "tags": {
      "addr:city": "Puerto de la Cruz",
      "addr:country": "ES",
      "addr:housenumber": "18",
      "addr:postcode": "38400",
      "addr:street": "Calle Puerto Viejo",
      "amenity": "restaurant",
      "cuisine": "asian;international;spanish",
      "email": "zumaque@lucasmaes.com",
      "name": "Zumaque",
      "opening_hours": "Mo, Th-Fr 18:30-22:30; Sa-Su 13:00-16:00, 18:30-21:30",
      "phone": "+34 922 382 201",
      "website": "https://restaurantezumaque.com/"
    }
  },
  {
    "type": "node",
    "id": 886088480,
    "lat": 28.4172458,
    "lon": -16.5519407,
    "timestamp": "2018-09-08T11:05:14Z",
    "version": 5,
    "changeset": 62399103,
    "user": "tiger",
    "uid": 338866,
    "tags": {
      "amenity": "restaurant",
      "cuisine": "regional",
      "name": "El Bistro de Antonio Aguiar"
    }
  },
  {
    "type": "node",
    "id": 886088483,
    "lat": 28.4171043,
    "lon": -16.5440123,
    "timestamp": "2024-11-04T10:43:01Z",
    "version": 2,
    "changeset": 158734594,
    "user": "tiger",
    "uid": 338866,
    "tags": {
      "amenity": "restaurant",
      "cuisine": "italian",
      "name": "La Perla"
    }
  },
  {
    "type": "node",
    "id": 886088696,
    "lat": 28.4159082,
    "lon": -16.5471426,
    "timestamp": "2024-11-04T10:43:01Z",
    "version": 3,
    "changeset": 158734594,
    "user": "tiger",
    "uid": 338866,
    "tags": {
      "amenity": "restaurant",
      "name": "Il Colosseo"
    }
  },
  {
    "type": "node",
    "id": 886088781,
    "lat": 28.4160108,
    "lon": -16.5466686,
    "timestamp": "2024-11-04T10:43:01Z",
    "version": 3,
    "changeset": 158734594,
    "user": "tiger",
    "uid": 338866,
    "tags": {
      "amenity": "restaurant",
      "name": "Il Ponte"
    }
  },
  {
    "type": "node",
    "id": 886088855,
    "lat": 28.417125,
    "lon": -16.5504717,
    "timestamp": "2011-10-10T11:40:41Z",
    "version": 3,
    "changeset": 9518514,
    "user": "wheelmap_visitor",
    "uid": 290680,
    "tags": {
      "amenity": "restaurant",
      "cuisine": "pizza",
      "name": "La Tasquita",
      "wheelchair": "limited"
    }
  },
  {
    "type": "node",
    "id": 886088892,
    "lat": 28.4161234,
    "lon": -16.5434903,
    "timestamp": "2018-07-28T21:02:15Z",
    "version": 4,
    "changeset": 61151674,
    "user": "Marion_Moseby",
    "uid": 5379200,
    "tags": {
      "amenity": "restaurant",
      "name": "O' Vesubio 3",
      "wheelchair": "limited"
    }
  },
  {
    "type": "node",
    "id": 886088950,
    "lat": 28.4136071,
    "lon": -16.5563952,
    "timestamp": "2024-11-21T19:28:23Z",
    "version": 3,
    "changeset": 159431424,
    "user": "tiger",
    "uid": 338866,
    "tags": {
      "amenity": "restaurant",
      "cuisine": "regional",
      "name": "El Lagar"
    }
  },
  {
    "type": "node",
    "id": 886089051,
    "lat": 28.4160876,
    "lon": -16.55032,
    "timestamp": "2024-11-17T09:53:19Z",
    "version": 8,
    "changeset": 159234469,
    "user": "tiger",
    "uid": 338866,
    "tags": {
      "amenity": "restaurant",
      "cuisine": "regional",
      "description": "Blend of regional and Italian, popular also with locals",
      "name": "Compostelana Charco Square",
      "website": "https://grupocompostelana.com/"
    }
  },
  {
    "type": "node",
    "id": 886089053,
    "lat": 28.4162445,
    "lon": -16.5453964,
    "timestamp": "2024-01-21T17:01:11Z",
    "version": 4,
    "changeset": 146519706,
    "user": "hwm",
    "uid": 82873,
    "tags": {
      "amenity": "restaurant",
      "name": "Bambi",
      "opening_hours": "Tu-Sa 13:00-16:00,19:00-23:00; Su,Mo off",
      "wheelchair": "limited"
    }
  },
  {
    "type": "node",
    "id": 886089061,
    "lat": 28.4150271,
    "lon": -16.5394435,
    "timestamp": "2024-11-17T09:53:19Z",
    "version": 4,
    "changeset": 159234469,
    "user": "tiger",
    "uid": 338866,
    "tags": {
      "addr:city": "Puerto de la Cruz",
      "addr:housenumber": "2",
      "addr:postcode": "38400",
      "addr:street": "Calle Haya",
      "amenity": "restaurant",
      "cuisine": "international",
      "delivery": "no",
      "name": "San Amaro",
      "opening_hours": "Mo-Su 12:00-23:00",
      "operator": "Grupo el Padrino",
      "smoking": "outside",
      "website": "https://www.grupoelpadrino.com/san-amaro"
    }
  },
  {
    "type": "node",
    "id": 886089064,
    "lat": 28.4159505,
    "lon": -16.5504872,
    "timestamp": "2017-09-24T09:48:00Z",
    "version": 4,
    "changeset": 52324191,
    "user": "hjuergenk",
    "uid": 4357409,
    "tags": {
      "addr:housenumber": "4",
      "addr:postcode": "38400",
      "addr:street": "Calle Blanco",
      "amenity": "restaurant",
      "name": "La Marea",
      "phone": "+34922368622"
    }
  },
  {
    "type": "node",
    "id": 886089107,
    "lat": 28.4150187,
    "lon": -16.556966,
    "timestamp": "2024-11-06T20:00:33Z",
    "version": 4,
    "changeset": 158831459,
    "user": "tiger",
    "uid": 338866,
    "tags": {
      "addr:city": "Puerto de la Cruz",
      "addr:country": "ES",
      "addr:housenumber": "2",
      "addr:postcode": "38400",
      "addr:street": "Paseo Luis Lavaggi",
      "amenity": "restaurant",
      "cuisine": "regional",
      "name": "La Tapería"
    }
  },
  {
    "type": "node",
    "id": 886089108,
    "lat": 28.4163388,
    "lon": -16.5538302,
    "timestamp": "2020-02-15T18:39:00Z",
    "version": 4,
    "changeset": 81051315,
    "user": "hwm",
    "uid": 82873,
    "tags": {
      "addr:housenumber": "53",
      "addr:postcode": "38400",
      "addr:street": "Calle San Felipe",
      "amenity": "restaurant",
      "name": "La Carta",
      "phone": "+34922381592"
    }
  },
  {
    "type": "node",
    "id": 886089109,
    "lat": 28.4174603,
    "lon": -16.5478629,
    "timestamp": "2022-12-24T13:02:02Z",
    "version": 5,
    "changeset": 130455815,
    "user": "kapazao_import",
    "uid": 8770019,
    "tags": {
      "amenity": "restaurant",
      "brand": "Pomodoro",
      "brand:website": "https://pomodoro.es",
      "brand:wikidata": "Q115475288",
      "cuisine": "italian;pasta;pizza",
      "name": "Pomodoro",
      "source": "survey",
      "wheelchair": "limited"
    }
  },
  {
    "type": "node",
    "id": 886089119,
    "lat": 28.4154752,
    "lon": -16.5484943,
    "timestamp": "2024-11-22T15:30:46Z",
    "version": 2,
    "changeset": 159462710,
    "user": "tiger",
    "uid": 338866,
    "tags": {
      "amenity": "restaurant",
      "cuisine": "burger;pizza",
      "name": "El Camerino",
      "source": "survey"
    }
  },
  {
    "type": "node",
    "id": 886089180,
    "lat": 28.4136981,
    "lon": -16.5380915,
    "timestamp": "2019-07-16T19:32:57Z",
    "version": 7,
    "changeset": 72320443,
    "user": "TheNet1996",
    "uid": 1853649,
    "tags": {
      "addr:city": "Puerto de la Cruz",
      "addr:housenumber": "6",
      "addr:postcode": "38400",
      "addr:street": "Avenida Marqués de Villanueva del Prado",
      "amenity": "restaurant",
      "cuisine": "austrian",
      "name": "Edelweiss",
      "phone": "+34 822 66 33 38"
    }
  },
  {
    "type": "node",
    "id": 886089543,
    "lat": 28.4163426,
    "lon": -16.5511217,
    "timestamp": "2024-11-17T09:29:16Z",
    "version": 6,
    "changeset": 159234469,
    "user": "tiger",
    "uid": 338866,
    "tags": {
      "addr:city": "Puerto de la Cruz",
      "addr:country": "ES",
      "addr:housenumber": "10",
      "addr:postcode": "38400",
      "addr:street": "Plaza del Charco",
      "amenity": "restaurant",
      "name": "Blanca Square",
      "wheelchair": "limited"
    }
  },
  {
    "type": "node",
    "id": 886089576,
    "lat": 28.4181931,
    "lon": -16.5438271,
    "timestamp": "2010-08-31T13:15:30Z",
    "version": 2,
    "changeset": 5645439,
    "user": "tiger",
    "uid": 338866,
    "tags": {
      "addr:city": "Puerto de la Cruz",
      "addr:country": "ES",
      "addr:housenumber": "5",
      "addr:postcode": "38400",
      "addr:street": "Avenida Venezuela",
      "amenity": "restaurant",
      "name": "Compostelana"
    }
  },
  {
    "type": "node",
    "id": 886089705,
    "lat": 28.4164126,
    "lon": -16.5534362,
    "timestamp": "2010-08-29T13:25:34Z",
    "version": 1,
    "changeset": 5625714,
    "user": "tiger",
    "uid": 338866,
    "tags": {
      "amenity": "restaurant",
      "name": "Casa Lolo"
    }
  },
  {
    "type": "node",
    "id": 886089776,
    "lat": 28.4157991,
    "lon": -16.5525331,
    "timestamp": "2015-11-24T18:31:36Z",
    "version": 14,
    "changeset": 35557024,
    "user": "LaTorreTfe",
    "uid": 2923782,
    "tags": {
      "addr:city": "Puerto de la Cruz",
      "addr:country": "ES",
      "addr:housenumber": "21",
      "addr:postcode": "38400",
      "addr:street": "Calle Puerto Viejo",
      "amenity": "restaurant",
      "name": "La Guapa",
      "phone": "+34 922 368390",
      "toilets:wheelchair": "no",
      "wheelchair": "limited",
      "wheelchair:description": "Gemeinsam mit dem gleich gegenüber liegenden Restaurant \"El Arado\" bieten sich die Aussenterrassen als dem dem hiesigen Wetter angemessenen Speiseplatz. Regionale Küche mit preiswertem Menu, gute Weine. Leider keine rollstuhlgerechte Toiletten."
    }
  },
  {
    "type": "node",
    "id": 886089793,
    "lat": 28.415542,
    "lon": -16.55016,
    "timestamp": "2021-10-02T12:21:08Z",
    "version": 2,
    "changeset": 111998413,
    "user": "tiger",
    "uid": 338866,
    "tags": {
      "addr:city": "Puerto de la Cruz",
      "addr:country": "ES",
      "addr:housenumber": "1",
      "addr:postcode": "38400",
      "addr:street": "Calle Iriarte",
      "amenity": "restaurant",
      "name": "Pez Gordo"
    }
  },
  {
    "type": "node",
    "id": 886090356,
    "lat": 28.4165265,
    "lon": -16.5534337,
    "timestamp": "2024-11-12T10:12:26Z",
    "version": 6,
    "changeset": 159043375,
    "user": "tiger",
    "uid": 338866,
    "tags": {
      "addr:housenumber": "38",
      "addr:street": "Calle San Felipe",
      "amenity": "restaurant",
      "name": "Chicha Morada",
      "operator": "Víctor Suárez"
    }
  },
  {
    "type": "node",
    "id": 886090402,
    "lat": 28.4169484,
    "lon": -16.5519218,
    "timestamp": "2012-12-22T22:38:54Z",
    "version": 5,
    "changeset": 14371723,
    "user": "hwm",
    "uid": 82873,
    "tags": {
      "addr:city": "Puerto de la Cruz",
      "addr:country": "ES",
      "addr:housenumber": "16",
      "addr:postcode": "38400",
      "addr:street": "Calle Pérez Zamora",
      "amenity": "restaurant",
      "cuisine": "regional",
      "name": "Regulo",
      "source": "survey"
    }
  },
  {
    "type": "node",
    "id": 886090430,
    "lat": 28.4155675,
    "lon": -16.5502516,
    "timestamp": "2021-10-02T12:21:08Z",
    "version": 5,
    "changeset": 111998413,
    "user": "tiger",
    "uid": 338866,
    "tags": {
      "addr:city": "Puerto de la Cruz",
      "addr:country": "ES",
      "addr:housenumber": "11",
      "addr:postcode": "38400",
      "addr:street": "Calle Blanco",
      "amenity": "restaurant",
      "name": "La Cuadra"
    }
  },
  {
    "type": "node",
    "id": 886090439,
    "lat": 28.4155788,
    "lon": -16.552802,
    "timestamp": "2015-05-20T16:23:11Z",
    "version": 7,
    "changeset": 31319037,
    "user": "LaTorreTfe",
    "uid": 2923782,
    "tags": {
      "addr:city": "Puerto de la Cruz",
      "addr:country": "ES",
      "addr:housenumber": "4",
      "addr:postcode": "38400",
      "addr:street": "Calle el Peñón",
      "amenity": "restaurant",
      "cuisine": "regional",
      "name": "Los Gemelos",
      "opening_hours": "Mo-Sa 12:00-23:00; We off; Su 12:00-16:00,18:30-23:00",
      "phone": "+34 922 370133",
      "source": "survey",
      "toilets:wheelchair": "no",
      "wheelchair": "limited",
      "wheelchair:description": "Regionale Küche, bekannt für seinen kanarischen \"Patio\", Tagesangebote zu volkstümlichen Preisen, Wochenendes mit Warteliste. Leider kein rollstuhlgerechtes WC."
    }
  },
  {
    "type": "node",
    "id": 886090543,
    "lat": 28.4169465,
    "lon": -16.5454725,
    "timestamp": "2010-08-29T13:25:59Z",
    "version": 1,
    "changeset": 5625714,
    "user": "tiger",
    "uid": 338866,
    "tags": {
      "amenity": "restaurant",
      "name": "Angel y Habunera"
    }
  },
  {
    "type": "node",
    "id": 886090550,
    "lat": 28.4164062,
    "lon": -16.5538892,
    "timestamp": "2025-04-02T13:00:08Z",
    "version": 9,
    "changeset": 164420404,
    "user": "Merlinthewizz",
    "uid": 21408263,
    "tags": {
      "amenity": "restaurant",
      "cuisine": "seafood;regional",
      "name": "Victoria",
      "opening_hours": "Tu-Sa 19:30-22:30; Th-Sa 13:30-16:00; Su 13:00-16:00",
      "wheelchair": "limited"
    }
  },