[
  {
    "type": "node",
    "id": 33515505,
    "lat": 36.9617778,
    "lon": -3.3595921,
    "timestamp": "2022-03-01T18:34:20Z",
    "version": 6,
    "changeset": 117990222,
    "user": "gpesquero",
    "uid": 3584,
    "tags": {
      "amenity": "restaurant",
      "cuisine": "regional",
      "name": "El Tilo",
      "outdoor_seating": "yes"
    }
  },
  {
    "type": "node",
    "id": 33515508,
    "lat": 36.9608186,
    "lon": -3.3569562,
    "timestamp": "2020-03-08T10:39:06Z",
    "version": 5,
    "changeset": 81919515,
    "user": "kapazao",
    "uid": 7543375,
    "tags": {
      "addr:city": "Capileira",
      "addr:housenumber": "6",
      "addr:postcode": "18413",
      "addr:street": "Carretera de la Sierra",
      "amenity": "restaurant",
      "email": "restaurante@eljardindelossabores.com",
      "name": "El Jardín de los Sabores",
      "phone": "+34 958 76 31 42;+34 674 36 27 23",
      "website": "https://www.eljardindelossabores.com"
    }
  },
  {
    "type": "node",
    "id": 292586998,
    "lat": 36.7617169,
    "lon": -3.8450181,
    "timestamp": "2023-07-02T10:39:47Z",
    "version": 3,
    "changeset": 138018166,
    "user": "daloom",
    "uid": 14490780,
    "tags": {
      "amenity": "restaurant",
      "name": "Restaurante Cueva de Nerja"
    }
  },
  {
    "type": "node",
    "id": 304571589,
    "lat": 36.7420704,
    "lon": -3.8804621,
    "timestamp": "2022-01-25T15:45:19Z",
    "version": 18,
    "changeset": 116590795,
    "user": "aTarom",
    "uid": 5127355,
    "tags": {
      "addr:city": "Nerja",
      "addr:postcode": "29780",
      "addr:street": "Plaza de los Cangrejos",
      "amenity": "restaurant",
      "check_date": "2019-11-12",
      "name": "Bamboo",
      "opening_hours": "Mo-Su 09:00-22:00",
      "ref:vatin": "ES52584511W"
    }
  },
  {
    "type": "node",
    "id": 304571590,
    "lat": 36.7425909,
    "lon": -3.8803417,
    "timestamp": "2021-10-25T17:15:44Z",
    "version": 13,
    "changeset": 112958557,
    "user": "Lübeck",
    "uid": 55462,
    "tags": {
      "amenity": "restaurant",
      "check_date": "2021-10-01",
      "cuisine": "mediterranean",
      "name": "Mirasol"
    }
  },
  {
    "type": "node",
    "id": 304571661,
    "lat": 36.7431962,
    "lon": -3.8827996,
    "timestamp": "2021-10-25T17:13:52Z",
    "version": 15,
    "changeset": 112958456,
    "user": "Lübeck",
    "uid": 55462,
    "tags": {
      "amenity": "restaurant",
      "check_date": "2021-10-01",
      "name": "Jamaica",
      "wifi": "yes"
    }
  },
  {
    "type": "node",
    "id": 304572342,
    "lat": 36.7340654,
    "lon": -3.7676345,
    "timestamp": "2022-01-09T16:36:44Z",
    "version": 6,
    "changeset": 115950039,
    "user": "quazgar",
    "uid": 181582,
    "tags": {
      "amenity": "restaurant",
      "name": "Mirador de Cerro Gordo",
      "opening_hours": "Sa-Su 13:00-22:00"
    }
  },
  {
    "type": "node",
    "id": 304572502,
    "lat": 36.7471821,
    "lon": -4.0553217,
    "timestamp": "2022-08-10T11:42:40Z",
    "version": 5,
    "changeset": 124727202,
    "user": "kapazao",
    "uid": 7543375,
    "tags": {
      "amenity": "restaurant",
      "cuisine": "international",
      "name": "Restaurante El Paraíso"
    }
  },
  {
    "type": "node",
    "id": 307845016,
    "lat": 36.7442752,
    "lon": -3.8765846,
    "timestamp": "2019-08-25T09:16:33Z",
    "version": 7,
    "changeset": 73712333,
    "user": "sanchi",
    "uid": 170106,
    "tags": {
      "amenity": "restaurant",
      "check_date": "2017-04-17",
      "name": "Cochran's Terraza",
      "phone": "+34 952527474"
    }
  },
  {
    "type": "node",
    "id": 307845017,
    "lat": 36.7447885,
    "lon": -3.8765252,
    "timestamp": "2021-10-25T16:31:58Z",
    "version": 11,
    "changeset": 112956249,
    "user": "Lübeck",
    "uid": 55462,
    "tags": {
      "amenity": "restaurant",
      "check_date": "2021-10-01",
      "name": "La Biznaga",
      "outdoor_seating": "yes",
      "phone": "+34 952527474"
    }
  },
  {
    "type": "node",
    "id": 307845880,
    "lat": 36.7331772,
    "lon": -3.979344,
    "timestamp": "2023-02-08T17:54:26Z",
    "version": 7,
    "changeset": 132268871,
    "user": "The_Wanderer",
    "uid": 6367986,
    "tags": {
      "addr:city": "Torrox-Costa",
      "addr:housenumber": "8",
      "addr:postcode": "29793",
      "addr:street": "Avenida de España",
      "amenity": "restaurant",
      "facebook": "https://www.facebook.com/people/Restaurante-La-Farola/100039807195422/",
      "name": "La Farola",
      "opening_hours": "Tu 12:30-16:00,18:30-22:00; Th 12:30-16:00,18:30-22:00; Fr-Sa 12:30-16:00,18:00-22:30",
      "phone": "+34 952532379",
      "ref:vatin": "ESB29662509"
    }
  },
  {
    "type": "node",
    "id": 307951447,
    "lat": 36.7907452,
    "lon": -3.8947811,
    "timestamp": "2025-01-04T05:42:17Z",
    "version": 6,
    "changeset": 160974277,
    "user": "horstsun",
    "uid": 685410,
    "tags": {
      "amenity": "restaurant",
      "name": "Virtudes"
    }
  },
  {
    "type": "node",
    "id": 309862991,
    "lat": 36.7428714,
    "lon": -3.8841708,
    "timestamp": "2021-10-25T17:13:52Z",
    "version": 15,
    "changeset": 112958456,
    "user": "Lübeck",
    "uid": 55462,
    "tags": {
      "amenity": "restaurant",
      "check_date": "2021-10-01",
      "cuisine": "curry",
      "email": "manoj@curryhousenerja.com",
      "internet_access": "wlan",
      "name": "Curry House",
      "opening_hours": "Mo 18:30-23:30; Tu-Su 13:00-15:30, 18:30-23:30",
      "phone": "+34 9852525410"
    }
  },
  {
    "type": "node",
    "id": 322819007,
    "lat": 36.7426819,
    "lon": -3.9128579,
    "timestamp": "2024-12-22T12:18:47Z",
    "version": 9,
    "changeset": 160499473,
    "user": "Đuro Jiří",
    "uid": 14617702,
    "tags": {
      "air_conditioning": "yes",
      "amenity": "restaurant",
      "indoor_seating": "yes",
      "name": "La  Restinga Beach",
      "outdoor_seating": "yes",
      "wheelchair": "yes"
    }
  },
  {
    "type": "node",
    "id": 322819142,
    "lat": 36.748371,
    "lon": -3.8820203,
    "timestamp": "2021-10-25T15:53:07Z",
    "version": 7,
    "changeset": 112954347,
    "user": "Lübeck",
    "uid": 55462,
    "tags": {
      "amenity": "restaurant",
      "check_date": "2021-10-01",
      "name": "El Puente",
      "phone": "+34 952520174"
    }
  },
  {
    "type": "node",
    "id": 322819297,
    "lat": 36.7331742,
    "lon": -3.9798502,
    "timestamp": "2010-09-23T15:16:07Z",
    "version": 3,
    "changeset": 5854777,
    "user": "Lübeck",
    "uid": 55462,
    "tags": {
      "amenity": "restaurant",
      "name": "Moreno y Sol"
    }
  },
  {
    "type": "node",
    "id": 322819304,
    "lat": 36.7324484,
    "lon": -3.9782426,
    "timestamp": "2023-07-07T05:33:12Z",
    "version": 5,
    "changeset": 138212934,
    "user": "The_Wanderer",
    "uid": 6367986,
    "tags": {
      "amenity": "restaurant",
      "cuisine": "spanish",
      "indoor_seating": "yes",
      "name": "Las Palmeras",
      "opening_hours": "Tu-Su 12:00-02:00",
      "outdoor_seating": "yes",
      "phone": "+34 952 967 768"
    }
  },
  {
    "type": "node",
    "id": 322820046,
    "lat": 36.7396018,
    "lon": -3.9499445,
    "timestamp": "2008-12-29T15:30:35Z",
    "version": 1,
    "changeset": 664304,
    "user": "Lübeck",
    "uid": 55462,
    "tags": {
      "amenity": "restaurant",
      "name": "El Pino"
    }
  },
  {
    "type": "node",
    "id": 325937110,
    "lat": 36.7657609,
    "lon": -3.8674045,
    "timestamp": "2010-11-12T11:44:04Z",
    "version": 2,
    "changeset": 6350223,
    "user": "Lübeck",
    "uid": 55462,
    "tags": {
      "amenity": "restaurant",
      "name": "Torres de San Juan"
    }
  },
  {
    "type": "node",
    "id": 332047676,
    "lat": 36.7410978,
    "lon": -4.0896542,
    "timestamp": "2021-12-14T09:05:51Z",
    "version": 4,
    "changeset": 114914024,
    "user": "Hugoren Martinako",
    "uid": 3392826,
    "tags": {
      "amenity": "restaurant",
      "contact:facebook": "https://www.facebook.com/people/Chiringuito-Victoria/100063629319098/",
      "name": "Chiringuito Victoria",
      "phone": "+34 625 483 207"
    }
  },
  {
    "type": "node",
    "id": 332047721,
    "lat": 36.7425758,
    "lon": -4.0879546,
    "timestamp": "2020-08-16T10:24:28Z",
    "version": 4,
    "changeset": 89467772,
    "user": "sanchi",
    "uid": 170106,
    "tags": {
      "amenity": "restaurant",
      "name": "Chiringuito Varela",
      "outdoor_seating": "yes",
      "phone": "+34 951 081 160"
    }
  },
  {
    "type": "node",
    "id": 353806242,
    "lat": 36.8189583,
    "lon": -3.771243,
    "timestamp": "2011-05-18T11:18:10Z",
    "version": 3,
    "changeset": 8180086,
    "user": "Lübeck",
    "uid": 55462,
    "tags": {
      "amenity": "restaurant",
      "ele": "1170",
      "name": "Mesón Cantalobos"
    }
  },
  {
    "type": "node",
    "id": 430805926,
    "lat": 36.8073174,
    "lon": -4.1252095,
    "timestamp": "2016-06-30T11:21:55Z",
    "version": 2,
    "changeset": 40389730,
    "user": "Lübeck",
    "uid": 55462,
    "tags": {
      "amenity": "restaurant",
      "check_date": "2016-05-24",
      "cuisine": "regional",
      "name": "El Cruce"
    }
  },
  {
    "type": "node",
    "id": 430878866,
    "lat": 36.7584793,
    "lon": -3.8693374,
    "timestamp": "2016-08-19T10:22:07Z",
    "version": 3,
    "changeset": 41552779,
    "user": "AlexDRL",
    "uid": 629077,
    "tags": {
      "amenity": "restaurant",
      "name": "La Raqueta"
    }
  },
  {
    "type": "node",
    "id": 430878885,
    "lat": 36.7546488,
    "lon": -3.8737182,
    "timestamp": "2022-01-27T15:42:23Z",
    "version": 4,
    "changeset": 116672155,
    "user": "Lübeck",
    "uid": 55462,
    "tags": {
      "amenity": "restaurant",
      "check_date": "2021-09-30",
      "name": "Alegre",
      "tourism": "hotel"
    }
  },
  {
    "type": "node",
    "id": 430878902,
    "lat": 36.7500007,
    "lon": -3.8746883,
    "timestamp": "2021-08-12T09:49:36Z",
    "version": 4,
    "changeset": 109562282,
    "user": "kapazao",
    "uid": 7543375,
    "tags": {
      "amenity": "restaurant",
      "cuisine": "regional",
      "name": "La Puntilla"
    }
  },
  {
    "type": "node",
    "id": 430878949,
    "lat": 36.7332787,
    "lon": -3.6936367,
    "timestamp": "2009-06-29T19:37:08Z",
    "version": 1,
    "changeset": 1680972,
    "user": "Lübeck",
    "uid": 55462,
    "tags": {
      "amenity": "restaurant",
      "cuisine": "regional",
      "name": "Lute y Jesus"
    }
  },
  {
    "type": "node",
    "id": 430879122,
    "lat": 36.7289824,
    "lon": -3.9633043,
    "timestamp": "2022-05-20T13:15:00Z",
    "version": 7,
    "changeset": 121244705,
    "user": "The_Wanderer",
    "uid": 6367986,
    "tags": {
      "amenity": "restaurant",
      "check_date": "2021-10-09",
      "cuisine": "spanish;seafood;international",
      "name": "Chiringuito Alonso \"El Pionero\"",
      "outdoor_seating": "yes"
    }
  },
  {
    "type": "node",
    "id": 430879426,
    "lat": 36.7426897,
    "lon": -3.9090396,
    "timestamp": "2024-12-22T12:18:35Z",
    "version": 8,
    "changeset": 160499461,
    "user": "Đuro Jiří",
    "uid": 14617702,
    "tags": {
      "air_conditioning": "yes",
      "amenity": "restaurant",
      "check_date": "2024-12-22",
      "indoor_seating": "yes",
      "name": "Mirador de Güilche",
      "outdoor_seating": "yes",
      "wheelchair": "yes"
    }
  },
  {
    "type": "node",
    "id": 430879809,
    "lat": 36.7310265,
    "lon": -3.9735619,
    "timestamp": "2016-10-25T12:49:06Z",
    "version": 5,
    "changeset": 43157232,
    "user": "Dominique Hunink-Jansen",
    "uid": 4779865,
    "tags": {
      "amenity": "restaurant",
      "name": "Chiringuito Laguna"
    }
  },
  {
    "type": "node",
    "id": 430879848,
    "lat": 36.7290561,
    "lon": -3.9631414,
    "timestamp": "2023-11-28T14:33:21Z",
    "version": 8,
    "changeset": 144551626,
    "user": "The_Wanderer",
    "uid": 6367986,
    "tags": {
      "addr:city": "Torrox-Costa",
      "addr:postcode": "29793",
      "addr:street": "Paseo Maritimo",
      "amenity": "restaurant",
      "check_date:opening_hours": "2023-11-28",
      "cuisine": "spanish;tapas",
      "name": "Taberna El Tapeito",
      "opening_hours": "Tu-Su 12:00-23:00",
      "outdoor_seating": "yes"
    }
  },
  {
    "type": "node",
    "id": 431250005,
    "lat": 36.7421792,
    "lon": -3.8819167,
    "timestamp": "2022-04-18T18:09:53Z",
    "version": 7,
    "changeset": 119872398,
    "user": "gpesquero",
    "uid": 3584,
    "tags": {
      "amenity": "restaurant",
      "check_date": "2021-10-01",
      "cuisine": "regional",
      "name": "Chiringuito Torrecilla 3",
      "opening_hours": "Tu off",
      "phone": "+34 951 138 626"
    }
  },
  {
    "type": "node",
    "id": 431250007,
    "lat": 36.7423184,
    "lon": -3.8804047,
    "timestamp": "2021-10-25T17:15:44Z",
    "version": 12,
    "changeset": 112958557,
    "user": "Lübeck",
    "uid": 55462,
    "tags": {
      "amenity": "restaurant",
      "check_date": "2021-10-01",
      "cuisine": "italian",
      "name": "Vitaliano",
      "wheelchair": "limited"
    }
  },
  {
    "type": "node",
    "id": 431250008,
    "lat": 36.7424618,
    "lon": -3.8803715,
    "timestamp": "2021-08-09T07:45:29Z",
    "version": 11,
    "changeset": 109385413,
    "user": "kapazao",
    "uid": 7543375,
    "tags": {
      "amenity": "restaurant",
      "check_date": "2019-11-12",
      "cuisine": "italian",
      "name": "Da Vinci"
    }
  },
  {
    "type": "node",
    "id": 431250011,
    "lat": 36.7432935,
    "lon": -3.8803255,
    "timestamp": "2021-10-25T17:15:44Z",
    "version": 9,
    "changeset": 112958557,
    "user": "Lübeck",
    "uid": 55462,
    "tags": {
      "addr:city": "Nerja",
      "addr:housenumber": "19",
      "addr:postcode": "29780",
      "addr:street": "Avenida Castilla Pérez",
      "amenity": "restaurant",
      "check_date": "2021-10-01",
      "name": "Tai",
      "phone": "+34 665162319"
    }
  },
  {
    "type": "node",
    "id": 431250023,
    "lat": 36.7453913,
    "lon": -3.8813136,
    "timestamp": "2018-06-02T09:14:28Z",
    "version": 4,
    "changeset": 59480887,
    "user": "Lübeck",
    "uid": 55462,
    "tags": {
      "amenity": "restaurant",
      "check_date": "2018-06-02",
      "cuisine": "italian",
      "delivery": "yes",
      "name": "conect@.t"
    }
  },
  {
    "type": "node",
    "id": 431250046,
    "lat": 36.7419691,
    "lon": -3.883525,
    "timestamp": "2021-10-25T17:13:52Z",
    "version": 7,
    "changeset": 112958456,
    "user": "Lübeck",
    "uid": 55462,
    "tags": {
      "amenity": "restaurant",
      "check_date": "2021-10-01",
      "name": "Cobos"
    }
  },
  {
    "type": "node",
    "id": 486718066,
    "lat": 36.7386675,
    "lon": -3.7546089,
    "timestamp": "2018-04-16T21:17:02Z",
    "version": 4,
    "changeset": 58151669,
    "user": "Kalle CLOVER",
    "uid": 3404160,
    "tags": {
      "amenity": "restaurant",
      "name": "Chambao de Vicente"
    }
  },
  {
    "type": "node",
    "id": 535073499,
    "lat": 36.746188,
    "lon": -3.9041517,
    "timestamp": "2025-04-05T22:43:58Z",
    "version": 3,
    "changeset": 164570407,
    "user": "Thierry1030",
    "uid": 286563,
    "tags": {
      "amenity": "restaurant",
      "contact:website": "https://clubtropicananerja.net/bar-restaurant",
      "name": "Tropicana"
    }
  },
  {
    "type": "node",
    "id": 543661479,
    "lat": 36.7472293,
    "lon": -3.8798283,
    "timestamp": "2021-10-25T16:03:54Z",
    "version": 7,
    "changeset": 112954878,
    "user": "Lübeck",
    "uid": 55462,
    "tags": {
      "amenity": "restaurant",
      "check_date": "2021-10-01",
      "name": "Cafe Paris"
    }
  },
  {
    "type": "node",
    "id": 552368653,
    "lat": 36.8737776,
    "lon": -4.1847747,
    "timestamp": "2017-02-05T22:00:11Z",
    "version": 4,
    "changeset": 45841036,
    "user": "ss-suffolk",
    "uid": 1719617,
    "tags": {
      "amenity": "restaurant",
      "cuisine": "regional",
      "name": "Camping Presa del Viñuela"
    }
  },
  {
    "type": "node",
    "id": 559944409,
    "lat": 36.9612851,
    "lon": -3.3588041,
    "timestamp": "2022-01-01T19:48:19Z",
    "version": 6,
    "changeset": 115649265,
    "user": "gpesquero",
    "uid": 3584,
    "tags": {
      "amenity": "restaurant",
      "name": "Mesón Poqueira II",
      "tourism": "hotel"
    }
  },
  {
    "type": "node",
    "id": 579590817,
    "lat": 36.7450415,
    "lon": -3.8786702,
    "timestamp": "2023-10-16T17:40:45Z",
    "version": 14,
    "changeset": 142677089,
    "user": "b-jazz-bot",
    "uid": 9451067,
    "tags": {
      "addr:city": "Nerja",
      "addr:housenumber": "24-26",
      "addr:street": "Calle El Barrio",
      "amenity": "restaurant",
      "check_date": "2021-10-01",
      "cuisine": "mexican",
      "facebook": "https://www.facebook.com/pages/Cielito-Lindo/177739955577511",
      "image": "https://d1cuyjsrcm0gby.cloudfront.net/YMxHpnQPlTf7_5TVCmBD6w/thumb-2048.jpg",
      "mapillary": "534772934209186",
      "name": "Cielito Lindo",
      "phone": "+34 952 52 74 95",
      "website": "https://cielitolindo.es/"
    }
  },
  {
    "type": "node",
    "id": 602664181,
    "lat": 36.7491627,
    "lon": -4.0729297,
    "timestamp": "2010-10-18T06:55:21Z",
    "version": 2,
    "changeset": 6076975,
    "user": "Lübeck",
    "uid": 55462,
    "tags": {
      "amenity": "restaurant",
      "name": "Restaurante Puerto Blanco"
    }
  },
  {
    "type": "node",
    "id": 602664184,
    "lat": 36.7491515,
    "lon": -4.0731042,
    "timestamp": "2014-09-02T14:24:34Z",
    "version": 3,
    "changeset": 25183186,
    "user": "Lübeck",
    "uid": 55462,
    "tags": {
      "amenity": "restaurant",
      "name": "Restaurante Eclipse",
      "phone": "+34 952542391"
    }
  },
  {
    "type": "node",
    "id": 602842980,
    "lat": 36.7497325,
    "lon": -4.0671218,
    "timestamp": "2017-01-08T18:04:57Z",
    "version": 6,
    "changeset": 45007798,
    "user": "Parie",
    "uid": 246941,
    "tags": {
      "amenity": "restaurant",
      "name": "Bar Virutas"
    }
  },
  {
    "type": "node",
    "id": 603365420,
    "lat": 36.7497913,
    "lon": -4.0673107,
    "timestamp": "2012-10-23T06:59:42Z",
    "version": 2,
    "changeset": 13601579,
    "user": "rodrigo63",
    "uid": 173967,
    "tags": {
      "amenity": "restaurant",
      "name": "Bar La Prisa"
    }
  },
  {
    "type": "node",
    "id": 603365421,
    "lat": 36.7496721,
    "lon": -4.0668339,
    "timestamp": "2017-01-08T18:04:57Z",
    "version": 4,
    "changeset": 45007798,
    "user": "Parie",
    "uid": 246941,
    "tags": {
      "amenity": "restaurant",
      "cuisine": "pizza",
      "name": "Bar Los Poetas"
    }
  },
  {
    "type": "node",
    "id": 603365424,
    "lat": 36.7499431,
    "lon": -4.0672349,
    "timestamp": "2012-10-23T06:59:42Z",
    "version": 3,
    "changeset": 13601579,
    "user": "rodrigo63",
    "uid": 173967,
    "tags": {
      "amenity": "restaurant",
      "name": "Restaurante Manolo"
    }
  },
  {
    "type": "node",
    "id": 612403213,
    "lat": 36.7409563,
    "lon": -4.0919858,
    "timestamp": "2019-05-26T19:48:38Z",
    "version": 3,
    "changeset": 70640380,
    "user": "Parie",
    "uid": 246941,
    "tags": {
      "amenity": "restaurant",
      "name": "Bar Las Tablas"
    }
  },
  {
    "type": "node",
    "id": 612403286,
    "lat": 36.7484743,
    "lon": -4.0630823,
    "timestamp": "2024-12-22T20:55:56Z",
    "version": 6,
    "changeset": 160515325,
    "user": "Đuro Jiří",
    "uid": 14617702,
    "tags": {
      "addr:country": "ES",
      "amenity": "restaurant"
    }
  },
  {
    "type": "node",
    "id": 612403343,
    "lat": 36.7450306,
    "lon": -4.0463531,
    "timestamp": "2024-12-22T15:59:01Z",
    "version": 10,
    "changeset": 160506914,
    "user": "Đuro Jiří",
    "uid": 14617702,
    "tags": {
      "air_conditioning": "yes",
      "amenity": "restaurant",
      "check_date:opening_hours": "2024-12-22",
      "cuisine": "regional",
      "indoor_seating": "yes",
      "name": "La Bodega",
      "opening_hours:covid19": "off",
      "opening_hours:signed": "no",
      "outdoor_seating": "yes",
      "wheelchair": "yes"
    }
  },
  {
    "type": "node",
    "id": 612403345,
    "lat": 36.7448063,
    "lon": -4.0450478,
    "timestamp": "2024-12-22T15:58:55Z",
    "version": 8,
    "changeset": 160506914,
    "user": "Đuro Jiří",
    "uid": 14617702,
    "tags": {
      "air_conditioning": "yes",
      "amenity": "restaurant",
      "indoor_seating": "yes",
      "name": "Arrocería Varadero",
      "outdoor_seating": "yes",
      "wheelchair": "yes"
    }
  },
  {
    "type": "node",
    "id": 612403348,
    "lat": 36.7446199,
    "lon": -4.0418975,
    "timestamp": "2014-01-31T21:38:29Z",
    "version": 4,
    "changeset": 20307898,
    "user": "cdavila",
    "uid": 26599,
    "tags": {
      "addr:city": "Mezquitilla",
      "addr:country": "ES",
      "addr:housenumber": "72",
      "addr:postcode": "29750",
      "addr:street": "Carretera de Almería",
      "amenity": "restaurant",
      "name": "La Viuda",
      "phone": "+34 952551206"
    }
  },
  {
    "type": "node",
    "id": 726810355,
    "lat": 36.7281485,
    "lon": -3.9607261,
    "timestamp": "2023-12-04T12:00:38Z",
    "version": 9,
    "changeset": 144752272,
    "user": "The_Wanderer",
    "uid": 6367986,
    "tags": {
      "addr:city": "Torrox Costa",
      "addr:housenumber": "4",
      "addr:postcode": "29793",
      "addr:street": "Paseo Marítimo",
      "amenity": "restaurant",
      "check_date": "2022-05-26",
      "check_date:opening_hours": "2023-11-29",
      "contact:facebook": "https://www.facebook.com/ChiringuitoLaSorpresa",
      "cuisine": "spanish;international;seafood;tapas",
      "indoor_seating": "yes",
      "name": "La Sorpresa",
      "opening_hours": "12:30-19:00; We off",
      "outdoor_seating": "yes",
      "phone": "+34 647571960"
    }
  },
  {
    "type": "node",
    "id": 726810364,
    "lat": 36.7292822,
    "lon": -3.9641093,
    "timestamp": "2023-11-22T17:20:19Z",
    "version": 6,
    "changeset": 144335282,
    "user": "The_Wanderer",
    "uid": 6367986,
    "tags": {
      "addr:city": "Torrox-Costa",
      "addr:postcode": "29793",
      "addr:street": "Paseo Marítimo de Ferrara",
      "addr:unit": "Blq. 85",
      "amenity": "restaurant",
      "contact:facebook": "https://www.facebook.com/profile.php?id=100063734011248",
      "cuisine": "international",
      "email": "restaurantebellavista@hotmail.com",
      "name": "Bella Vista Restaurant",
      "outdoor_seating": "yes",
      "phone": "+34 632324250",
      "website": "https://bellavistarestaurantecom.wordpress.com"
    }
  },
  {
    "type": "node",
    "id": 726810392,
    "lat": 36.7285711,
    "lon": -3.9619163,
    "timestamp": "2024-02-14T11:48:12Z",
    "version": 9,
    "changeset": 147447403,
    "user": "kapazao_import",
    "uid": 8770019,
    "tags": {
      "addr:city": "Torrox-Costa",
      "addr:postcode": "29793",
      "addr:street": "Paseo Marítimo Ferrara",
      "amenity": "restaurant",
      "check_date": "2022-05-26",
      "contact:facebook": "https://www.facebook.com/Restaurante-El-Picadero-161483140570696/",
      "cuisine": "mediterranean",
      "name": "Restaurante El Picadero",
      "opening_hours": "Mo-Tu 12:30-23:00; Th-Su 12:30-23:00; Aug We 12:30-23:00",
      "phone": "+34 951 25 98 29",
      "wheelchair": "yes"
    }
  },
  {
    "type": "node",
    "id": 726810406,
    "lat": 36.7278999,
    "lon": -3.9597121,
    "timestamp": "2022-06-06T10:18:19Z",
    "version": 5,
    "changeset": 122017013,
    "user": "The_Wanderer",
    "uid": 6367986,
    "tags": {
      "addr:city": "Torrox-Costa",
      "addr:postcode": "29793",
      "addr:street": "Paseo Marítimo Ferrara",
      "amenity": "restaurant",
      "check_date": "2022-05-30",
      "contact:facebook": "https://www.facebook.com/restaurantelablancapaloma.torroxcosta",
      "cuisine": "spanish;international;seafood",
      "name": "La Blanca Paloma"
    }
  },
  {
    "type": "node",
    "id": 726810407,
    "lat": 36.7288364,
    "lon": -3.9627498,
    "timestamp": "2022-05-20T14:02:57Z",
    "version": 6,
    "changeset": 121246822,
    "user": "The_Wanderer",
    "uid": 6367986,
    "tags": {
      "amenity": "restaurant",
      "check_date": "2021-10-09",
      "contact:facebook": "https://www.facebook.com/ruspost",
      "name": "Restaurante Holiday Lounge",
      "outdoor_seating": "yes"
    }
  },
  {
    "type": "node",
    "id": 726810411,
    "lat": 36.7279965,
    "lon": -3.9602738,
    "timestamp": "2023-02-09T17:52:49Z",
    "version": 4,
    "changeset": 132320661,
    "user": "The_Wanderer",
    "uid": 6367986,
    "tags": {
      "amenity": "restaurant",
      "facebook": "https://www.facebook.com/ChiringuitoPepeRico/",
      "name": "Restaurante Pepe Rico",
      "outdoor_seating": "yes"
    }
  },
  {
    "type": "node",
    "id": 775371421,
    "lat": 36.7491921,
    "lon": -3.8755807,
    "timestamp": "2010-06-17T22:16:06Z",
    "version": 1,
    "changeset": 5012860,
    "user": "cliffcake",
    "uid": 117975,
    "tags": {
      "amenity": "restaurant",
      "name": "El Nino"
    }
  },
  {
    "type": "node",
    "id": 775371428,
    "lat": 36.7477239,
    "lon": -3.8758235,
    "timestamp": "2016-05-04T07:46:21Z",
    "version": 2,
    "changeset": 39089701,
    "user": "Kat4",
    "uid": 3913824,
    "tags": {
      "amenity": "restaurant",
      "name": "Dal Toscana moved to Pintada"
    }
  },
  {
    "type": "node",
    "id": 775715096,
    "lat": 36.9610655,
    "lon": -3.3583008,
    "timestamp": "2020-03-08T10:02:07Z",
    "version": 2,
    "changeset": 81918815,
    "user": "kapazao",
    "uid": 7543375,
    "tags": {
      "amenity": "restaurant",
      "name": "Moraima"
    }
  },
  {
    "type": "node",
    "id": 778689116,
    "lat": 36.7923447,
    "lon": -3.8962155,
    "timestamp": "2022-03-20T18:17:35Z",
    "version": 7,
    "changeset": 118706113,
    "user": "gpesquero",
    "uid": 3584,
    "tags": {
      "addr:housenumber": "29",
      "addr:postcode": "29788",
      "addr:street": "Calle Santo Cristo",
      "amenity": "restaurant",
      "name": "El Mirador",
      "name:es": "El Mirador",
      "opening_hours": "Th-Tu 13:00-21:00",
      "phone": "+34 952533291",
      "website": "http://mirador-frigiliana.com"
    }
  },
  {
    "type": "node",
    "id": 778689121,
    "lat": 36.793302,
    "lon": -3.8991582,
    "timestamp": "2013-10-24T08:10:45Z",
    "version": 3,
    "changeset": 18515535,
    "user": "Lübeck",
    "uid": 55462,
    "tags": {
      "amenity": "restaurant",
      "name": "La Bodeguilla"
    }
  },
  {
    "type": "node",
    "id": 783252930,
    "lat": 36.7400696,
    "lon": -3.9508613,
    "timestamp": "2024-06-08T11:04:45Z",
    "version": 2,
    "changeset": 152408967,
    "user": "Torroxian",
    "uid": 21636906,
    "tags": {
      "amenity": "restaurant",
      "name": "Pizzeria Roima"
    }
  },
  {
    "type": "node",
    "id": 833418421,
    "lat": 36.7793297,
    "lon": -3.896209,
    "timestamp": "2011-10-24T09:16:06Z",
    "version": 4,
    "changeset": 9641477,
    "user": "Lübeck",
    "uid": 55462,
    "tags": {
      "amenity": "restaurant",
      "name": "Carlos Molineta",
      "note": "approxmiate",
      "source": "survey"
    }
  },
  {
    "type": "node",
    "id": 874188672,
    "lat": 36.7046829,
    "lon": -3.4913462,
    "timestamp": "2016-06-28T22:08:02Z",
    "version": 2,
    "changeset": 40353865,
    "user": "migonso",
    "uid": 3103168,
    "tags": {
      "amenity": "restaurant",
      "name": "Mesón del Jamón"
    }
  },
  {
    "type": "node",
    "id": 884888417,
    "lat": 36.75596,
    "lon": -3.6893311,
    "timestamp": "2019-11-22T00:26:37Z",
    "version": 4,
    "changeset": 77401670,
    "user": "kapazao",
    "uid": 7543375,
    "tags": {
      "addr:city": "Almuñecar",
      "addr:housenumber": "18",
      "addr:postcode": "18690",
      "addr:street": "Carretera del Suspiro",
      "amenity": "restaurant",
      "name": "Venta Luciano",
      "phone": "+34 958631379"
    }
  },
  {
    "type": "node",
    "id": 920130070,
    "lat": 36.7449294,
    "lon": -3.8774488,
    "timestamp": "2016-06-07T11:27:01Z",
    "version": 4,
    "changeset": 39858949,
    "user": "Lübeck",
    "uid": 55462,
    "tags": {
      "amenity": "restaurant",
      "check_date": "2016-05-25",
      "name": "MarBella"
    }
  },
  {
    "type": "node",
    "id": 937064577,
    "lat": 36.8329855,
    "lon": -3.9747832,
    "timestamp": "2020-12-05T18:52:23Z",
    "version": 3,
    "changeset": 95344838,
    "user": "obyrnegps",
    "uid": 4399594,
    "tags": {
      "addr:city": "Cómpeta",
      "addr:street": "Plaza Almijara",
      "amenity": "restaurant",
      "name": "Perico"
    }
  },
  {
    "type": "node",
    "id": 937064763,
    "lat": 36.835304,
    "lon": -3.9774976,
    "timestamp": "2023-12-03T20:14:18Z",
    "version": 3,
    "changeset": 144731357,
    "user": "Parie",
    "uid": 246941,
    "tags": {
      "amenity": "restaurant",
      "name": "Cortijo Paco"
    }
  },
  {
    "type": "node",
    "id": 937078622,
    "lat": 36.9247356,
    "lon": -4.1736806,
    "timestamp": "2010-10-03T19:17:41Z",
    "version": 1,
    "changeset": 5947674,
    "user": "gormur",
    "uid": 103253,
    "tags": {
      "amenity": "restaurant",
      "name": "Cantueso"
    }
  },
  {
    "type": "node",
    "id": 976510920,
    "lat": 36.7613994,
    "lon": -3.8473925,
    "timestamp": "2023-11-19T21:01:37Z",
    "version": 3,
    "changeset": 144223068,
    "user": "Ulfhetnar",
    "uid": 638261,
    "tags": {
      "amenity": "restaurant",
      "check_date": "2023-11-17",
      "name": "Restaurante Puente Aguila",
      "name:es": "Restaurante Puente Aguila"
    }
  },
  {
    "type": "node",
    "id": 978011951,
    "lat": 36.7446562,
    "lon": -3.788042,
    "timestamp": "2017-07-16T18:16:51Z",
    "version": 2,
    "changeset": 50331928,
    "user": "klaberlang",
    "uid": 3048815,
    "tags": {
      "amenity": "restaurant",
      "name": "Las piedras",
      "name:es": "Las piedras"
    }
  },
  {
    "type": "node",
    "id": 978445260,
    "lat": 36.7431293,
    "lon": -4.0163468,
    "timestamp": "2023-02-03T14:58:43Z",
    "version": 4,
    "changeset": 132045337,
    "user": "Đuro Jiří",
    "uid": 14617702,
    "tags": {
      "amenity": "restaurant",
      "name": "El Molino",
      "wheelchair": "yes"
    }
  },
  {
    "type": "node",
    "id": 997700806,
    "lat": 36.7460747,
    "lon": -3.8757713,
    "timestamp": "2021-10-25T17:03:27Z",
    "version": 5,
    "changeset": 112957898,
    "user": "Lübeck",
    "uid": 55462,
    "tags": {
      "addr:city": "Nerja",
      "addr:housenumber": "5",
      "addr:street": "Calle Almirante Ferrándiz",
      "amenity": "restaurant",
      "check_date": "2021-10-01",
      "name": "La Taberna"
    }
  },
  {
    "type": "node",
    "id": 997703611,
    "lat": 36.7466106,
    "lon": -3.8755106,
    "timestamp": "2021-10-25T16:12:34Z",
    "version": 5,
    "changeset": 112955245,
    "user": "Lübeck",
    "uid": 55462,
    "tags": {
      "addr:city": "Nerja",
      "addr:housenumber": "26",
      "addr:street": "Calle Almirante Ferrándiz",
      "amenity": "restaurant",
      "check_date": "2021-10-01",
      "description": "Tapas Bar & Restaurant",
      "name": "El Pulguilla"
    }
  },
  {
    "type": "node",
    "id": 997711463,
    "lat": 36.7470722,
    "lon": -3.8760062,
    "timestamp": "2022-04-17T14:48:56Z",
    "version": 4,
    "changeset": 119819692,
    "user": "gpesquero",
    "uid": 3584,
    "tags": {
      "amenity": "restaurant",
      "check_date": "2019-11-10",
      "name": "Paco Mari"
    }
  },
  {
    "type": "node",
    "id": 997717639,
    "lat": 36.7469916,
    "lon": -3.8755778,
    "timestamp": "2023-02-28T12:48:14Z",
    "version": 7,
    "changeset": 133127364,
    "user": "mobip",
    "uid": 2983,
    "tags": {
      "amenity": "restaurant",
      "check_date": "2019-11-10",
      "cuisine": "spanish",
      "name": "Sevillano",
      "website": "https://www.sevillanonerja.es/"
    }
  },
  {
    "type": "node",
    "id": 997719653,
    "lat": 36.7468256,
    "lon": -3.8754724,
    "timestamp": "2014-08-18T14:59:15Z",
    "version": 2,
    "changeset": 24835278,
    "user": "Aaco",
    "uid": 1868925,
    "tags": {
      "amenity": "restaurant",
      "name": "Pepe Rico",
      "note": "Pepe Rico is a fine traditional Spanish restaurant in Nerja's main eating zone"
    }
  },
  {
    "type": "node",
    "id": 1057385149,
    "lat": 36.7457998,
    "lon": -3.8799619,
    "timestamp": "2024-01-24T17:33:00Z",
    "version": 13,
    "changeset": 146639777,
    "user": "faith_in_chaos",
    "uid": 3428207,
    "tags": {
      "addr:city": "Nerja",
      "addr:housenumber": "20",
      "addr:postcode": "29780",
      "addr:street": "Calle Castilla Pérez",
      "amenity": "restaurant",
      "check_date": "2021-10-01",
      "cuisine": "fish;fish_and_chips",
      "name": "La Marina Marisqueria",
      "opening_hours": "Mo, We, Th, Fr, Sa, Su 12:00-16:30,20:00-23:30; Tu 12:00-16:30",
      "payment:cash": "yes",
      "payment:credit_card": "yes",
      "website": "https://la-marina-marisqueria.negocio.site/"
    }
  },
  {
    "type": "node",
    "id": 1107551368,
    "lat": 36.7368054,
    "lon": -3.9889799,
    "timestamp": "2023-02-03T16:45:18Z",
    "version": 5,
    "changeset": 132048680,
    "user": "Đuro Jiří",
    "uid": 14617702,
    "tags": {
      "amenity": "restaurant",
      "check_date:opening_hours": "2023-02-03",
      "indoor_seating": "no",
      "name": "Cacola",
      "opening_hours:signed": "no",
      "outdoor_seating": "yes",
      "wheelchair": "yes"
    }
  },
  {
    "type": "node",
    "id": 1119698098,
    "lat": 36.7447399,
    "lon": -3.9003772,
    "timestamp": "2011-01-25T08:39:37Z",
    "version": 1,
    "changeset": 7081314,
    "user": "Lübeck",
    "uid": 55462,
    "tags": {
      "amenity": "restaurant",
      "name": "First",
      "website": "http://www.firstnerja.com/"
    }
  },
  {
    "type": "node",
    "id": 1119700645,
    "lat": 36.750163,
    "lon": -3.8681676,
    "timestamp": "2018-06-05T17:58:22Z",
    "version": 2,
    "changeset": 59577033,
    "user": "Lübeck",
    "uid": 55462,
    "tags": {
      "amenity": "restaurant",
      "check_date": "2018-06-05",
      "name": "Jose Cruz"
    }
  },
  {
    "type": "node",
    "id": 1129254190,
    "lat": 36.7304498,
    "lon": -3.9689379,
    "timestamp": "2011-01-31T09:12:12Z",
    "version": 1,
    "changeset": 7143149,
    "user": "Lübeck",
    "uid": 55462,
    "tags": {
      "amenity": "restaurant",
      "cuisine": "chinese",
      "name": "Jing"
    }
  },
  {
    "type": "node",
    "id": 1129254227,
    "lat": 36.7313905,
    "lon": -3.9749346,
    "timestamp": "2016-10-25T12:48:51Z",
    "version": 2,
    "changeset": 43157232,
    "user": "Dominique Hunink-Jansen",
    "uid": 4779865,
    "tags": {
      "amenity": "restaurant",
      "name": "Chiringuito Mambo"
    }
  },
  {
    "type": "node",
    "id": 1130987597,
    "lat": 36.7329628,
    "lon": -3.9401778,
    "timestamp": "2024-12-22T12:55:22Z",
    "version": 4,
    "changeset": 160499461,
    "user": "Đuro Jiří",
    "uid": 14617702,
    "tags": {
      "air_conditioning": "yes",
      "amenity": "restaurant",
      "check_date": "2024-12-22",
      "indoor_seating": "yes",
      "name": "Almanzor",
      "outdoor_seating": "yes",
      "phone": "+34 656189843"
    }
  },
  {
    "type": "node",
    "id": 1281313922,
    "lat": 36.7906832,
    "lon": -3.8963509,
    "timestamp": "2011-08-06T14:42:22Z",
    "version": 4,
    "changeset": 8937606,
    "user": "adjuva",
    "uid": 92274,
    "tags": {
      "amenity": "restaurant",
      "name": "Sal y Pimienta",
      "opening_hours": "Mo-Tu 11:00-23:00;Th-Su 11:00-23:00",
      "phone": "+34 666618206"
    }
  },
  {
    "type": "node",
    "id": 1290221483,
    "lat": 36.7425296,
    "lon": -3.8839305,
    "timestamp": "2021-10-25T17:13:52Z",
    "version": 9,
    "changeset": 112958456,
    "user": "Lübeck",
    "uid": 55462,
    "tags": {
      "amenity": "restaurant",
      "check_date": "2021-10-01",
      "cuisine": "italian",
      "name": "Made in Italy"
    }
  },
  {
    "type": "node",
    "id": 1309281374,
    "lat": 36.8417599,
    "lon": -4.2721572,
    "timestamp": "2021-11-09T18:43:36Z",
    "version": 4,
    "changeset": 113578885,
    "user": "Parie",
    "uid": 246941,
    "tags": {
      "addr:housename": "Los Ventorros",
      "amenity": "restaurant",
      "cuisine": "spanish",
      "name": "Bar Restaurante El Molino",
      "phone": "+34 606 409 649"
    }
  },
  {
    "type": "node",
    "id": 1341065739,
    "lat": 36.7342592,
    "lon": -3.6860891,
    "timestamp": "2022-12-23T12:52:25Z",
    "version": 5,
    "changeset": 130420660,
    "user": "kapazao",
    "uid": 7543375,
    "tags": {
      "amenity": "restaurant",
      "cuisine": "spanish",
      "internet_access": "wlan",
      "name": "Mesón El Corzo"
    }
  },
  {
    "type": "node",
    "id": 1383033708,
    "lat": 36.7160544,
    "lon": -4.1798073,
    "timestamp": "2025-01-23T17:19:17Z",
    "version": 4,
    "changeset": 161682908,
    "user": "zxwzxwzxw",
    "uid": 22048470,
    "tags": {
      "addr:postcode": "29790",
      "addr:street": "N-340A",
      "alt_name": "Casa Matilda",
      "amenity": "restaurant",
      "cuisine": "spanish",
      "name": "La Plata. Casa Matilde",
      "source": "Local knowledge"
    }
  },
  {
    "type": "node",
    "id": 1383084694,
    "lat": 36.7154403,
    "lon": -4.2006902,
    "timestamp": "2013-04-21T19:58:26Z",
    "version": 9,
    "changeset": 15816078,
    "user": "Robert Whittaker",
    "uid": 84263,
    "tags": {
      "amenity": "restaurant",
      "name": "Esperanza",
      "source": "Local knowledge",
      "tourism": "hotel"
    }
  },
  {
    "type": "node",
    "id": 1386079324,
    "lat": 36.7184815,
    "lon": -4.1684797,
    "timestamp": "2016-12-22T08:30:26Z",
    "version": 4,
    "changeset": 44585117,
    "user": "Parie",
    "uid": 246941,
    "tags": {
      "addr:street": "N-340A",
      "amenity": "restaurant",
      "cuisine": "spanish",
      "name": "Puero Nizza",
      "source": "Local knowledge"
    }
  },
  {
    "type": "node",
    "id": 1400856597,
    "lat": 36.9726386,
    "lon": -4.1414452,
    "timestamp": "2019-04-24T12:19:46Z",
    "version": 2,
    "changeset": 69523766,
    "user": "kapazao",
    "uid": 7543375,
    "tags": {
      "addr:city": "Zafarraya",
      "addr:postcode": "18128",
      "addr:street": "Calle Dolores Ibárruri",
      "amenity": "restaurant",
      "cuisine": "spanish",
      "name": "Bar Ramón"
    }
  },
  {
    "type": "node",
    "id": 1404652362,
    "lat": 36.7432574,
    "lon": -3.8830465,
    "timestamp": "2021-10-25T17:13:52Z",
    "version": 5,
    "changeset": 112958456,
    "user": "Lübeck",
    "uid": 55462,
    "tags": {
      "amenity": "restaurant",
      "check_date": "2021-10-01",
      "name": "The Escape"
    }
  },
  {
    "type": "node",
    "id": 1428655847,
    "lat": 36.9614831,
    "lon": -3.3596703,
    "timestamp": "2022-03-01T18:34:20Z",
    "version": 6,
    "changeset": 117990222,
    "user": "gpesquero",
    "uid": 3584,
    "tags": {
      "amenity": "restaurant",
      "cuisine": "pizza",
      "name": "La Pizzería",
      "opening_hours": "We-Mo 12:00-16:00,19:30-23:30",
      "phone": "+34 958 76 33 04"
    }
  },
  {
    "type": "node",
    "id": 1429789532,
    "lat": 36.9619847,
    "lon": -3.3597714,
    "timestamp": "2019-07-16T20:28:28Z",
    "version": 6,
    "changeset": 72322396,
    "user": "kapazao",
    "uid": 7543375,
    "tags": {
      "addr:city": "Capileira",
      "addr:housenumber": "16",
      "addr:postcode": "18413",
      "addr:street": "Plaza Calvario",
      "amenity": "restaurant",
      "name": "El Corral del Castaño",
      "phone": "+34 958 763414"
    }
  },
  {
    "type": "node",
    "id": 1482521570,
    "lat": 36.7109433,
    "lon": -4.2528718,
    "timestamp": "2023-02-02T14:23:40Z",
    "version": 13,
    "changeset": 132005583,
    "user": "Đuro Jiří",
    "uid": 14617702,
    "tags": {
      "amenity": "restaurant",
      "cuisine": "spanish",
      "indoor_seating": "yes",
      "name": "El Oasis",
      "outdoor_seating": "yes",
      "source": "Local knowledge"
    }
  },
  {
    "type": "node",
    "id": 1507673489,
    "lat": 36.7452613,
    "lon": -4.0438867,
    "timestamp": "2011-11-18T18:44:36Z",
    "version": 1,
    "changeset": 9866634,
    "user": "Picaldi",
    "uid": 508190,
    "tags": {
      "amenity": "restaurant",
      "name": "Restaurante El Yantar"
    }
  },
  {
    "type": "node",
    "id": 1550930452,
    "lat": 36.8385339,
    "lon": -3.9912505,
    "timestamp": "2016-08-12T08:49:54Z",
    "version": 2,
    "changeset": 41405998,
    "user": "Parie",
    "uid": 246941,
    "tags": {
      "amenity": "restaurant",
      "name": "Bar La Pena"
    }
  },
  {
    "type": "node",
    "id": 1620257811,
    "lat": 36.7492442,
    "lon": -4.0958939,
    "timestamp": "2012-02-06T13:34:30Z",
    "version": 1,
    "changeset": 10602875,
    "user": "andelfe",
    "uid": 600350,
    "tags": {
      "amenity": "restaurant",
      "cuisine": "spanish",
      "name": "Restaurante Bracamonte"
    }
  },
  {
    "type": "node",
    "id": 1660330218,
    "lat": 36.7359374,
    "lon": -3.6864871,
    "timestamp": "2023-02-15T12:15:09Z",
    "version": 2,
    "changeset": 132577365,
    "user": "wheelmap_visitor",
    "uid": 290680,
    "tags": {
      "amenity": "restaurant",
      "cuisine": "chinese",
      "wheelchair": "yes"
    }
  },
  {
    "type": "node",
    "id": 1660330248,
    "lat": 36.7356149,
    "lon": -3.684395,
    "timestamp": "2012-03-05T10:01:13Z",
    "version": 1,
    "changeset": 10877430,
    "user": "Mike_TropiRed",
    "uid": 617395,
    "tags": {
      "amenity": "restaurant",
      "cuisine": "asian"
    }
  },
  {
    "type": "node",
    "id": 1661409094,
    "lat": 36.7325397,
    "lon": -3.6892212,
    "timestamp": "2017-02-03T20:21:37Z",
    "version": 2,
    "changeset": 45789345,
    "user": "TNTN",
    "uid": 372227,
    "tags": {
      "amenity": "restaurant"
    }
  },
  {
    "type": "node",
    "id": 1668473976,
    "lat": 36.7388899,
    "lon": -3.6893986,
    "timestamp": "2012-03-11T09:59:07Z",
    "version": 2,
    "changeset": 10940734,
    "user": "Mike_TropiRed",
    "uid": 617395,
    "tags": {
      "amenity": "restaurant",
      "cuisine": "spanish"
    }
  },
  {
    "type": "node",
    "id": 1707442620,
    "lat": 36.7244896,
    "lon": -3.5287363,
    "timestamp": "2016-01-12T22:08:21Z",
    "version": 3,
    "changeset": 36539575,
    "user": "Mecki",
    "uid": 330055,
    "tags": {
      "amenity": "restaurant",
      "name": "Restaurante Real Club Náutico de Motril"
    }
  },
  {
    "type": "node",
    "id": 1714143878,
    "lat": 36.7149877,
    "lon": -4.2933986,
    "timestamp": "2023-10-15T09:58:11Z",
    "version": 10,
    "changeset": 142610151,
    "user": "b-jazz-bot",
    "uid": 9451067,
    "tags": {
      "addr:postcode": "29730",
      "addr:street": "Calle del Túnel",
      "amenity": "restaurant",
      "cuisine": "international",
      "indoor_seating": "yes",
      "name": "Mulse",
      "nohousenumber": "yes",
      "outdoor_seating": "yes",
      "source": "Local knowledge",
      "toilets:wheelchair": "yes",
      "website": "https://www.mulse.es/",
      "wheelchair": "yes"
    }
  },
  {
    "type": "node",
    "id": 1714592298,
    "lat": 36.7122536,
    "lon": -4.2507444,
    "timestamp": "2012-04-20T16:15:17Z",
    "version": 4,
    "changeset": 11365395,
    "user": "jumanm",
    "uid": 658400,
    "tags": {
      "addr:housenumber": "113",
      "addr:postcode": "29730",
      "addr:street": "Avenida de la Torre",
      "amenity": "restaurant",
      "cuisine": "steak_house",
      "name": "La Carreta",
      "source": "Local knowledge"
    }
  },
  {
    "type": "node",
    "id": 1714767795,
    "lat": 36.7148596,
    "lon": -4.2800341,
    "timestamp": "2012-04-13T17:00:35Z",
    "version": 1,
    "changeset": 11287978,
    "user": "jumanm",
    "uid": 658400,
    "tags": {
      "addr:housenumber": "1",
      "addr:postcode": "29730",
      "addr:street": "Poeta Manuel Alcantara",
      "amenity": "restaurant",
      "cuisine": "chinese",
      "designation": "Restaurante chino",
      "name": "Mira Sol",
      "source": "Local knowledge"
    }
  },
  {
    "type": "node",
    "id": 1714796060,
    "lat": 36.714937,
    "lon": -4.2842345,
    "timestamp": "2017-08-11T05:34:32Z",
    "version": 4,
    "changeset": 51020805,
    "user": "Parie",
    "uid": 246941,
    "tags": {
      "addr:housenumber": "122",
      "addr:postcode": "29730",
      "addr:street": "Avenida del Mediterráneo",
      "amenity": "restaurant",
      "cuisine": "greek",
      "name": "Katogui",
      "source": "Local knowledge"
    }
  },
  {
    "type": "node",
    "id": 1718120521,
    "lat": 36.7124904,
    "lon": -4.2642967,
    "timestamp": "2017-08-11T05:34:32Z",
    "version": 3,
    "changeset": 51020805,
    "user": "Parie",
    "uid": 246941,
    "tags": {
      "addr:housenumber": "28",
      "addr:postcode": "29730",
      "addr:street": "Avenida de la Torre",
      "amenity": "restaurant",
      "cuisine": "seafood",
      "designation": "Restaurante",
      "name": "Rincon de Miguel",
      "source": "Local knowledge"
    }
  },
  {
    "type": "node",
    "id": 1724398052,
    "lat": 36.7132645,
    "lon": -4.2706967,
    "timestamp": "2012-04-20T17:54:19Z",
    "version": 2,
    "changeset": 11365395,
    "user": "jumanm",
    "uid": 658400,
    "tags": {
      "amenity": "restaurant",
      "cuisine": "seafood",
      "designation": "Chiringuito",
      "name": "Casa Paca",
      "source": "Local knowledge"
    }
  },
  {
    "type": "node",
    "id": 1739162249,
    "lat": 36.7452309,
    "lon": -3.8767605,
    "timestamp": "2018-05-26T05:19:37Z",
    "version": 6,
    "changeset": 59286940,
    "user": "Lübeck",
    "uid": 55462,
    "tags": {
      "amenity": "restaurant",
      "check_date": "2018-05-26",
      "cuisine": "pizza",
      "name": "El Merendón"
    }
  },
  {
    "type": "node",
    "id": 1753943507,
    "lat": 36.743917,
    "lon": -3.8790994,
    "timestamp": "2022-04-18T18:09:53Z",
    "version": 4,
    "changeset": 119872398,
    "user": "gpesquero",
    "uid": 3584,
    "tags": {
      "amenity": "restaurant",
      "check_date": "2018-05-28",
      "name": "Meson Andaluz Vicente"
    }
  },
  {
    "type": "node",
    "id": 1818868447,
    "lat": 36.8329168,
    "lon": -3.974864,
    "timestamp": "2019-11-19T11:39:32Z",
    "version": 5,
    "changeset": 77272212,
    "user": "obyrnegps",
    "uid": 4399594,
    "tags": {
      "amenity": "restaurant",
      "name": "Casa Paco"
    }
  },
  {
    "type": "node",
    "id": 1825348442,
    "lat": 36.8793209,
    "lon": -4.2523844,
    "timestamp": "2018-03-17T15:07:21Z",
    "version": 2,
    "changeset": 57269071,
    "user": "Parie",
    "uid": 246941,
    "tags": {
      "amenity": "restaurant",
      "name": "Bar Ortega"
    }
  },
  {
    "type": "node",
    "id": 1834376214,
    "lat": 36.8657315,
    "lon": -4.2353501,
    "timestamp": "2021-11-10T22:38:12Z",
    "version": 4,
    "changeset": 113628625,
    "user": "Parie",
    "uid": 246941,
    "tags": {
      "amenity": "restaurant",
      "name": "Bar Marin"
    }
  },
  {
    "type": "node",
    "id": 1846832606,
    "lat": 36.8667244,
    "lon": -4.1905266,
    "timestamp": "2023-03-05T18:08:02Z",
    "version": 3,
    "changeset": 133335700,
    "user": "Parie",
    "uid": 246941,
    "tags": {
      "amenity": "restaurant",
      "cuisine": "regional",
      "name": "Venta El Charco",
      "name:es": "Venta El Charco"
    }
  },
  {
    "type": "node",
    "id": 1865768080,
    "lat": 36.929777,
    "lon": -3.3229123,
    "timestamp": "2018-04-02T11:48:37Z",
    "version": 3,
    "changeset": 57737029,
    "user": "Juanma Gomez",
    "uid": 8033568,
    "tags": {
      "amenity": "restaurant",
      "cuisine": "spanish",
      "name": "Aljibe",
      "source": "visit"
    }
  },
  {
    "type": "node",
    "id": 1919978135,
    "lat": 36.7334408,
    "lon": -4.1750923,
    "timestamp": "2017-01-06T17:19:40Z",
    "version": 4,
    "changeset": 44959489,
    "user": "Parie",
    "uid": 246941,
    "tags": {
      "amenity": "restaurant",
      "cuisine": "spanish",
      "name": "El Paso",
      "source": "GPS camera Parie 2017"
    }
  },
  {
    "type": "node",
    "id": 1979022133,
    "lat": 36.740073,
    "lon": -4.0920652,
    "timestamp": "2013-01-11T15:43:35Z",
    "version": 2,
    "changeset": 14611576,
    "user": "Lübeck",
    "uid": 55462,
    "tags": {
      "amenity": "restaurant",
      "name": "Safari Lounge"
    }
  },
  {
    "type": "node",
    "id": 1983865272,
    "lat": 36.74617,
    "lon": -4.0533687,
    "timestamp": "2024-12-22T16:22:44Z",
    "version": 6,
    "changeset": 160506914,
    "user": "Đuro Jiří",
    "uid": 14617702,
    "tags": {
      "air_conditioning": "yes",
      "amenity": "restaurant",
      "check_date": "2024-12-22",
      "indoor_seating": "yes",
      "name": "Pippo",
      "outdoor_seating": "yes",
      "wheelchair": "yes"
    }
  },
  {
    "type": "node",
    "id": 2030037241,
    "lat": 36.8456103,
    "lon": -3.9870129,
    "timestamp": "2024-03-22T17:13:57Z",
    "version": 8,
    "changeset": 149023465,
    "user": "obyrnegps",
    "uid": 4399594,
    "tags": {
      "addr:city": "Canillas de Albaida",
      "addr:postcode": "29755",
      "addr:street": "Calle de la Estación",
      "amenity": "restaurant",
      "check_date": "2016-05-23",
      "cuisine": "spanish",
      "name": "Restaurante Bar Cerezo",
      "smoking": "outside"
    }
  },
  {
    "type": "node",
    "id": 2030225628,
    "lat": 36.8321718,
    "lon": -3.9724851,
    "timestamp": "2019-11-08T10:13:54Z",
    "version": 2,
    "changeset": 76800236,
    "user": "obyrnegps",
    "uid": 4399594,
    "tags": {
      "amenity": "restaurant",
      "cuisine": "spanish",
      "name": "Las Gemelas",
      "source": "observation 22 Nov 2012"
    }
  },
  {
    "type": "node",
    "id": 2102550833,
    "lat": 36.8144966,
    "lon": -4.0456201,
    "timestamp": "2019-04-01T08:47:37Z",
    "version": 2,
    "changeset": 68742949,
    "user": "wheelmap_visitor",
    "uid": 290680,
    "tags": {
      "amenity": "restaurant",
      "name": "Cafe & Bar Alhambra",
      "wheelchair": "limited"
    }
  },
  {
    "type": "node",
    "id": 2114139257,
    "lat": 36.7512072,
    "lon": -3.8658884,
    "timestamp": "2021-08-12T09:15:14Z",
    "version": 3,
    "changeset": 109560136,
    "user": "kapazao",
    "uid": 7543375,
    "tags": {
      "amenity": "restaurant",
      "check_date": "2018-06-05",
      "email": "ayo@ayonerja.com",
      "name": "La Parrala \"Ayo\"",
      "phone": "+34 952522289",
      "website": "https://www.ayonerja.com"
    }
  },
  {
    "type": "node",
    "id": 2117687600,
    "lat": 36.725176,
    "lon": -4.2708452,
    "timestamp": "2013-01-18T13:10:26Z",
    "version": 1,
    "changeset": 14696068,
    "user": "Manuel González de Gor Casares",
    "uid": 1203836,
    "tags": {
      "amenity": "restaurant",
      "cuisine": "spanish",
      "name": "Venta los Morenos"
    }
  },
  {
    "type": "node",
    "id": 2117689329,
    "lat": 36.726266,
    "lon": -4.258161,
    "timestamp": "2013-01-18T13:13:14Z",
    "version": 1,
    "changeset": 14696068,
    "user": "Manuel González de Gor Casares",
    "uid": 1203836,
    "tags": {
      "amenity": "restaurant",
      "cuisine": "spanish",
      "name": "Meson Casa de la Abuela"
    }
  },
  {
    "type": "node",
    "id": 2117694952,
    "lat": 36.7255243,
    "lon": -4.2548914,
    "timestamp": "2022-07-27T20:52:55Z",
    "version": 2,
    "changeset": 124157958,
    "user": "Dani CS",
    "uid": 56987,
    "tags": {
      "amenity": "restaurant",
      "cuisine": "spanish",
      "name": "Restaurante El Reservado de Toni"
    }
  },
  {
    "type": "node",
    "id": 2119131132,
    "lat": 36.7107487,
    "lon": -4.2516156,
    "timestamp": "2023-02-02T14:23:42Z",
    "version": 5,
    "changeset": 131999724,
    "user": "Đuro Jiří",
    "uid": 14617702,
    "tags": {
      "amenity": "restaurant",
      "indoor_seating": "yes",
      "name": "Marina Playa",
      "outdoor_seating": "yes",
      "source": "Local Knowledge",
      "wheelchair": "yes"
    }
  },
  {
    "type": "node",
    "id": 2119132178,
    "lat": 36.7126151,
    "lon": -4.2696802,
    "timestamp": "2023-02-02T14:09:20Z",
    "version": 6,
    "changeset": 132005033,
    "user": "Đuro Jiří",
    "uid": 14617702,
    "tags": {
      "air_conditioning": "no",
      "amenity": "restaurant",
      "indoor_seating": "yes",
      "name": "Mar de Fondo",
      "outdoor_seating": "yes",
      "wheelchair": "yes"
    }
  },
  {
    "type": "node",
    "id": 2154168776,
    "lat": 36.7508418,
    "lon": -3.8676096,
    "timestamp": "2022-01-27T15:42:23Z",
    "version": 3,
    "changeset": 116672155,
    "user": "Lübeck",
    "uid": 55462,
    "tags": {
      "amenity": "restaurant",
      "check_date": "2021-09-30",
      "cuisine": "italian",
      "name": "Santo"
    }
  },
  {
    "type": "node",
    "id": 2154168777,
    "lat": 36.7506718,
    "lon": -3.8679317,
    "timestamp": "2022-01-27T15:42:23Z",
    "version": 4,
    "changeset": 116672155,
    "user": "Lübeck",
    "uid": 55462,
    "tags": {
      "amenity": "restaurant",
      "check_date": "2021-09-30",
      "name": "Paco \"El Churretero\""
    }
  },
  {
    "type": "node",
    "id": 2154168784,
    "lat": 36.7511922,
    "lon": -3.8668347,
    "timestamp": "2022-01-27T15:42:23Z",
    "version": 3,
    "changeset": 116672155,
    "user": "Lübeck",
    "uid": 55462,
    "tags": {
      "amenity": "restaurant",
      "check_date": "2021-09-30",
      "cuisine": "spanish",
      "name": "Raw"
    }
  },
  {
    "type": "node",
    "id": 2154168791,
    "lat": 36.750645,
    "lon": -3.8680299,
    "timestamp": "2022-01-27T15:42:23Z",
    "version": 3,
    "changeset": 116672155,
    "user": "Lübeck",
    "uid": 55462,
    "tags": {
      "amenity": "restaurant",
      "check_date": "2021-09-30",
      "cuisine": "italian",
      "name": "La Gastronomia"
    }
  },
  {
    "type": "node",
    "id": 2159764101,
    "lat": 36.7954838,
    "lon": -3.6678591,
    "timestamp": "2020-03-16T09:10:28Z",
    "version": 2,
    "changeset": 82248650,
    "user": "kapazao",
    "uid": 7543375,
    "tags": {
      "addr:city": "Jete",
      "addr:housenumber": "10",
      "addr:postcode": "18699",
      "addr:street": "Carretera Suspiro del Moro",
      "amenity": "restaurant",
      "name": "Casa Juan",
      "phone": "+34 958 64 52 22",
      "source": "https://ayuntamientojete.es/servicios/"
    }
  },
  {
    "type": "node",
    "id": 2159768857,
    "lat": 36.7381619,
    "lon": -3.7765744,
    "timestamp": "2019-07-16T20:28:28Z",
    "version": 5,
    "changeset": 72322396,
    "user": "kapazao",
    "uid": 7543375,
    "tags": {
      "addr:city": "La Herradura",
      "addr:postcode": "18697",
      "addr:street": "Playa Cantarriján",
      "amenity": "restaurant",
      "capacity": "200",
      "cuisine": "mediterranean",
      "delivery": "no",
      "email": "labarracacantarrijan@gmail.com",
      "name": "La Barraca",
      "opening_hours": "10:00-23:00",
      "outdoor_seating": "yes",
      "phone": "+34 958 34 98 97",
      "website": "https://www.restaurantelabarraca.es"
    }
  },
  {
    "type": "node",
    "id": 2262640556,
    "lat": 36.7149561,
    "lon": -4.2844119,
    "timestamp": "2017-08-11T05:34:33Z",
    "version": 3,
    "changeset": 51020805,
    "user": "Parie",
    "uid": 246941,
    "tags": {
      "amenity": "restaurant",
      "cuisine": "spanish",
      "name": "Los Campanillas"
    }
  },
  {
    "type": "node",
    "id": 2368321887,
    "lat": 36.7493731,
    "lon": -3.8725386,
    "timestamp": "2014-08-31T08:01:00Z",
    "version": 2,
    "changeset": 25132255,
    "user": "Lübeck",
    "uid": 55462,
    "tags": {
      "amenity": "restaurant",
      "name": "China House"
    }
  },
  {
    "type": "node",
    "id": 2368321890,
    "lat": 36.731628,
    "lon": -3.9443548,
    "timestamp": "2023-02-03T17:29:07Z",
    "version": 7,
    "changeset": 132051314,
    "user": "Đuro Jiří",
    "uid": 14617702,
    "tags": {
      "air_conditioning": "no",
      "amenity": "restaurant",
      "indoor_seating": "yes",
      "name": "Mogador",
      "outdoor_seating": "yes",
      "wheelchair": "yes"
    }
  },
  {
    "type": "node",
    "id": 2368321987,
    "lat": 36.7448363,
    "lon": -3.8826788,
    "timestamp": "2021-10-25T16:16:18Z",
    "version": 4,
    "changeset": 112955414,
    "user": "Lübeck",
    "uid": 55462,
    "tags": {
      "amenity": "restaurant",
      "check_date": "2021-10-01",
      "name": "La Taberna de Pepe Moles"
    }
  },
  {
    "type": "node",
    "id": 2368321989,
    "lat": 36.7435834,
    "lon": -3.8794076,
    "timestamp": "2018-05-25T19:14:42Z",
    "version": 3,
    "changeset": 59279818,
    "user": "Lübeck",
    "uid": 55462,
    "tags": {
      "amenity": "restaurant",
      "check_date": "2018-05-25",
      "name": "Malibu"
    }
  },
  {
    "type": "node",
    "id": 2368321991,
    "lat": 36.7434709,
    "lon": -3.8794827,
    "timestamp": "2018-05-26T05:19:38Z",
    "version": 3,
    "changeset": 59286940,
    "user": "Lübeck",
    "uid": 55462,
    "tags": {
      "amenity": "restaurant",
      "check_date": "2018-05-26",
      "name": "Meson Jose y Victoria"
    }
  },
  {
    "type": "node",
    "id": 2368322083,
    "lat": 36.745315,
    "lon": -3.880046,
    "timestamp": "2021-10-25T16:29:13Z",
    "version": 4,
    "changeset": 112956092,
    "user": "Lübeck",
    "uid": 55462,
    "tags": {
      "amenity": "restaurant",
      "check_date": "2021-10-01",
      "name": "Sekai"
    }
  },
  {
    "type": "node",
    "id": 2368322223,
    "lat": 36.745684,
    "lon": -3.8763143,
    "timestamp": "2018-03-31T16:29:29Z",
    "version": 3,
    "changeset": 57692945,
    "user": "Oliver Windsteig",
    "uid": 707838,
    "tags": {
      "amenity": "restaurant",
      "name": "oliva",
      "phone": "+34 952522988",
      "website": "http://www.restauranteoliva.com"
    }
  },
  {
    "type": "node",
    "id": 2370695047,
    "lat": 36.7425933,
    "lon": -3.8839469,
    "timestamp": "2021-10-25T17:13:52Z",
    "version": 6,
    "changeset": 112958456,
    "user": "Lübeck",
    "uid": 55462,
    "tags": {
      "amenity": "restaurant",
      "check_date": "2021-10-01",
      "name": "El Capricho"
    }
  },
  {
    "type": "node",
    "id": 2385104101,
    "lat": 36.7394427,
    "lon": -3.9947591,
    "timestamp": "2013-07-15T08:44:03Z",
    "version": 1,
    "changeset": 16958667,
    "user": "penasol11",
    "uid": 1133716,
    "tags": {
      "amenity": "restaurant"
    }
  },
  {
    "type": "node",
    "id": 2431495946,
    "lat": 36.9614632,
    "lon": -3.3575826,
    "timestamp": "2020-03-08T10:02:07Z",
    "version": 3,
    "changeset": 81918815,
    "user": "kapazao",
    "uid": 7543375,
    "tags": {
      "amenity": "restaurant",
      "name": "Restaurante Abuxarra"
    }
  },
  {
    "type": "node",
    "id": 2431495951,
    "lat": 36.9621633,
    "lon": -3.3582924,
    "timestamp": "2022-07-22T19:33:53Z",
    "version": 4,
    "changeset": 123953573,
    "user": "polkillas",
    "uid": 42055,
    "tags": {
      "addr:city": "Capileira",
      "addr:postcode": "18413",
      "addr:street": "Carretera de la Sierra",
      "amenity": "restaurant",
      "contact:phone": "+34 958 76 31 06",
      "name": "Ruta de las Nieves",
      "operator": "María del Mar Pérez Estévez"
    }
  },
  {
    "type": "node",
    "id": 2431495954,
    "lat": 36.9617461,
    "lon": -3.3587332,
    "timestamp": "2019-07-16T20:28:28Z",
    "version": 7,
    "changeset": 72322396,
    "user": "kapazao",
    "uid": 7543375,
    "tags": {
      "addr:city": "Capileira",
      "addr:housenumber": "16",
      "addr:postcode": "18413",
      "addr:street": "Carretera de la Sierra",
      "amenity": "restaurant",
      "cuisine": "regional",
      "name": "El Asador",
      "phone": "+34 958 763109"
    }
  },
  {
    "type": "node",
    "id": 2431495956,
    "lat": 36.9615919,
    "lon": -3.3586203,
    "timestamp": "2023-10-16T17:34:02Z",
    "version": 6,
    "changeset": 142676748,
    "user": "b-jazz-bot",
    "uid": 9451067,
    "tags": {
      "amenity": "restaurant",
      "cuisine": "italian",
      "name": "El Cascapeñas",
      "opening_hours": "Th off",
      "website": "https://www.elcascapenas.com/"
    }
  },
  {
    "type": "node",
    "id": 2431510192,
    "lat": 36.9390056,
    "lon": -3.3299317,
    "timestamp": "2013-08-25T20:30:21Z",
    "version": 1,
    "changeset": 17506761,
    "user": "jamesks",
    "uid": 2500,
    "tags": {
      "amenity": "restaurant"
    }
  },
  {
    "type": "node",
    "id": 2467652436,
    "lat": 36.9293244,
    "lon": -3.3211142,
    "timestamp": "2022-12-29T22:08:46Z",
    "version": 10,
    "changeset": 130664849,
    "user": "alex_lofi",
    "uid": 6816316,
    "tags": {
      "addr:city": "Mecina Fondales",
      "addr:housename": "Restaurante - B&B L'Atelier",
      "addr:housenumber": "21",
      "addr:postcode": "18414",
      "addr:street": "Calle La Alberca",
      "amenity": "restaurant",
      "description:en": "B&B and vegetarian restaurant",
      "description:es": "Casa rural y restaurante vegetariano.",
      "description:fr": "Chambres d'hôtes et restaurant végétarien.",
      "diet:vegetarian": "only",
      "ele": "1100",
      "name": "Restaurante L'Atelier",
      "phone": "+34 958 857 501",
      "source": "Owner",
      "website": "https://www.tripadvisor.es/Restaurant_Review-g1937614-d3486886-Reviews-L_Atelier-Mecina_Fondales_La_Taha_Province_of_Granada_Andalucia.html"
    }
  },
  {
    "type": "node",
    "id": 2480425216,
    "lat": 36.729509,
    "lon": -3.9597826,
    "timestamp": "2024-10-09T16:15:31Z",
    "version": 4,
    "changeset": 157679729,
    "user": "cdavila",
    "uid": 26599,
    "tags": {
      "addr:city": "Torrox Costa",
      "addr:postcode": "29793",
      "addr:street": "Avenida García Peñalver",
      "addr:unit": "Bloque 77",
      "amenity": "restaurant",
      "cuisine": "barbecue",
      "facebook": "https://www.facebook.com/asadorrichi",
      "name": "Richi Asador de Pollos",
      "opening_hours": "Mo-We 08:00-18:00; Fr-Su 08:00-18:00",
      "phone": "+34 951 38 90 73"
    }
  },
  {
    "type": "node",
    "id": 2480425226,
    "lat": 36.7300519,
    "lon": -3.9607561,
    "timestamp": "2023-02-16T19:57:45Z",
    "version": 3,
    "changeset": 132645719,
    "user": "The_Wanderer",
    "uid": 6367986,
    "tags": {
      "addr:city": "Torrox Costa",
      "addr:postcode": "29793",
      "addr:street": "Avenida García Peñalver",
      "amenity": "restaurant",
      "name": "Cafeteria Javier"
    }
  },
  {
    "type": "node",
    "id": 2506844492,
    "lat": 36.7916596,
    "lon": -3.8963722,
    "timestamp": "2013-10-24T08:10:32Z",
    "version": 1,
    "changeset": 18515535,
    "user": "Lübeck",
    "uid": 55462,
    "tags": {
      "amenity": "restaurant"
    }
  },
  {
    "type": "node",
    "id": 2506844552,
    "lat": 36.7921374,
    "lon": -3.8978183,
    "timestamp": "2013-10-24T08:10:33Z",
    "version": 1,
    "changeset": 18515535,
    "user": "Lübeck",
    "uid": 55462,
    "tags": {
      "amenity": "restaurant",
      "name": "el casino"
    }
  },
  {
    "type": "node",
    "id": 2623482956,
    "lat": 36.9293903,
    "lon": -3.3233342,
    "timestamp": "2021-02-15T20:38:57Z",
    "version": 5,
    "changeset": 99331723,
    "user": "kapazao",
    "uid": 7543375,
    "tags": {
      "addr:city": "Mecina Fondales",
      "addr:housename": "Hotel de Mecina",
      "addr:housenumber": "2",
      "addr:postcode": "18414",
      "addr:street": "Calle Fuente El Barranquillo",
      "amenity": "restaurant",
      "capacity": "40",
      "cuisine": "spanish",
      "ele": "1000",
      "email": "reservas@hoteldemecina.com",
      "name": "Hotel Rural de Mecina Fondales",
      "phone": "+34 958 766241",
      "website": "http://www.hoteldemecina.com",
      "wheelchair": "yes"
    }
  },
  {
    "type": "node",
    "id": 2641050845,
    "lat": 36.7467643,
    "lon": -4.0549268,
    "timestamp": "2024-12-22T16:22:46Z",
    "version": 5,
    "changeset": 160507776,
    "user": "Đuro Jiří",
    "uid": 14617702,
    "tags": {
      "air_conditioning": "yes",
      "amenity": "restaurant",
      "cuisine": "danish",
      "indoor_seating": "yes",
      "internet_access": "wlan",
      "name": "Restaurante Bravo",
      "outdoor_seating": "yes"
    }
  },
  {
    "type": "node",
    "id": 2643564670,
    "lat": 36.9607565,
    "lon": -4.1913673,
    "timestamp": "2019-11-03T17:56:03Z",
    "version": 4,
    "changeset": 76558171,
    "user": "Parie",
    "uid": 246941,
    "tags": {
      "amenity": "restaurant",
      "check_date": "2016-05-24",
      "name": "El Caseron de Guaro",
      "phone": "+34 952033600"
    }
  },
  {
    "type": "node",
    "id": 2643968893,
    "lat": 36.9794121,
    "lon": -4.2734052,
    "timestamp": "2024-04-15T15:51:59Z",
    "version": 5,
    "changeset": 150045820,
    "user": "Riccardo Stagni",
    "uid": 67621,
    "tags": {
      "amenity": "restaurant",
      "check_date": "2024-04-15",
      "name": "Los Pirineos"
    }
  },
  {
    "type": "node",
    "id": 2656044554,
    "lat": 36.8364242,
    "lon": -3.9913132,
    "timestamp": "2016-08-12T08:49:54Z",
    "version": 2,
    "changeset": 41405998,
    "user": "Parie",
    "uid": 246941,
    "tags": {
      "amenity": "restaurant",
      "cuisine": "spanish",
      "name": "Venta de Curro"
    }
  },
  {
    "type": "node",
    "id": 2702579708,
    "lat": 36.7516254,
    "lon": -3.8647859,
    "timestamp": "2018-06-05T17:58:22Z",
    "version": 3,
    "changeset": 59577033,
    "user": "Lübeck",
    "uid": 55462,
    "tags": {
      "amenity": "restaurant",
      "check_date": "2018-06-05",
      "email": "rincondelsol.nerja@gmail.com",
      "name": "Rincón del Sol",
      "phone": "+34 625302781"
    }
  },
  {
    "type": "node",
    "id": 2702588660,
    "lat": 36.7472977,
    "lon": -3.8754212,
    "timestamp": "2023-02-28T12:28:22Z",
    "version": 2,
    "changeset": 133126624,
    "user": "mobip",
    "uid": 2983,
    "tags": {
      "amenity": "restaurant",
      "cuisine": "italian",
      "name": "Pinoccios",
      "name:es": "Pinoccio"
    }
  },
  {
    "type": "node",
    "id": 2752241853,
    "lat": 36.7452404,
    "lon": -3.8761212,
    "timestamp": "2024-07-01T09:16:56Z",
    "version": 5,
    "changeset": 153402195,
    "user": "Guzosm",
    "uid": 16598742,
    "tags": {
      "amenity": "restaurant",
      "changing_table": "yes",
      "check_date": "2018-05-25",
      "name": "Cafeteria Heladeria Albi"
    }
  },
  {
    "type": "node",
    "id": 2752241854,
    "lat": 36.7444755,
    "lon": -3.8761145,
    "timestamp": "2021-10-25T17:03:27Z",
    "version": 4,
    "changeset": 112957898,
    "user": "Lübeck",
    "uid": 55462,
    "tags": {
      "amenity": "restaurant",
      "check_date": "2021-10-01",
      "name": "Restaurante El Nautico",
      "opening_hours": "Mo-Su 11:00-17:30",
      "operator": "Hotel Balcón de Europe"
    }
  },
  {
    "type": "node",
    "id": 2774995374,
    "lat": 36.7455203,
    "lon": -3.8765391,
    "timestamp": "2018-05-25T18:42:21Z",
    "version": 3,
    "changeset": 59279031,
    "user": "Lübeck",
    "uid": 55462,
    "tags": {
      "amenity": "restaurant",
      "check_date": "2018-05-25",
      "cuisine": "italian;pizza",
      "name": "Bella Roma"
    }
  },
  {
    "type": "node",
    "id": 2774995376,
    "lat": 36.7451172,
    "lon": -3.8764008,
    "timestamp": "2021-08-08T09:17:49Z",
    "version": 3,
    "changeset": 109336912,
    "user": "kapazao",
    "uid": 7543375,
    "tags": {
      "amenity": "restaurant",
      "cuisine": "regional",
      "name": "Mediterráneo"
    }
  },
  {
    "type": "node",
    "id": 2774995378,
    "lat": 36.7454898,
    "lon": -3.8766251,
    "timestamp": "2022-04-17T14:48:56Z",
    "version": 5,
    "changeset": 119819692,
    "user": "gpesquero",
    "uid": 3584,
    "tags": {
      "amenity": "restaurant",
      "name": "Carlos",
      "old_name": "El Patio"
    }
  },
  {
    "type": "node",
    "id": 2774995380,
    "lat": 36.7451081,
    "lon": -3.8764982,
    "timestamp": "2021-10-25T16:31:58Z",
    "version": 5,
    "changeset": 112956249,
    "user": "Lübeck",
    "uid": 55462,
    "tags": {
      "amenity": "restaurant",
      "check_date": "2021-10-01",
      "cuisine": "regional",
      "name": "Kronox"
    }
  },
  {
    "type": "node",
    "id": 2774995381,
    "lat": 36.7455487,
    "lon": -3.8764438,
    "timestamp": "2018-05-25T18:42:21Z",
    "version": 3,
    "changeset": 59279031,
    "user": "Lübeck",
    "uid": 55462,
    "tags": {
      "amenity": "restaurant",
      "check_date": "2018-05-25",
      "cuisine": "asian",
      "name": "Asian Ben"
    }
  },
  {
    "type": "node",
    "id": 2883808603,
    "lat": 36.7357138,
    "lon": -3.6901195,
    "timestamp": "2022-08-11T07:22:03Z",
    "version": 2,
    "changeset": 124761245,
    "user": "Johnbo",
    "uid": 915796,
    "tags": {
      "addr:city": "Almuñécar",
      "addr:housenumber": "26",
      "addr:postcode": "18690",
      "addr:street": "Calle Carrera de la Concepción",
      "amenity": "restaurant",
      "cuisine": "regional",
      "name": "Los Mellizos"
    }
  },
  {
    "type": "node",
    "id": 2883809103,
    "lat": 36.7427758,
    "lon": -3.5107007,
    "timestamp": "2022-08-11T10:16:31Z",
    "version": 3,
    "changeset": 124768796,
    "user": "Johnbo",
    "uid": 915796,
    "tags": {
      "addr:city": "Motril",
      "addr:postcode": "18600",
      "amenity": "restaurant",
      "cuisine": "regional",
      "name": "La Cueva",
      "phone": "+34 958821736"
    }
  },
  {
    "type": "node",
    "id": 2883809502,
    "lat": 36.73205,
    "lon": -3.68997,
    "timestamp": "2014-05-27T17:23:58Z",
    "version": 1,
    "changeset": 22585653,
    "user": "davidmartindel",
    "uid": 2070884,
    "tags": {
      "amenity": "restaurant",
      "cuisine": "regional",
      "name": "Francisco II"
    }
  },
  {
    "type": "node",
    "id": 2883812302,
    "lat": 36.7351425,
    "lon": -3.6850103,
    "timestamp": "2022-08-12T12:38:07Z",
    "version": 2,
    "changeset": 124817053,
    "user": "Johnbo",
    "uid": 915796,
    "tags": {
      "addr:city": "Almuñécar",
      "addr:postcode": "18690",
      "addr:street": "Calle Puerto de la Cruz",
      "amenity": "restaurant",
      "contact:facebook": "https://www.facebook.com/profile.php?id=100045470087408",
      "cuisine": "regional",
      "name": "Mesón Herrera"
    }
  },
  {
    "type": "node",
    "id": 2883813501,
    "lat": 36.7448864,
    "lon": -3.5151866,
    "timestamp": "2022-07-18T14:31:01Z",
    "version": 3,
    "changeset": 123767280,
    "user": "Johnbo",
    "uid": 915796,
    "tags": {
      "addr:city": "Motril",
      "addr:housenumber": "5",
      "addr:postcode": "18600",
      "addr:street": "Calle Cuevas",
      "amenity": "restaurant",
      "contact:facebook": "https://www.facebook.com/Mes%C3%B3n-Antequera-720515918023438/",
      "cuisine": "regional",
      "name": "Mesón Antequera",
      "phone": "+34 958601782"
    }
  },
  {
    "type": "node",
    "id": 2883917401,
    "lat": 36.7487355,
    "lon": -3.8710129,
    "timestamp": "2018-06-05T16:23:47Z",
    "version": 3,
    "changeset": 59574564,
    "user": "Lübeck",
    "uid": 55462,
    "tags": {
      "amenity": "restaurant",
      "cuisine": "regional",
      "name": "Bahia cafebar"
    }
  },
  {
    "type": "node",
    "id": 2951279023,
    "lat": 36.7155173,
    "lon": -4.1808923,
    "timestamp": "2025-01-23T17:23:08Z",
    "version": 8,
    "changeset": 161683025,
    "user": "zxwzxwzxw",
    "uid": 22048470,
    "tags": {
      "addr:city": "Benajarafe",
      "addr:place": "Urbanizacion Playa Linda",
      "addr:postcode": "29790",
      "amenity": "restaurant",
      "cuisine": "regional",
      "name": "PuntArena Bar Playa",
      "nohousenumber": "yes",
      "note": "Especialidad en cuscús, pescados a la leña y mojitos",
      "opening_hours": "11:00-02:00",
      "phone": "+34 649 82 15 09",
      "smoking": "yes"
    }
  },
  {
    "type": "node",
    "id": 3053130723,
    "lat": 36.7308545,
    "lon": -3.9688134,
    "timestamp": "2023-11-30T19:18:12Z",
    "version": 8,
    "changeset": 144637294,
    "user": "The_Wanderer",
    "uid": 6367986,
    "tags": {
      "addr:city": "Torrox-Costa",
      "addr:postcode": "29770",
      "addr:street": "Paseo Marítimo de Ferrara",
      "amenity": "restaurant",
      "cuisine": "pizza",
      "delivery": "yes",
      "email": "pizzaarena.es@gmail.com",
      "name": "Pizzeria Arena",
      "opening_hours": "Mo-Su 09:30-22:30",
      "outdoor_seating": "yes",
      "phone": "+34 635 81 20 88",
      "takeaway": "yes",
      "website": "https://pizzaarena.es/about/"
    }
  },
  {
    "type": "node",
    "id": 3055892462,
    "lat": 36.7376492,
    "lon": -3.9913564,
    "timestamp": "2014-09-02T17:23:37Z",
    "version": 1,
    "changeset": 25186994,
    "user": "Lübeck",
    "uid": 55462,
    "tags": {
      "amenity": "restaurant"
    }
  },
  {
    "type": "node",
    "id": 3109898830,
    "lat": 36.8034493,
    "lon": -3.9296525,
    "timestamp": "2014-10-03T18:07:37Z",
    "version": 1,
    "changeset": 25837665,
    "user": "peekmaster",
    "uid": 1775692,
    "tags": {
      "amenity": "restaurant",
      "cuisine": "regional",
      "name": "El Cortijo"
    }
  },
  {
    "type": "node",
    "id": 3328393211,
    "lat": 36.7432577,
    "lon": -3.8832236,
    "timestamp": "2021-10-25T17:13:52Z",
    "version": 5,
    "changeset": 112958456,
    "user": "Lübeck",
    "uid": 55462,
    "tags": {
      "amenity": "restaurant",
      "check_date": "2021-10-01",
      "cuisine": "mexican",
      "name": "Andele!! Andele!!"
    }
  },
  {
    "type": "node",
    "id": 3344091939,
    "lat": 36.7239961,
    "lon": -3.535733,
    "timestamp": "2016-01-12T22:08:30Z",
    "version": 3,
    "changeset": 36539575,
    "user": "Mecki",
    "uid": 330055,
    "tags": {
      "amenity": "restaurant"
    }
  },
  {
    "type": "node",
    "id": 3353431910,
    "lat": 36.7324364,
    "lon": -3.5880058,
    "timestamp": "2020-03-25T19:17:59Z",
    "version": 2,
    "changeset": 82624931,
    "user": "5R-MFT",
    "uid": 3417876,
    "tags": {
      "amenity": "restaurant",
      "name": "Casa Emilio",
      "outdoor_seating": "yes",
      "phone": "+34 958 34 94 32",
      "website": "https://chiringuitocasaemilio.es"
    }
  },
  {
    "type": "node",
    "id": 3353446608,
    "lat": 36.7337656,
    "lon": -3.5892925,
    "timestamp": "2020-05-23T17:57:17Z",
    "version": 5,
    "changeset": 85661195,
    "user": "kapazao_import",
    "uid": 8770019,
    "tags": {
      "amenity": "restaurant",
      "contact:facebook": "https://www.facebook.com/ChiringuitoRestauranteFlores",
      "name": "Chiringuito Flores",
      "outdoor_seating": "yes",
      "phone": "+34 958 34 93 81",
      "wheelchair": "limited"
    }
  },
  {
    "type": "node",
    "id": 3353447004,
    "lat": 36.7453973,
    "lon": -3.5839734,
    "timestamp": "2023-09-19T10:11:31Z",
    "version": 2,
    "changeset": 141461753,
    "user": "kapazao",
    "uid": 7543375,
    "tags": {
      "amenity": "restaurant",
      "name": "Restaurante La Bodega"
    }
  },
  {
    "type": "node",
    "id": 3353447013,
    "lat": 36.7359562,
    "lon": -3.5905552,
    "timestamp": "2019-11-23T12:31:17Z",
    "version": 2,
    "changeset": 77457964,
    "user": "kapazao",
    "uid": 7543375,
    "tags": {
      "addr:street": "Avenida del Mediterráneo",
      "amenity": "restaurant",
      "contact:whatsapp": "+34 667 72 27 70",
      "email": "info@carnealapiedra.com",
      "name": "Carne a la Piedra",
      "name:de": "Steakhaus zum heissen Stein",
      "name:en": "Steaks on a hot stone",
      "name:es": "Carne a la Piedra",
      "phone": "+34 667 72 27 70",
      "website": "http://www.carnealapiedra.com"
    }
  },
  {
    "type": "node",
    "id": 3353447014,
    "lat": 36.7374782,
    "lon": -3.5924474,
    "timestamp": "2015-02-16T07:27:25Z",
    "version": 1,
    "changeset": 28878824,
    "user": "Lübeck",
    "uid": 55462,
    "tags": {
      "amenity": "restaurant",
      "name": "Sunem"
    }
  },
  {
    "type": "node",
    "id": 3359538922,
    "lat": 36.7445596,
    "lon": -3.8760581,
    "timestamp": "2023-04-17T16:47:20Z",
    "version": 2,
    "changeset": 135023620,
    "user": "HubMiner",
    "uid": 238419,
    "tags": {
      "amenity": "restaurant",
      "name": "Don Enrique",
      "opening_hours": "Mo-Su 07:30-10:30,19:00-22:00",
      "operator": "Hotel Balcón de Europe"
    }
  },
  {
    "type": "node",
    "id": 3384052236,
    "lat": 36.976253,
    "lon": -3.5391226,
    "timestamp": "2019-07-16T20:28:28Z",
    "version": 2,
    "changeset": 72322396,
    "user": "kapazao",
    "uid": 7543375,
    "tags": {
      "addr:city": "Nigüelas",
      "addr:housenumber": "36",
      "addr:postcode": "18657",
      "addr:street": "Calle Larga",
      "amenity": "restaurant",
      "cuisine": "regional",
      "ele": "920",
      "name": "La Tasca",
      "phone": "+34 675 69 51 84"
    }
  },
  {
    "type": "node",
    "id": 3404493230,
    "lat": 36.7434496,
    "lon": -4.0902273,
    "timestamp": "2016-11-23T17:15:26Z",
    "version": 2,
    "changeset": 43901112,
    "user": "Parie",
    "uid": 246941,
    "tags": {
      "amenity": "restaurant",
      "cuisine": "thai",
      "name": "Siam"
    }
  },
  {
    "type": "node",
    "id": 3404493231,
    "lat": 36.7433865,
    "lon": -4.0903591,
    "timestamp": "2016-11-23T17:15:26Z",
    "version": 2,
    "changeset": 43901112,
    "user": "Parie",
    "uid": 246941,
    "tags": {
      "amenity": "restaurant",
      "cuisine": "pizza",
      "name": "La Mamma"
    }
  },
  {
    "type": "node",
    "id": 3404505966,
    "lat": 36.7352186,
    "lon": -4.096859,
    "timestamp": "2017-01-15T17:33:33Z",
    "version": 3,
    "changeset": 45195665,
    "user": "Parie",
    "uid": 246941,
    "tags": {
      "amenity": "restaurant",
      "cuisine": "international",
      "name": "Brujas",
      "outdoor_seating": "yes",
      "smoking": "outside",
      "source": "GPS camera Parie 2017",
      "stars": "4"
    }
  },
  {
    "type": "node",
    "id": 3404505967,
    "lat": 36.7358688,
    "lon": -4.0970012,
    "timestamp": "2016-11-27T15:26:46Z",
    "version": 3,
    "changeset": 43985608,
    "user": "Parie",
    "uid": 246941,
    "tags": {
      "amenity": "restaurant",
      "cuisine": "international",
      "name": "Victor **",
      "outdoor_seating": "yes",
      "stars": "2"
    }
  },
  {
    "type": "node",
    "id": 3404516005,
    "lat": 36.7373194,
    "lon": -4.0949921,
    "timestamp": "2023-02-16T15:03:16Z",
    "version": 7,
    "changeset": 132633757,
    "user": "sanchi",
    "uid": 170106,
    "tags": {
      "addr:city": "Torre Del Mar",
      "addr:housenumber": "27",
      "addr:postcode": "29740",
      "addr:province": "Malaga",
      "addr:street": "Paseo Marítimo Poniente",
      "amenity": "restaurant",
      "check_date": "2019-06-01",
      "cuisine": "regional",
      "name": "El Pozo",
      "opening_hours": "We off",
      "outdoor_seating": "yes",
      "phone": "+34 951084595"
    }
  },
  {
    "type": "node",
    "id": 3528707619,
    "lat": 36.9534176,
    "lon": -4.1227069,
    "timestamp": "2019-08-08T21:58:34Z",
    "version": 3,
    "changeset": 73172526,
    "user": "kapazao",
    "uid": 7543375,
    "tags": {
      "amenity": "restaurant",
      "cuisine": "regional",
      "tourism": "guest_house"
    }
  },
  {
    "type": "node",
    "id": 3564213415,
    "lat": 36.792661,
    "lon": -3.8973079,
    "timestamp": "2015-06-01T18:47:10Z",
    "version": 1,
    "changeset": 31644535,
    "user": "navajo72",
    "uid": 313117,
    "tags": {
      "amenity": "restaurant",
      "name": "El Adarve"
    }
  },
  {
    "type": "node",
    "id": 3564253014,
    "lat": 36.9406903,
    "lon": -3.3611962,
    "timestamp": "2023-11-03T12:12:56Z",
    "version": 5,
    "changeset": 143571800,
    "user": "kapazao",
    "uid": 7543375,
    "tags": {
      "addr:housenumber": "11",
      "addr:street": "Plaza de la Libertad",
      "amenity": "restaurant",
      "name": "Belezmín",
      "phone": "+34 958 763 102"
    }
  },
  {
    "type": "node",
    "id": 3564253015,
    "lat": 36.9395869,
    "lon": -3.3633501,
    "timestamp": "2015-06-01T19:18:11Z",
    "version": 1,
    "changeset": 31645441,
    "user": "navajo72",
    "uid": 313117,
    "tags": {
      "amenity": "restaurant",
      "name": "Guillermo"
    }
  },
  {
    "type": "node",
    "id": 3564253016,
    "lat": 36.9404514,
    "lon": -3.3598462,
    "timestamp": "2023-11-03T12:12:56Z",
    "version": 4,
    "changeset": 143571800,
    "user": "kapazao",
    "uid": 7543375,
    "tags": {
      "addr:housenumber": "11",
      "addr:street": "Calle La Peseta",
      "amenity": "restaurant",
      "name": "El Castaño",
      "opening_hours": "Mo-Su 11:30-17:00,19:00-00:00"
    }
  },
  {
    "type": "node",
    "id": 3564253018,
    "lat": 36.9411183,
    "lon": -3.3604702,
    "timestamp": "2022-03-05T10:49:57Z",
    "version": 2,
    "changeset": 118121540,
    "user": "gpesquero",
    "uid": 3584,
    "tags": {
      "amenity": "restaurant",
      "name": "Mesón Rural Alberto",
      "source": "survey"
    }
  },
  {
    "type": "node",
    "id": 3587157776,
    "lat": 36.9485763,
    "lon": -3.354338,
    "timestamp": "2015-06-11T05:44:05Z",
    "version": 1,
    "changeset": 31887918,
    "user": "Ludovic Drouard",
    "uid": 1151930,
    "tags": {
      "amenity": "restaurant",
      "name": "La Artesa"
    }
  },
  {
    "type": "node",
    "id": 3587157778,
    "lat": 36.9505249,
    "lon": -3.3555959,
    "timestamp": "2021-02-15T20:44:23Z",
    "version": 3,
    "changeset": 99331870,
    "user": "kapazao",
    "uid": 7543375,
    "tags": {
      "addr:housenumber": "37",
      "addr:street": "Calle Carretera",
      "alt_name": "La Trastienda",
      "amenity": "restaurant",
      "name": "Restaurante Casa Ángel"
    }
  },
  {
    "type": "node",
    "id": 3587157779,
    "lat": 36.9485603,
    "lon": -3.3545739,
    "timestamp": "2024-01-07T12:31:33Z",
    "version": 6,
    "changeset": 145988911,
    "user": "kapazao",
    "uid": 7543375,
    "tags": {
      "addr:housenumber": "1",
      "addr:street": "Calle Carretera",
      "amenity": "restaurant",
      "cuisine": "traditional",
      "email": "restauranteteide@hotmail.es",
      "name": "Teide",
      "opening_hours": "Nov-Apr: We-Su 12:30-16:00; May-Oct: We-Su 12:30-16:00,20:00-22:30",
      "phone": "+34 958 76 30 37",
      "website": "https://restauranteteidebubion.com"
    }
  },
  {
    "type": "node",
    "id": 3587303582,
    "lat": 36.9618933,
    "lon": -3.3597201,
    "timestamp": "2016-05-07T08:52:43Z",
    "version": 2,
    "changeset": 39158314,
    "user": "Creando",
    "uid": 132740,
    "tags": {
      "addr:housenumber": "4",
      "addr:street": "Plaza Calvario",
      "amenity": "restaurant",
      "name": "El Fogón de Raquel"
    }
  },
  {
    "type": "node",
    "id": 3587303583,
    "lat": 36.9620427,
    "lon": -3.3601881,
    "timestamp": "2024-03-13T10:32:38Z",
    "version": 5,
    "changeset": 148586533,
    "user": "Cabhan",
    "uid": 9037909,
    "tags": {
      "addr:city": "Capileira",
      "addr:housenumber": "6",
      "addr:street": "Calle Cubo",
      "amenity": "restaurant",
      "cuisine": "spanish",
      "diet:vegan": "yes",
      "diet:vegetarian": "yes",
      "name": "Taberna La Tapa"
    }
  },
  {
    "type": "node",
    "id": 3617359894,
    "lat": 36.7929842,
    "lon": -3.8981577,
    "timestamp": "2015-06-25T11:16:16Z",
    "version": 1,
    "changeset": 32202763,
    "user": "Jorge Juan",
    "uid": 395941,
    "tags": {
      "addr:street": "Calle el Zacatin",
      "amenity": "restaurant",
      "cuisine": "regional",
      "name": "La Tahona",
      "phone": "+34 664 22 65 11"
    }
  },
  {
    "type": "node",
    "id": 3670642454,
    "lat": 36.7382576,
    "lon": -3.7770975,
    "timestamp": "2018-09-07T10:43:25Z",
    "version": 2,
    "changeset": 62371106,
    "user": "kapazao",
    "uid": 7543375,
    "tags": {
      "addr:city": "La Herradura",
      "addr:postcode": "18697",
      "addr:street": "Playa Cantarriján",
      "amenity": "restaurant",
      "cuisine": "mediterranean",
      "delivery": "no",
      "name": "Bola Marina",
      "outdoor_seating": "yes"
    }
  },
  {
    "type": "node",
    "id": 3782289457,
    "lat": 36.9005892,
    "lon": -3.4242728,
    "timestamp": "2019-03-24T20:51:40Z",
    "version": 5,
    "changeset": 68483955,
    "user": "kapazao",
    "uid": 7543375,
    "tags": {
      "addr:city": "Órgiva",
      "addr:postcode": "18400",
      "addr:street": "Avenida González Robles",
      "amenity": "restaurant",
      "cuisine": "regional",
      "internet_access": "wlan",
      "name": "El Viejo Molino",
      "outdoor_seating": "yes",
      "wheelchair": "yes"
    }
  },
  {
    "type": "node",
    "id": 3782289557,
    "lat": 36.9029341,
    "lon": -3.4222731,
    "timestamp": "2020-11-27T00:17:28Z",
    "version": 7,
    "changeset": 94864008,
    "user": "rouelibre1",
    "uid": 10901304,
    "tags": {
      "addr:city": "Órgiva",
      "addr:housenumber": "12",
      "addr:postcode": "18400",
      "addr:street": "Calle Estación",
      "amenity": "restaurant",
      "cuisine": "oriental",
      "diet:vegan": "yes",
      "diet:vegetarian": "yes",
      "internet_access": "wired",
      "name": "Baraka",
      "outdoor_seating": "yes",
      "smoking": "no"
    }
  },
  {
    "type": "node",
    "id": 3783472212,
    "lat": 36.9025821,
    "lon": -3.423393,
    "timestamp": "2019-03-24T20:51:38Z",
    "version": 3,
    "changeset": 68483955,
    "user": "kapazao",
    "uid": 7543375,
    "tags": {
      "addr:city": "Órgiva",
      "addr:postcode": "18400",
      "addr:street": "Calle Estación",
      "amenity": "restaurant",
      "cuisine": "pizza",
      "outdoor_seating": "yes"
    }
  },
  {
    "type": "node",
    "id": 3787765840,
    "lat": 36.9023277,
    "lon": -3.4223126,
    "timestamp": "2016-05-06T15:02:24Z",
    "version": 2,
    "changeset": 39146078,
    "user": "Creando",
    "uid": 132740,
    "tags": {
      "amenity": "restaurant",
      "cuisine": "italian",
      "name": "Airiños de Lujar"
    }
  },
  {
    "type": "node",
    "id": 3792399785,
    "lat": 36.7506605,
    "lon": -3.8693865,
    "timestamp": "2015-10-19T08:55:38Z",
    "version": 1,
    "changeset": 34727011,
    "user": "GlenHawley",
    "uid": 3319929,
    "tags": {
      "amenity": "restaurant",
      "cuisine": "international",
      "name": "The Restaurant at Burriana"
    }
  },
  {
    "type": "node",
    "id": 3792403626,
    "lat": 36.7507808,
    "lon": -3.8694992,
    "timestamp": "2022-01-27T15:42:23Z",
    "version": 4,
    "changeset": 116672155,
    "user": "Lübeck",
    "uid": 55462,
    "tags": {
      "amenity": "restaurant",
      "check_date": "2021-09-30",
      "cuisine": "steak_house",
      "name": "The Steak House at Burriana"
    }
  },
  {
    "type": "node",
    "id": 3792660148,
    "lat": 36.7475539,
    "lon": -3.8770044,
    "timestamp": "2022-10-23T18:27:45Z",
    "version": 3,
    "changeset": 127969332,
    "user": "OneTwoThreeFour",
    "uid": 9830089,
    "tags": {
      "amenity": "restaurant",
      "cuisine": "italian",
      "name": "Colloseo"
    }
  },
  {
    "type": "node",
    "id": 3944644373,
    "lat": 36.7200884,
    "lon": -3.5443152,
    "timestamp": "2016-01-13T18:42:08Z",
    "version": 1,
    "changeset": 36556034,
    "user": "TNTN",
    "uid": 372227,
    "tags": {
      "amenity": "restaurant",
      "name": "Katena"
    }
  },
  {
    "type": "node",
    "id": 3944644374,
    "lat": 36.7222262,
    "lon": -3.5414486,
    "timestamp": "2016-01-13T18:42:08Z",
    "version": 1,
    "changeset": 36556034,
    "user": "TNTN",
    "uid": 372227,
    "tags": {
      "amenity": "restaurant",
      "cuisine": "pizza",
      "name": "Mare e Monti"
    }
  },
  {
    "type": "node",
    "id": 3944671854,
    "lat": 36.7183146,
    "lon": -3.5463855,
    "timestamp": "2023-12-24T22:29:46Z",
    "version": 2,
    "changeset": 145481561,
    "user": "5R-MFT",
    "uid": 3417876,
    "tags": {
      "amenity": "restaurant",
      "name": "Camping Playa de Poniente",
      "outdoor_seating": "yes",
      "smoking": "outside",
      "website": "https://www.campingplayadeponiente.com/restaurante/"
    }
  },
  {
    "type": "node",
    "id": 3950457412,
    "lat": 36.7371653,
    "lon": -4.0937923,
    "timestamp": "2016-11-27T15:26:46Z",
    "version": 3,
    "changeset": 43985608,
    "user": "Parie",
    "uid": 246941,
    "tags": {
      "amenity": "restaurant",
      "cuisine": "regional",
      "name": "Rosa de los Vientos*",
      "outdoor_seating": "yes",
      "stars": "1"
    }
  },
  {
    "type": "node",
    "id": 3953964019,
    "lat": 36.7286846,
    "lon": -4.1015874,
    "timestamp": "2024-04-23T10:26:12Z",
    "version": 2,
    "changeset": 150387509,
    "user": "kapazao_import",
    "uid": 8770019,
    "tags": {
      "amenity": "restaurant",
      "name": "Cafe del Mar"
    }
  },
  {
    "type": "node",
    "id": 3954025885,
    "lat": 36.7303316,
    "lon": -4.1001149,
    "timestamp": "2023-02-03T09:48:35Z",
    "version": 4,
    "changeset": 132034569,
    "user": "Đuro Jiří",
    "uid": 14617702,
    "tags": {
      "amenity": "restaurant",
      "indoor_seating": "yes",
      "name": "Berebere",
      "outdoor_seating": "yes",
      "wheelchair": "yes"
    }
  },
  {
    "type": "node",
    "id": 3954025886,
    "lat": 36.7362195,
    "lon": -4.1014721,
    "timestamp": "2016-01-18T18:34:23Z",
    "version": 1,
    "changeset": 36664118,
    "user": "Parie",
    "uid": 246941,
    "tags": {
      "amenity": "restaurant",
      "name": "Las Ninas"
    }
  },
  {
    "type": "node",
    "id": 3954025887,
    "lat": 36.7365038,
    "lon": -4.1016926,
    "timestamp": "2019-05-24T07:35:58Z",
    "version": 2,
    "changeset": 70576066,
    "user": "Parie",
    "uid": 246941,
    "tags": {
      "amenity": "restaurant",
      "cuisine": "regional",
      "name": "Maenoba"
    }
  },
  {
    "type": "node",
    "id": 3955568679,
    "lat": 36.7239221,
    "lon": -4.1295539,
    "timestamp": "2020-11-18T18:46:38Z",
    "version": 2,
    "changeset": 94388345,
    "user": "Parie",
    "uid": 246941,
    "tags": {
      "amenity": "restaurant"
    }
  },
  {
    "type": "node",
    "id": 3955568686,
    "lat": 36.7243488,
    "lon": -4.1218751,
    "timestamp": "2016-01-19T17:54:26Z",
    "version": 1,
    "changeset": 36684686,
    "user": "Parie",
    "uid": 246941,
    "tags": {
      "amenity": "restaurant"
    }
  },
  {
    "type": "node",
    "id": 3955568691,
    "lat": 36.7246771,
    "lon": -4.1189804,
    "timestamp": "2016-01-19T17:54:26Z",
    "version": 1,
    "changeset": 36684686,
    "user": "Parie",
    "uid": 246941,
    "tags": {
      "amenity": "restaurant",
      "outdoor_seating": "yes"
    }
  },
  {
    "type": "node",
    "id": 3960197828,
    "lat": 36.7379327,
    "lon": -4.1787758,
    "timestamp": "2016-01-22T19:00:26Z",
    "version": 1,
    "changeset": 36745995,
    "user": "Parie",
    "uid": 246941,
    "tags": {
      "amenity": "restaurant"
    }
  },
  {
    "type": "node",
    "id": 3960226288,
    "lat": 36.7362468,
    "lon": -3.5920437,
    "timestamp": "2019-11-23T12:31:17Z",
    "version": 3,
    "changeset": 77457964,
    "user": "kapazao",
    "uid": 7543375,
    "tags": {
      "addr:street": "Paseo Marítimo",
      "amenity": "restaurant",
      "contact:facebook": "https://es-es.facebook.com/chiringuito.el.campano",
      "cuisine": "regional;fish",
      "name": "Chiringuito El Campano",
      "name:es": "Chiringuito El Campano",
      "nohousenumber": "yes",
      "phone": "+34 958 34 94 61"
    }
  },
  {
    "type": "node",
    "id": 4006061047,
    "lat": 36.7154515,
    "lon": -4.2848985,
    "timestamp": "2024-05-15T07:37:12Z",
    "version": 4,
    "changeset": 151344742,
    "user": "kapazao_import",
    "uid": 8770019,
    "tags": {
      "addr:city": "Rincón de la Victoria",
      "addr:housenumber": "4",
      "addr:postcode": "29730",
      "addr:street": "Calle de Córdoba",
      "amenity": "restaurant",
      "cuisine": "regional",
      "name": "El Fogón de la Abuela",
      "opening_hours": "12:30-17:30,19:00-02:00; We off",
      "phone": "+34 678488527",
      "website": "https://elfogondelaabuela.com/"
    }
  },
  {
    "type": "node",
    "id": 4006069985,
    "lat": 36.9032656,
    "lon": -4.120908,
    "timestamp": "2016-02-14T18:25:47Z",
    "version": 1,
    "changeset": 37209551,
    "user": "rudidu1",
    "uid": 3627304,
    "tags": {
      "amenity": "restaurant",
      "cuisine": "regional",
      "name": "Venta La Parra",
      "opening_hours": "12:00-22:00"
    }
  },
  {
    "type": "node",
    "id": 4008189305,
    "lat": 36.7596247,
    "lon": -4.1849685,
    "timestamp": "2016-02-15T20:56:14Z",
    "version": 1,
    "changeset": 37233735,
    "user": "Parie",
    "uid": 246941,
    "tags": {
      "amenity": "restaurant"
    }
  },
  {
    "type": "node",
    "id": 4031881100,
    "lat": 36.7388133,
    "lon": -3.7532494,
    "timestamp": "2024-12-21T15:47:13Z",
    "version": 8,
    "changeset": 160470980,
    "user": "Đuro Jiří",
    "uid": 14617702,
    "tags": {
      "air_conditioning": "yes",
      "amenity": "restaurant",
      "indoor_seating": "yes",
      "internet_access": "wlan",
      "name": "MarDela",
      "opening_hours": "We-Mo 13:00-16:00, 19:30-22:30",
      "outdoor_seating": "yes",
      "wheelchair": "yes"
    }
  },
  {
    "type": "node",
    "id": 4071259436,
    "lat": 36.7434278,
    "lon": -3.5258839,
    "timestamp": "2019-07-16T20:28:28Z",
    "version": 4,
    "changeset": 72322396,
    "user": "kapazao",
    "uid": 7543375,
    "tags": {
      "addr:city": "Motril",
      "addr:housenumber": "12",
      "addr:postcode": "18600",
      "addr:street": "Calle Río Guadiana",
      "amenity": "restaurant",
      "cuisine": "italian",
      "description": "Restaurante de comida italiana",
      "name": "Restaurante Marelli",
      "phone": "+34 958 60 02 49",
      "smoking": "outside",
      "takeaway": "no"
    }
  },
  {
    "type": "node",
    "id": 4087056379,
    "lat": 36.9155238,
    "lon": -4.0921873,
    "timestamp": "2019-11-06T20:07:52Z",
    "version": 3,
    "changeset": 76720694,
    "user": "Parie",
    "uid": 246941,
    "tags": {
      "amenity": "restaurant",
      "bar": "yes",
      "cuisine": "regional",
      "internet_access": "no",
      "name": "Restaurante Cortijo del Alcázar",
      "opening_hours": "Sa-Su 12:00-18:00",
      "outdoor_seating": "yes",
      "phone": "+34 685 30 03 38"
    }
  },
  {
    "type": "node",
    "id": 4098064038,
    "lat": 36.8872295,
    "lon": -3.4175587,
    "timestamp": "2016-04-04T20:01:13Z",
    "version": 1,
    "changeset": 38300620,
    "user": "Telse",
    "uid": 610833,
    "tags": {
      "amenity": "restaurant",
      "cuisine": "regional",
      "name": "El Camping"
    }
  },
  {
    "type": "node",
    "id": 4106637493,
    "lat": 36.7305964,
    "lon": -3.6966088,
    "timestamp": "2024-11-29T16:01:35Z",
    "version": 4,
    "changeset": 159747955,
    "user": "kapazao",
    "uid": 7543375,
    "tags": {
      "addr:postcode": "18690",
      "addr:street": "Paseo Miguel Ángel Blanco",
      "amenity": "restaurant",
      "cuisine": "fish",
      "name": "Restaurante Cortijillo Playa"
    }
  },
  {
    "type": "node",
    "id": 4163645836,
    "lat": 36.9620499,
    "lon": -3.3574108,
    "timestamp": "2016-05-03T17:20:11Z",
    "version": 1,
    "changeset": 39071751,
    "user": "Creando",
    "uid": 132740,
    "tags": {
      "amenity": "restaurant",
      "name": "Finca los Llanos"
    }
  },
  {
    "type": "node",
    "id": 4164894090,
    "lat": 36.7478433,
    "lon": -3.8717161,
    "timestamp": "2016-05-04T07:46:39Z",
    "version": 1,
    "changeset": 39089701,
    "user": "Kat4",
    "uid": 3913824,
    "tags": {
      "amenity": "restaurant",
      "name": "Bakus"
    }
  },
  {
    "type": "node",
    "id": 4164895892,
    "lat": 36.7467037,
    "lon": -3.8735351,
    "timestamp": "2022-04-17T13:33:36Z",
    "version": 2,
    "changeset": 119816935,
    "user": "gpesquero",
    "uid": 3584,
    "tags": {
      "addr:housenumber": "50",
      "addr:street": "Calle Hernando Carabeo",
      "amenity": "restaurant",
      "name": "Benítez"
    }
  },
  {
    "type": "node",
    "id": 4164895893,
    "lat": 36.7479814,
    "lon": -3.8722702,
    "timestamp": "2016-05-04T07:47:10Z",
    "version": 1,
    "changeset": 39089701,
    "user": "Kat4",
    "uid": 3913824,
    "tags": {
      "amenity": "restaurant",
      "name": "Cibeles"
    }
  },
  {
    "type": "node",
    "id": 4165777892,
    "lat": 36.7454069,
    "lon": -3.876418,
    "timestamp": "2016-06-07T11:27:00Z",
    "version": 2,
    "changeset": 39858949,
    "user": "Lübeck",
    "uid": 55462,
    "tags": {
      "amenity": "restaurant",
      "check_date": "2016-05-25",
      "name": "El Candil"
    }
  },
  {
    "type": "node",
    "id": 4169461367,
    "lat": 36.9179257,
    "lon": -3.4867445,
    "timestamp": "2018-12-11T21:52:53Z",
    "version": 2,
    "changeset": 65390252,
    "user": "mor",
    "uid": 220932,
    "tags": {
      "amenity": "restaurant",
      "cuisine": "pizza",
      "name": "Pizzería Bacares"
    }
  },
  {
    "type": "node",
    "id": 4169497785,
    "lat": 36.9180314,
    "lon": -3.4861836,
    "timestamp": "2022-06-22T21:20:31Z",
    "version": 2,
    "changeset": 122729684,
    "user": "alex_lofi",
    "uid": 6816316,
    "tags": {
      "amenity": "restaurant",
      "name": "Restaurante Los Mariscos",
      "phone": "+34 958770877"
    }
  },
  {
    "type": "node",
    "id": 4169632189,
    "lat": 36.9175937,
    "lon": -3.4854322,
    "timestamp": "2024-08-27T16:06:02Z",
    "version": 2,
    "changeset": 155839680,
    "user": "Juanmi81",
    "uid": 20115798,
    "tags": {
      "amenity": "restaurant",
      "name": "La Regüerta"
    }
  },
  {
    "type": "node",
    "id": 4169727777,
    "lat": 36.9188272,
    "lon": -3.4895344,
    "timestamp": "2023-08-26T17:13:06Z",
    "version": 2,
    "changeset": 140421808,
    "user": "areyesl",
    "uid": 9370539,
    "tags": {
      "amenity": "restaurant",
      "name": "Mesón Salado"
    }
  },