[
  {
    "type": "node",
    "id": 292553724,
    "lat": 36.5573544,
    "lon": -4.6133958,
    "timestamp": "2020-06-23T16:11:55Z",
    "version": 3,
    "changeset": 87042793,
    "user": "CarlosMG",
    "uid": 2163609,
    "tags": {
      "addr:city": "Fuengirola",
      "amenity": "restaurant",
      "cuisine": "chinese",
      "name": "Chino Chang"
    }
  },
  {
    "type": "node",
    "id": 292803563,
    "lat": 36.7404305,
    "lon": -5.1652921,
    "timestamp": "2024-04-23T10:26:12Z",
    "version": 8,
    "changeset": 150387509,
    "user": "kapazao_import",
    "uid": 8770019,
    "tags": {
      "addr:city": "Ronda",
      "addr:country": "ES",
      "addr:housenumber": "1",
      "addr:postcode": "29400",
      "addr:street": "Calle de Armiñan",
      "amenity": "restaurant",
      "name": "La Pilastra del Torero",
      "phone": "+34 952 877169",
      "website": "http://www.lapilastra.com"
    }
  },
  {
    "type": "node",
    "id": 292805134,
    "lat": 36.738201,
    "lon": -5.1630797,
    "timestamp": "2016-06-07T08:16:12Z",
    "version": 5,
    "changeset": 39854981,
    "user": "wheelmap_visitor",
    "uid": 290680,
    "tags": {
      "amenity": "restaurant",
      "name": "Bar Clemente",
      "toilets:wheelchair": "yes",
      "wheelchair": "yes"
    }
  },
  {
    "type": "node",
    "id": 292805172,
    "lat": 36.7394771,
    "lon": -5.1662238,
    "timestamp": "2017-08-03T19:55:23Z",
    "version": 3,
    "changeset": 50819190,
    "user": "eugene-lisovskiy",
    "uid": 3708354,
    "tags": {
      "amenity": "restaurant",
      "name": "Duquesa de Parcent",
      "name:es": "Duquesa de Parcent"
    }
  },
  {
    "type": "node",
    "id": 293061651,
    "lat": 36.5953187,
    "lon": -4.6365274,
    "timestamp": "2016-05-19T10:57:27Z",
    "version": 2,
    "changeset": 39421073,
    "user": "NachoCarral",
    "uid": 2595123,
    "tags": {
      "amenity": "restaurant"
    }
  },
  {
    "type": "node",
    "id": 293064498,
    "lat": 36.5942341,
    "lon": -4.6387693,
    "timestamp": "2023-03-02T09:30:36Z",
    "version": 4,
    "changeset": 133203502,
    "user": "felixi",
    "uid": 293845,
    "tags": {
      "amenity": "restaurant",
      "cuisine": "spanish",
      "designation": "Cocina Vasca",
      "name": "El Mirlo Blanco"
    }
  },
  {
    "type": "node",
    "id": 307989182,
    "lat": 36.5870739,
    "lon": -4.5996586,
    "timestamp": "2023-10-15T10:04:50Z",
    "version": 6,
    "changeset": 142610460,
    "user": "b-jazz-bot",
    "uid": 9451067,
    "tags": {
      "addr:full": "Autovia de la Costa del Sol, Salida 217, direccion Mijas Pueblo, Fuengirola, Malaga",
      "amenity": "restaurant",
      "cuisine": "spanish",
      "name": "El Higuerón",
      "website": "https://elhigueron.com/"
    }
  },
  {
    "type": "node",
    "id": 319814008,
    "lat": 36.4486058,
    "lon": -5.2586311,
    "timestamp": "2008-12-18T20:39:11Z",
    "version": 1,
    "changeset": 463266,
    "user": "UFeldmaus",
    "uid": 41190,
    "tags": {
      "amenity": "restaurant",
      "name": "Bar Arroyo Hondo"
    }
  },
  {
    "type": "node",
    "id": 320622562,
    "lat": 36.4590035,
    "lon": -5.0412494,
    "timestamp": "2016-05-28T11:56:53Z",
    "version": 2,
    "changeset": 39622583,
    "user": "Auto Taxi Estepona",
    "uid": 3671537,
    "tags": {
      "amenity": "restaurant",
      "name": "Pepes Beach"
    }
  },
  {
    "type": "node",
    "id": 320622575,
    "lat": 36.4590028,
    "lon": -5.0425814,
    "timestamp": "2020-08-31T13:17:09Z",
    "version": 5,
    "changeset": 90194484,
    "user": "yuzzz",
    "uid": 11738410,
    "tags": {
      "amenity": "restaurant",
      "name": "La Antigua",
      "note": "Building demolished/gone. Please delete object when not visible on Bing anymore"
    }
  },
  {
    "type": "node",
    "id": 364692487,
    "lat": 36.9974241,
    "lon": -4.6041699,
    "timestamp": "2009-03-22T13:28:09Z",
    "version": 1,
    "changeset": 845056,
    "user": "akr75",
    "uid": 36981,
    "tags": {
      "amenity": "restaurant",
      "created_by": "Potlatch 0.10f",
      "name": "Gazpacho II"
    }
  },
  {
    "type": "node",
    "id": 364692618,
    "lat": 36.9999809,
    "lon": -4.5543109,
    "timestamp": "2009-03-22T13:28:40Z",
    "version": 1,
    "changeset": 845056,
    "user": "akr75",
    "uid": 36981,
    "tags": {
      "amenity": "restaurant",
      "created_by": "Potlatch 0.10f",
      "name": "El Conejo"
    }
  },
  {
    "type": "node",
    "id": 432424872,
    "lat": 36.3699014,
    "lon": -5.2237706,
    "timestamp": "2009-07-02T07:29:24Z",
    "version": 1,
    "changeset": 1707267,
    "user": "Gary68",
    "uid": 49317,
    "tags": {
      "amenity": "restaurant"
    }
  },
  {
    "type": "node",
    "id": 503683344,
    "lat": 36.5727978,
    "lon": -4.5881291,
    "timestamp": "2024-04-08T09:26:53Z",
    "version": 5,
    "changeset": 149725759,
    "user": "LFSW",
    "uid": 5421217,
    "tags": {
      "addr:street": "Playa de Carvajal",
      "amenity": "restaurant",
      "cuisine": "regional",
      "name": "Kalifato",
      "opening_hours": "Mo-Su 10:00-21:30",
      "phone": "+34952568259"
    }
  },
  {
    "type": "node",
    "id": 535711679,
    "lat": 36.4913265,
    "lon": -4.7635887,
    "timestamp": "2015-07-26T12:01:05Z",
    "version": 2,
    "changeset": 32887793,
    "user": "RockyRoad101",
    "uid": 2037901,
    "tags": {
      "amenity": "restaurant"
    }
  },
  {
    "type": "node",
    "id": 539181797,
    "lat": 36.4279121,
    "lon": -5.1455538,
    "timestamp": "2023-09-21T20:23:53Z",
    "version": 4,
    "changeset": 141576724,
    "user": "Hugoren Martinako",
    "uid": 3392826,
    "tags": {
      "addr:city": "Estepona",
      "addr:housenumber": "57",
      "addr:postcode": "29680",
      "addr:street": "Calle Terraza",
      "amenity": "restaurant",
      "cuisine": "regional",
      "name": "Cafeteria La Palma",
      "phone": "+34 952 80 06 02",
      "website": "http://www.barlapalma.com/"
    }
  },
  {
    "type": "node",
    "id": 539340282,
    "lat": 36.426232,
    "lon": -5.1452547,
    "timestamp": "2009-10-24T08:40:46Z",
    "version": 1,
    "changeset": 2935200,
    "user": "fcrump",
    "uid": 97369,
    "tags": {
      "amenity": "restaurant"
    }
  },
  {
    "type": "node",
    "id": 539340284,
    "lat": 36.4259356,
    "lon": -5.1454719,
    "timestamp": "2011-02-02T13:50:40Z",
    "version": 2,
    "changeset": 7164885,
    "user": "DanX",
    "uid": 321862,
    "tags": {
      "amenity": "restaurant"
    }
  },
  {
    "type": "node",
    "id": 539340286,
    "lat": 36.42572,
    "lon": -5.145758,
    "timestamp": "2025-01-13T13:09:01Z",
    "version": 3,
    "changeset": 161309162,
    "user": "Tobias235",
    "uid": 14827393,
    "tags": {
      "addr:city": "Estepona",
      "addr:housenumber": "14",
      "addr:postcode": "29680",
      "addr:street": "Plaza de las Flores",
      "amenity": "restaurant",
      "name": "La Sureña"
    }
  },
  {
    "type": "node",
    "id": 561056097,
    "lat": 36.6230942,
    "lon": -4.4972217,
    "timestamp": "2017-02-07T16:58:43Z",
    "version": 2,
    "changeset": 45890789,
    "user": "Graeme Herbert",
    "uid": 526776,
    "tags": {
      "addr:city": "Torremolinos",
      "amenity": "restaurant",
      "contact:phone": "+34 951 50 10 15",
      "contact:website": "http://www.tabernamansiega.com/",
      "name": "Taberna Mansiega"
    }
  },
  {
    "type": "node",
    "id": 566443666,
    "lat": 36.42275,
    "lon": -5.14722,
    "timestamp": "2024-12-26T15:23:22Z",
    "version": 3,
    "changeset": 160640041,
    "user": "Đuro Jiří",
    "uid": 14617702,
    "tags": {
      "amenity": "restaurant",
      "check_date": "2024-12-26",
      "indoor_seating": "yes",
      "name": "Chiringuito Central",
      "outdoor_seating": "yes"
    }
  },
  {
    "type": "node",
    "id": 583264889,
    "lat": 36.7410526,
    "lon": -5.1665849,
    "timestamp": "2022-05-24T16:30:56Z",
    "version": 5,
    "changeset": 121434118,
    "user": "jogar86",
    "uid": 14274260,
    "tags": {
      "amenity": "restaurant",
      "name": "Paradores"
    }
  },
  {
    "type": "node",
    "id": 583264891,
    "lat": 36.7411226,
    "lon": -5.1659435,
    "timestamp": "2022-05-24T08:09:34Z",
    "version": 4,
    "changeset": 121408221,
    "user": "jogar86",
    "uid": 14274260,
    "tags": {
      "amenity": "restaurant",
      "internet_access": "wlan",
      "name": "Don Miguel"
    }
  },
  {
    "type": "node",
    "id": 583264893,
    "lat": 36.7419633,
    "lon": -5.1666393,
    "timestamp": "2018-01-12T18:22:06Z",
    "version": 3,
    "changeset": 55387839,
    "user": "izpura",
    "uid": 2998499,
    "tags": {
      "amenity": "restaurant",
      "name": "Jerez"
    }
  },
  {
    "type": "node",
    "id": 583268887,
    "lat": 36.41924,
    "lon": -5.15383,
    "timestamp": "2009-12-08T13:50:48Z",
    "version": 1,
    "changeset": 3324953,
    "user": "andy-de",
    "uid": 101570,
    "tags": {
      "amenity": "restaurant",
      "name": "El Palangre"
    }
  },
  {
    "type": "node",
    "id": 583279029,
    "lat": 36.71359,
    "lon": -5.24709,
    "timestamp": "2009-12-08T14:32:42Z",
    "version": 1,
    "changeset": 3325215,
    "user": "andy-de",
    "uid": 101570,
    "tags": {
      "amenity": "restaurant",
      "name": "Bar Stop"
    }
  },
  {
    "type": "node",
    "id": 596335116,
    "lat": 36.462082,
    "lon": -5.0179051,
    "timestamp": "2013-06-18T12:03:59Z",
    "version": 3,
    "changeset": 16602699,
    "user": "occam11",
    "uid": 301486,
    "tags": {
      "amenity": "restaurant",
      "name": "La Vela Azul"
    }
  },
  {
    "type": "node",
    "id": 602753092,
    "lat": 36.4658304,
    "lon": -5.0262725,
    "timestamp": "2010-01-01T21:33:33Z",
    "version": 1,
    "changeset": 3514016,
    "user": "UFeldmaus",
    "uid": 41190,
    "tags": {
      "amenity": "restaurant",
      "name": "Oriental"
    }
  },
  {
    "type": "node",
    "id": 617584094,
    "lat": 36.727966,
    "lon": -4.5463936,
    "timestamp": "2010-01-21T12:21:33Z",
    "version": 1,
    "changeset": 3674138,
    "user": "Rummidge",
    "uid": 31545,
    "tags": {
      "amenity": "restaurant",
      "cuisine": "regional",
      "name": "La Competencia"
    }
  },
  {
    "type": "node",
    "id": 639263016,
    "lat": 36.6657895,
    "lon": -4.4647566,
    "timestamp": "2023-01-29T10:34:16Z",
    "version": 6,
    "changeset": 131835192,
    "user": "AlvaroRG",
    "uid": 9416256,
    "tags": {
      "addr:housenumber": "29",
      "addr:postcode": "29004",
      "addr:street": "Calle Rogelio Oliva",
      "amenity": "restaurant",
      "name": "Frascati"
    }
  },
  {
    "type": "node",
    "id": 658357220,
    "lat": 36.5951392,
    "lon": -4.6379379,
    "timestamp": "2023-02-27T16:42:53Z",
    "version": 5,
    "changeset": 133095325,
    "user": "felixi",
    "uid": 293845,
    "tags": {
      "amenity": "restaurant",
      "name": "Tapintxo"
    }
  },
  {
    "type": "node",
    "id": 663334398,
    "lat": 36.6004853,
    "lon": -4.5296409,
    "timestamp": "2015-04-01T22:28:50Z",
    "version": 2,
    "changeset": 29917095,
    "user": "jaakkoh",
    "uid": 24440,
    "tags": {
      "amenity": "restaurant",
      "name": "The Wok"
    }
  },
  {
    "type": "node",
    "id": 682133581,
    "lat": 36.290529,
    "lon": -5.271151,
    "timestamp": "2021-07-18T09:40:45Z",
    "version": 4,
    "changeset": 108185475,
    "user": "kapazao",
    "uid": 7543375,
    "tags": {
      "addr:street": "Paseo del Puerto",
      "amenity": "restaurant",
      "cuisine": "spanish",
      "name": "Midas",
      "wheelchair": "limited"
    }
  },
  {
    "type": "node",
    "id": 683898372,
    "lat": 36.3003339,
    "lon": -5.2692238,
    "timestamp": "2014-04-17T20:19:11Z",
    "version": 2,
    "changeset": 21757225,
    "user": "VoidSparkEcho",
    "uid": 642594,
    "tags": {
      "amenity": "restaurant",
      "cuisine": "spanish",
      "name": "Pura Tapa"
    }
  },
  {
    "type": "node",
    "id": 683902932,
    "lat": 36.3012728,
    "lon": -5.2679539,
    "timestamp": "2014-04-17T20:19:11Z",
    "version": 4,
    "changeset": 21757225,
    "user": "VoidSparkEcho",
    "uid": 642594,
    "tags": {
      "amenity": "restaurant",
      "cuisine": "italian",
      "name": "Dolce Vita"
    }
  },
  {
    "type": "node",
    "id": 737978878,
    "lat": 36.5539251,
    "lon": -4.6134892,
    "timestamp": "2011-04-26T13:42:49Z",
    "version": 4,
    "changeset": 7974941,
    "user": "Joe E",
    "uid": 114310,
    "tags": {
      "amenity": "restaurant",
      "cuisine": "chinese",
      "source": "survey"
    }
  },
  {
    "type": "node",
    "id": 737978888,
    "lat": 36.5502605,
    "lon": -4.6161436,
    "timestamp": "2012-08-02T17:13:42Z",
    "version": 2,
    "changeset": 12588366,
    "user": "Joe E",
    "uid": 114310,
    "tags": {
      "amenity": "restaurant",
      "cuisine": "grill"
    }
  },
  {
    "type": "node",
    "id": 765589787,
    "lat": 36.7241887,
    "lon": -4.4211164,
    "timestamp": "2022-07-08T10:01:41Z",
    "version": 7,
    "changeset": 123354128,
    "user": "Pavol33",
    "uid": 15262530,
    "tags": {
      "addr:housenumber": "92",
      "addr:postcode": "29008",
      "addr:street": "Calle Carretería",
      "amenity": "restaurant",
      "name": "El Apartamento",
      "old_name": "Il Laboratorio Trattoria",
      "phone": "+34 951 437 976",
      "toilets": "yes",
      "toilets:access": "customers",
      "toilets:female": "yes",
      "toilets:male": "yes",
      "website": "http://elapartamentogastrobar.com/",
      "wheelchair": "yes"
    }
  },
  {
    "type": "node",
    "id": 766071311,
    "lat": 36.720385,
    "lon": -4.4219753,
    "timestamp": "2023-10-15T09:59:50Z",
    "version": 5,
    "changeset": 142610235,
    "user": "b-jazz-bot",
    "uid": 9451067,
    "tags": {
      "addr:housenumber": "3",
      "addr:place": "Plaza de Las Flores",
      "addr:postcode": "29005",
      "amenity": "restaurant",
      "cuisine": "mediterranean",
      "level": "0",
      "name": "Beluga",
      "outdoor_seating": "yes",
      "phone": "+34 952 214 253",
      "takeaway": "no",
      "website": "https://belugamalaga.es/",
      "wheelchair": "yes"
    }
  },
  {
    "type": "node",
    "id": 775599726,
    "lat": 36.4812488,
    "lon": -5.0175617,
    "timestamp": "2011-12-01T12:36:36Z",
    "version": 3,
    "changeset": 10007668,
    "user": "occam11",
    "uid": 301486,
    "tags": {
      "amenity": "restaurant",
      "cuisine": "international",
      "name": "Atalaya Golf & Country Club"
    }
  },
  {
    "type": "node",
    "id": 775875011,
    "lat": 36.7416168,
    "lon": -5.1668938,
    "timestamp": "2014-10-06T21:26:21Z",
    "version": 4,
    "changeset": 25906592,
    "user": "Matthias Frank",
    "uid": 287306,
    "tags": {
      "amenity": "restaurant"
    }
  },
  {
    "type": "node",
    "id": 775875012,
    "lat": 36.7415809,
    "lon": -5.1665954,
    "timestamp": "2012-12-31T21:34:44Z",
    "version": 3,
    "changeset": 14482292,
    "user": "CiudadDelTajo",
    "uid": 1050159,
    "tags": {
      "amenity": "restaurant"
    }
  },
  {
    "type": "node",
    "id": 925634530,
    "lat": 36.506958,
    "lon": -4.7275632,
    "timestamp": "2020-09-20T14:32:58Z",
    "version": 8,
    "changeset": 91177512,
    "user": "Raj GPSnut Rijhwani",
    "uid": 342523,
    "tags": {
      "addr:housename": "El Puente 3",
      "addr:postcode": "29649",
      "addr:street": "Calle José de Orbaneja",
      "amenity": "restaurant",
      "cuisine": "international",
      "name": "Miel y Nata Mountain",
      "source": "survey"
    }
  },
  {
    "type": "node",
    "id": 934976328,
    "lat": 36.4667095,
    "lon": -5.0259702,
    "timestamp": "2016-05-27T13:06:39Z",
    "version": 2,
    "changeset": 39603783,
    "user": "Auto Taxi Estepona",
    "uid": 3671537,
    "tags": {
      "amenity": "restaurant",
      "name": "Gala"
    }
  },
  {
    "type": "node",
    "id": 934976402,
    "lat": 36.4660026,
    "lon": -5.0293322,
    "timestamp": "2024-12-24T20:11:30Z",
    "version": 3,
    "changeset": 160586762,
    "user": "zx6r ninja",
    "uid": 4900785,
    "tags": {
      "amenity": "restaurant",
      "cuisine": "spanish",
      "name": "Don Juan"
    }
  },
  {
    "type": "node",
    "id": 934976567,
    "lat": 36.4669039,
    "lon": -5.0267997,
    "timestamp": "2010-10-02T13:27:59Z",
    "version": 1,
    "changeset": 5936221,
    "user": "UFeldmaus",
    "uid": 41190,
    "tags": {
      "amenity": "restaurant",
      "cuisine": "italian",
      "name": "De Medici"
    }
  },
  {
    "type": "node",
    "id": 944853592,
    "lat": 36.3865204,
    "lon": -5.2563036,
    "timestamp": "2010-10-11T06:54:30Z",
    "version": 1,
    "changeset": 6008889,
    "user": "UFeldmaus",
    "uid": 41190,
    "tags": {
      "amenity": "restaurant",
      "name": "Amstrongs Restaurant"
    }
  },
  {
    "type": "node",
    "id": 944853972,
    "lat": 36.3916138,
    "lon": -5.2599799,
    "timestamp": "2011-02-20T08:36:23Z",
    "version": 2,
    "changeset": 7339524,
    "user": "UFeldmaus",
    "uid": 41190,
    "tags": {
      "amenity": "restaurant",
      "name": "Los Alamos"
    }
  },
  {
    "type": "node",
    "id": 945203420,
    "lat": 36.9318623,
    "lon": -4.6218793,
    "timestamp": "2010-10-11T16:07:31Z",
    "version": 1,
    "changeset": 6013116,
    "user": "UFeldmaus",
    "uid": 41190,
    "tags": {
      "amenity": "restaurant",
      "name": "Venta Bar Vargas"
    }
  },
  {
    "type": "node",
    "id": 945203442,
    "lat": 36.9294314,
    "lon": -4.5343475,
    "timestamp": "2010-10-11T16:07:34Z",
    "version": 1,
    "changeset": 6013116,
    "user": "UFeldmaus",
    "uid": 41190,
    "tags": {
      "amenity": "restaurant",
      "name": "Rincon de la Villa"
    }
  },
  {
    "type": "node",
    "id": 962237478,
    "lat": 36.4439232,
    "lon": -5.2733327,
    "timestamp": "2010-10-23T21:08:26Z",
    "version": 1,
    "changeset": 6151640,
    "user": "UFeldmaus",
    "uid": 41190,
    "tags": {
      "amenity": "restaurant",
      "cuisine": "regional",
      "name": "Meson Los Claveles"
    }
  },
  {
    "type": "node",
    "id": 968027950,
    "lat": 36.5642379,
    "lon": -5.2177046,
    "timestamp": "2010-10-28T16:10:21Z",
    "version": 1,
    "changeset": 6209954,
    "user": "UFeldmaus",
    "uid": 41190,
    "tags": {
      "amenity": "restaurant",
      "cuisine": "regional",
      "name": "Meson La Pozuela"
    }
  },
  {
    "type": "node",
    "id": 976565981,
    "lat": 36.7143099,
    "lon": -5.2447686,
    "timestamp": "2017-10-17T20:50:08Z",
    "version": 2,
    "changeset": 53023295,
    "user": "ulmtuelp",
    "uid": 120153,
    "tags": {
      "amenity": "restaurant",
      "name": "Asador El Muelle"
    }
  },
  {
    "type": "node",
    "id": 978142596,
    "lat": 36.5071667,
    "lon": -4.7276983,
    "timestamp": "2020-09-20T14:32:58Z",
    "version": 3,
    "changeset": 91177512,
    "user": "Raj GPSnut Rijhwani",
    "uid": 342523,
    "tags": {
      "addr:postcode": "29649",
      "addr:street": "Calle José de Orbaneja",
      "amenity": "restaurant",
      "cuisine": "italian",
      "name": "Papillon (abandoned)"
    }
  },
  {
    "type": "node",
    "id": 978841992,
    "lat": 36.4892118,
    "lon": -4.7285749,
    "timestamp": "2015-03-25T12:45:36Z",
    "version": 4,
    "changeset": 29726327,
    "user": "NachoCarral",
    "uid": 2595123,
    "tags": {
      "amenity": "restaurant",
      "name": "Miel y Nata Los Cipreses"
    }
  },
  {
    "type": "node",
    "id": 978951297,
    "lat": 36.9524534,
    "lon": -4.5450922,
    "timestamp": "2023-04-16T11:43:16Z",
    "version": 3,
    "changeset": 134971330,
    "user": "Hoschmi72",
    "uid": 2065966,
    "tags": {
      "amenity": "restaurant"
    }
  },
  {
    "type": "node",
    "id": 979086372,
    "lat": 36.7349027,
    "lon": -5.2507083,
    "timestamp": "2017-10-26T21:19:28Z",
    "version": 2,
    "changeset": 53274501,
    "user": "ulmtuelp",
    "uid": 120153,
    "tags": {
      "addr:city": "Montejaque",
      "addr:country": "ES",
      "addr:housenumber": "5",
      "addr:postcode": "29360",
      "addr:street": "Calle Cardenal Herrera Oria",
      "amenity": "restaurant",
      "name": "La Casita"
    }
  },
  {
    "type": "node",
    "id": 979086792,
    "lat": 36.7340103,
    "lon": -5.2514353,
    "timestamp": "2017-10-18T20:37:24Z",
    "version": 3,
    "changeset": 53052181,
    "user": "ulmtuelp",
    "uid": 120153,
    "tags": {
      "addr:city": "Montejaque",
      "addr:country": "ES",
      "addr:housenumber": "1",
      "addr:postcode": "29360",
      "addr:street": "Plaza de la Constitución",
      "amenity": "restaurant",
      "name": "Bodega El Rincón"
    }
  },
  {
    "type": "node",
    "id": 979976342,
    "lat": 36.4897899,
    "lon": -4.7148915,
    "timestamp": "2012-01-16T12:52:17Z",
    "version": 2,
    "changeset": 10406670,
    "user": "patriciaf",
    "uid": 351285,
    "tags": {
      "amenity": "restaurant",
      "name": "Villa Paradiso"
    }
  },
  {
    "type": "node",
    "id": 979976368,
    "lat": 36.4899162,
    "lon": -4.7147601,
    "timestamp": "2012-01-16T12:52:18Z",
    "version": 2,
    "changeset": 10406670,
    "user": "patriciaf",
    "uid": 351285,
    "tags": {
      "amenity": "restaurant",
      "name": "Akira Fuji"
    }
  },
  {
    "type": "node",
    "id": 979976381,
    "lat": 36.4896951,
    "lon": -4.714296,
    "timestamp": "2012-01-16T12:52:17Z",
    "version": 2,
    "changeset": 10406670,
    "user": "patriciaf",
    "uid": 351285,
    "tags": {
      "amenity": "restaurant",
      "name": "The Boathouse"
    }
  },
  {
    "type": "node",
    "id": 979976789,
    "lat": 36.492288,
    "lon": -4.7147,
    "timestamp": "2023-07-12T10:39:49Z",
    "version": 4,
    "changeset": 138416697,
    "user": "NachoCarral",
    "uid": 2595123,
    "tags": {
      "amenity": "restaurant",
      "name": "Los Olivos"
    }
  },
  {
    "type": "node",
    "id": 979986139,
    "lat": 36.4855401,
    "lon": -4.7410506,
    "timestamp": "2023-08-03T04:29:02Z",
    "version": 3,
    "changeset": 139372591,
    "user": "thetornado76",
    "uid": 1624486,
    "tags": {
      "amenity": "restaurant",
      "name": "Alberts Bar & Grill",
      "old_name": "Albert's on the Port",
      "outdoor_seating": "yes"
    }
  },
  {
    "type": "node",
    "id": 979986371,
    "lat": 36.4855741,
    "lon": -4.7409517,
    "timestamp": "2023-08-03T04:29:02Z",
    "version": 3,
    "changeset": 139372591,
    "user": "thetornado76",
    "uid": 1624486,
    "tags": {
      "amenity": "restaurant",
      "cuisine": "italian;mediterranean;pizza",
      "name": "La Dispensa",
      "outdoor_seating": "yes",
      "source": "survey"
    }
  },
  {
    "type": "node",
    "id": 981919345,
    "lat": 36.4928422,
    "lon": -4.718548,
    "timestamp": "2010-11-08T04:55:44Z",
    "version": 1,
    "changeset": 6317921,
    "user": "Raj GPSnut Rijhwani",
    "uid": 342523,
    "tags": {
      "amenity": "restaurant",
      "name": "Little India"
    }
  },
  {
    "type": "node",
    "id": 981919346,
    "lat": 36.4930492,
    "lon": -4.7187626,
    "timestamp": "2010-11-08T04:55:44Z",
    "version": 1,
    "changeset": 6317921,
    "user": "Raj GPSnut Rijhwani",
    "uid": 342523,
    "tags": {
      "amenity": "restaurant",
      "name": "Little Mexico"
    }
  },
  {
    "type": "node",
    "id": 981919349,
    "lat": 36.4932648,
    "lon": -4.7189557,
    "timestamp": "2010-11-08T04:55:44Z",
    "version": 1,
    "changeset": 6317921,
    "user": "Raj GPSnut Rijhwani",
    "uid": 342523,
    "tags": {
      "amenity": "restaurant",
      "name": "Little Italy"
    }
  },
  {
    "type": "node",
    "id": 981919350,
    "lat": 36.4933597,
    "lon": -4.7190523,
    "timestamp": "2010-11-08T04:55:44Z",
    "version": 1,
    "changeset": 6317921,
    "user": "Raj GPSnut Rijhwani",
    "uid": 342523,
    "tags": {
      "amenity": "restaurant",
      "name": "Fish & Co"
    }
  },
  {
    "type": "node",
    "id": 981923293,
    "lat": 36.4926093,
    "lon": -4.718312,
    "timestamp": "2010-11-08T05:06:56Z",
    "version": 1,
    "changeset": 6317934,
    "user": "Raj GPSnut Rijhwani",
    "uid": 342523,
    "tags": {
      "amenity": "restaurant",
      "name": "Fong Sheng"
    }
  },
  {
    "type": "node",
    "id": 981923298,
    "lat": 36.4923008,
    "lon": -4.7180368,
    "timestamp": "2023-01-13T12:26:55Z",
    "version": 4,
    "changeset": 131227835,
    "user": "NachoCarral",
    "uid": 2595123,
    "tags": {
      "amenity": "restaurant",
      "cuisine": "chinese",
      "name": "Slow Boat"
    }
  },
  {
    "type": "node",
    "id": 982345854,
    "lat": 36.5619897,
    "lon": -4.8615339,
    "timestamp": "2010-11-08T13:28:34Z",
    "version": 1,
    "changeset": 6320669,
    "user": "UFeldmaus",
    "uid": 41190,
    "tags": {
      "amenity": "restaurant",
      "name": "Piscina de Ojen"
    }
  },
  {
    "type": "node",
    "id": 982346200,
    "lat": 36.564226,
    "lon": -4.8558784,
    "timestamp": "2010-11-08T13:29:04Z",
    "version": 1,
    "changeset": 6320669,
    "user": "UFeldmaus",
    "uid": 41190,
    "tags": {
      "amenity": "restaurant",
      "name": "Bodega El Cordero"
    }
  },
  {
    "type": "node",
    "id": 982346552,
    "lat": 36.5641752,
    "lon": -4.856818,
    "timestamp": "2010-11-08T13:29:36Z",
    "version": 1,
    "changeset": 6320669,
    "user": "UFeldmaus",
    "uid": 41190,
    "tags": {
      "amenity": "restaurant",
      "name": "Terraza Bar"
    }
  },
  {
    "type": "node",
    "id": 982646749,
    "lat": 36.5634589,
    "lon": -4.856946,
    "timestamp": "2015-03-26T21:22:09Z",
    "version": 2,
    "changeset": 29764388,
    "user": "samely",
    "uid": 2512300,
    "tags": {
      "amenity": "restaurant",
      "name": "El Fogon de Flore"
    }
  },
  {
    "type": "node",
    "id": 1007555443,
    "lat": 36.5480083,
    "lon": -4.8619543,
    "timestamp": "2010-11-27T13:40:18Z",
    "version": 1,
    "changeset": 6469864,
    "user": "UFeldmaus",
    "uid": 41190,
    "tags": {
      "amenity": "restaurant",
      "name": "Meson La Casa Nueva"
    }
  },
  {
    "type": "node",
    "id": 1012575964,
    "lat": 36.4470495,
    "lon": -5.2731806,
    "timestamp": "2010-11-29T16:38:28Z",
    "version": 1,
    "changeset": 6487853,
    "user": "UFeldmaus",
    "uid": 41190,
    "tags": {
      "amenity": "restaurant",
      "name": "Laura"
    }
  },
  {
    "type": "node",
    "id": 1013122263,
    "lat": 36.5818237,
    "lon": -4.9494865,
    "timestamp": "2010-11-30T07:47:27Z",
    "version": 1,
    "changeset": 6492136,
    "user": "UFeldmaus",
    "uid": 41190,
    "tags": {
      "amenity": "restaurant",
      "name": "El Baron"
    }
  },
  {
    "type": "node",
    "id": 1022266113,
    "lat": 36.4448582,
    "lon": -5.2696201,
    "timestamp": "2010-12-05T10:01:22Z",
    "version": 1,
    "changeset": 6548392,
    "user": "UFeldmaus",
    "uid": 41190,
    "tags": {
      "amenity": "restaurant",
      "cuisine": "regional",
      "name": "La Terraza"
    }
  },
  {
    "type": "node",
    "id": 1022267248,
    "lat": 36.4108276,
    "lon": -5.2359422,
    "timestamp": "2019-02-20T16:21:37Z",
    "version": 2,
    "changeset": 67397860,
    "user": "Javi Martínez",
    "uid": 7139213,
    "tags": {
      "amenity": "restaurant",
      "name": "Venta Cozar"
    }
  },
  {
    "type": "node",
    "id": 1025343600,
    "lat": 36.6306993,
    "lon": -4.8293311,
    "timestamp": "2010-12-06T19:14:00Z",
    "version": 1,
    "changeset": 6567212,
    "user": "UFeldmaus",
    "uid": 41190,
    "tags": {
      "amenity": "restaurant",
      "name": "Meson Don Andres"
    }
  },
  {
    "type": "node",
    "id": 1066524864,
    "lat": 36.5741664,
    "lon": -4.6105977,
    "timestamp": "2019-08-25T09:16:33Z",
    "version": 3,
    "changeset": 73712333,
    "user": "sanchi",
    "uid": 170106,
    "tags": {
      "addr:housenumber": "16",
      "addr:postcode": "29640",
      "addr:street": "Calle el Lirio",
      "amenity": "restaurant",
      "cuisine": "international;ice_cream;cake;coffee_shop;pasta;pizza;fish_and_chips;chicken;italian_pizza;tea;mediterranean;friture;fine_dining;italian",
      "internet_access": "wlan",
      "name": "Restaurante MonteMare Pizzeria",
      "name:en": "MonteMare Restaurant pizzeria",
      "name:es": "Restaurante MonteMare Pizzeria",
      "name:nl": "Restaurant MonteMare pizzeria",
      "opening_hours": "Mo 00:00-00:00; Tu-Su 13:00-23:30",
      "phone": "+34 952663219",
      "website": "http://www.montemare.es"
    }
  },
  {
    "type": "node",
    "id": 1226786600,
    "lat": 36.4910281,
    "lon": -4.7635983,
    "timestamp": "2011-03-31T15:21:19Z",
    "version": 2,
    "changeset": 7726818,
    "user": "Ncoola",
    "uid": 430137,
    "tags": {
      "amenity": "restaurant"
    }
  },
  {
    "type": "node",
    "id": 1251192511,
    "lat": 36.5590592,
    "lon": -5.2887626,
    "timestamp": "2017-12-29T11:06:10Z",
    "version": 3,
    "changeset": 55006529,
    "user": "izpura",
    "uid": 2998499,
    "tags": {
      "addr:city": "Algatocín",
      "addr:postcode": "29491",
      "addr:street": "Carretera Ronda-Gaucin",
      "amenity": "restaurant",
      "name": "Venta Solera",
      "website": "http://www.ventasolera.com/"
    }
  },
  {
    "type": "node",
    "id": 1251192596,
    "lat": 36.5501266,
    "lon": -5.2761417,
    "timestamp": "2011-04-19T13:49:17Z",
    "version": 1,
    "changeset": 7906798,
    "user": "UFeldmaus",
    "uid": 41190,
    "tags": {
      "amenity": "restaurant",
      "name": "Bar Guayacan"
    }
  },
  {
    "type": "node",
    "id": 1251192640,
    "lat": 36.5506665,
    "lon": -5.271632,
    "timestamp": "2021-01-14T12:27:44Z",
    "version": 2,
    "changeset": 97495387,
    "user": "Centro Guadalinfo Benarrabá",
    "uid": 12484191,
    "tags": {
      "amenity": "restaurant",
      "name": "Kabilas"
    }
  },
  {
    "type": "node",
    "id": 1252488707,
    "lat": 36.5816463,
    "lon": -4.539241,
    "timestamp": "2020-06-23T16:11:55Z",
    "version": 2,
    "changeset": 87042793,
    "user": "CarlosMG",
    "uid": 2163609,
    "tags": {
      "amenity": "restaurant",
      "cuisine": "pizza",
      "name": "Ristorante La Paladoro Pizzeria"
    }
  },
  {
    "type": "node",
    "id": 1252489067,
    "lat": 36.5814972,
    "lon": -4.5395493,
    "timestamp": "2012-02-08T23:20:30Z",
    "version": 2,
    "changeset": 10629820,
    "user": "rconde",
    "uid": 587069,
    "tags": {
      "amenity": "restaurant",
      "name": "Torreón del Mar"
    }
  },
  {
    "type": "node",
    "id": 1253879761,
    "lat": 36.5818337,
    "lon": -4.5363659,
    "timestamp": "2022-05-10T19:55:40Z",
    "version": 2,
    "changeset": 120809135,
    "user": "gpesquero",
    "uid": 3584,
    "tags": {
      "amenity": "restaurant",
      "name": "Restaurante Rincón del Mar"
    }
  },
  {
    "type": "node",
    "id": 1253885679,
    "lat": 36.5831178,
    "lon": -4.534965,
    "timestamp": "2023-11-13T21:20:55Z",
    "version": 2,
    "changeset": 143987539,
    "user": "Ulfhetnar",
    "uid": 638261,
    "tags": {
      "amenity": "restaurant",
      "check_date": "2023-11-10",
      "name": "Restaurante Los Remos Lazaro"
    }
  },
  {
    "type": "node",
    "id": 1253891898,
    "lat": 36.5850654,
    "lon": -4.5333301,
    "timestamp": "2023-02-01T12:59:51Z",
    "version": 2,
    "changeset": 131962709,
    "user": "Đuro Jiří",
    "uid": 14617702,
    "tags": {
      "amenity": "restaurant",
      "indoor_seating": "yes",
      "name": "Carmen",
      "outdoor_seating": "yes"
    }
  },
  {
    "type": "node",
    "id": 1253900550,
    "lat": 36.5871284,
    "lon": -4.5315694,
    "timestamp": "2011-04-21T11:24:59Z",
    "version": 1,
    "changeset": 7924544,
    "user": "Jonas Hansen",
    "uid": 30930,
    "tags": {
      "amenity": "restaurant",
      "name": "Mendora"
    }
  },
  {
    "type": "node",
    "id": 1253921755,
    "lat": 36.5886431,
    "lon": -4.5303477,
    "timestamp": "2024-05-12T11:03:49Z",
    "version": 3,
    "changeset": 151219593,
    "user": "HacheUveU",
    "uid": 8515735,
    "tags": {
      "amenity": "restaurant",
      "diet:gluten_free": "limited",
      "name": "Sabatini's"
    }
  },
  {
    "type": "node",
    "id": 1253940464,
    "lat": 36.5907816,
    "lon": -4.5265144,
    "timestamp": "2017-01-01T10:41:56Z",
    "version": 3,
    "changeset": 44819994,
    "user": "SeongHo Choi",
    "uid": 3953564,
    "tags": {
      "amenity": "restaurant",
      "name": "ElCaprichol",
      "name:es": "ElCaprichol"
    }
  },
  {
    "type": "node",
    "id": 1253965843,
    "lat": 36.5980873,
    "lon": -4.5132512,
    "timestamp": "2013-08-23T12:19:27Z",
    "version": 2,
    "changeset": 17469108,
    "user": "V3ItR",
    "uid": 327762,
    "tags": {
      "amenity": "restaurant",
      "name": "Ruby's"
    }
  },
  {
    "type": "node",
    "id": 1254024656,
    "lat": 36.5978529,
    "lon": -4.5140701,
    "timestamp": "2023-10-15T09:56:18Z",
    "version": 4,
    "changeset": 142610032,
    "user": "b-jazz-bot",
    "uid": 9451067,
    "tags": {
      "amenity": "restaurant",
      "name": "El Mero",
      "official_name": "Los Mellizos El Mero",
      "website": "https://www.losmellizos.net/"
    }
  },
  {
    "type": "node",
    "id": 1254040111,
    "lat": 36.5924514,
    "lon": -4.5224425,
    "timestamp": "2011-04-21T14:22:24Z",
    "version": 1,
    "changeset": 7925948,
    "user": "Jonas Hansen",
    "uid": 30930,
    "tags": {
      "amenity": "restaurant"
    }
  },
  {
    "type": "node",
    "id": 1258404321,
    "lat": 36.5864504,
    "lon": -4.5332493,
    "timestamp": "2011-04-24T17:51:46Z",
    "version": 1,
    "changeset": 7955161,
    "user": "Jonas Hansen",
    "uid": 30930,
    "tags": {
      "amenity": "restaurant",
      "cuisine": "chinese"
    }
  },
  {
    "type": "node",
    "id": 1258405966,
    "lat": 36.5866018,
    "lon": -4.5335188,
    "timestamp": "2011-04-24T17:52:51Z",
    "version": 1,
    "changeset": 7955168,
    "user": "Jonas Hansen",
    "uid": 30930,
    "tags": {
      "amenity": "restaurant",
      "cuisine": "thai"
    }
  },
  {
    "type": "node",
    "id": 1258406865,
    "lat": 36.5868254,
    "lon": -4.5331864,
    "timestamp": "2011-04-24T17:53:20Z",
    "version": 1,
    "changeset": 7955173,
    "user": "Jonas Hansen",
    "uid": 30930,
    "tags": {
      "amenity": "restaurant"
    }
  },
  {
    "type": "node",
    "id": 1258412839,
    "lat": 36.5863573,
    "lon": -4.5323091,
    "timestamp": "2020-09-24T11:22:58Z",
    "version": 3,
    "changeset": 91429575,
    "user": "sanchi",
    "uid": 170106,
    "tags": {
      "amenity": "restaurant",
      "name": "Merendero el Malagueño"
    }
  },
  {
    "type": "node",
    "id": 1258424239,
    "lat": 36.5883041,
    "lon": -4.5318299,
    "timestamp": "2011-04-24T18:03:27Z",
    "version": 1,
    "changeset": 7955287,
    "user": "Jonas Hansen",
    "uid": 30930,
    "tags": {
      "amenity": "restaurant",
      "cuisine": "italian",
      "name": "Dai Grifoni"
    }
  },
  {
    "type": "node",
    "id": 1258552246,
    "lat": 36.5893211,
    "lon": -4.5325576,
    "timestamp": "2024-05-13T20:14:31Z",
    "version": 4,
    "changeset": 151284375,
    "user": "HacheUveU",
    "uid": 8515735,
    "tags": {
      "addr:housenumber": "37",
      "addr:postcode": "29630",
      "addr:street": "Avenida de las Palmeras",
      "amenity": "restaurant",
      "cuisine": "indian",
      "diet:gluten_free": "yes",
      "name": "Harry's Restro"
    }
  },
  {
    "type": "node",
    "id": 1258553924,
    "lat": 36.5891769,
    "lon": -4.5323599,
    "timestamp": "2011-04-24T19:03:57Z",
    "version": 1,
    "changeset": 7955940,
    "user": "Jonas Hansen",
    "uid": 30930,
    "tags": {
      "amenity": "restaurant",
      "cuisine": "chinese"
    }
  },
  {
    "type": "node",
    "id": 1258557045,
    "lat": 36.5887802,
    "lon": -4.5318748,
    "timestamp": "2023-10-24T16:26:59Z",
    "version": 3,
    "changeset": 143073775,
    "user": "HacheUveU",
    "uid": 8515735,
    "tags": {
      "addr:street": "Avenida de las Palmeras",
      "amenity": "restaurant",
      "cuisine": "chinese",
      "name": "Restaurant Orient Palace II"
    }
  },
  {
    "type": "node",
    "id": 1259612801,
    "lat": 36.6555309,
    "lon": -5.1297765,
    "timestamp": "2021-11-12T18:38:48Z",
    "version": 2,
    "changeset": 113707712,
    "user": "jogar86",
    "uid": 14274260,
    "tags": {
      "amenity": "restaurant",
      "name": "El Anafe"
    }
  },
  {
    "type": "node",
    "id": 1314948397,
    "lat": 36.4936898,
    "lon": -4.775763,
    "timestamp": "2017-02-10T20:35:49Z",
    "version": 2,
    "changeset": 45983601,
    "user": "select",
    "uid": 3042095,
    "tags": {
      "addr:housename": "Centro Comercial Contur",
      "addr:postcode": "29604",
      "addr:street": "N-340, KM 192",
      "amenity": "restaurant",
      "drink:club-mate": "retail",
      "name": "Elviria's Deli"
    }
  },
  {
    "type": "node",
    "id": 1367975229,
    "lat": 36.7810306,
    "lon": -5.2502751,
    "timestamp": "2024-05-15T06:55:11Z",
    "version": 7,
    "changeset": 151343270,
    "user": "kapazao_import",
    "uid": 8770019,
    "tags": {
      "addr:city": "Ronda",
      "addr:milestone": "Km. 19",
      "addr:postcode": "29400",
      "addr:street": "Carretera Ronda-Jerez",
      "amenity": "restaurant",
      "internet_access": "wlan",
      "name": "Hostal Rural Venta La Vega",
      "tourism": "hotel"
    }
  },
  {
    "type": "node",
    "id": 1375997879,
    "lat": 36.5379222,
    "lon": -4.6221786,
    "timestamp": "2011-07-27T18:35:30Z",
    "version": 2,
    "changeset": 8847669,
    "user": "waypointsolutions",
    "uid": 496676,
    "tags": {
      "addr:housenumber": "7",
      "addr:postcode": "29640",
      "addr:street": "moncayo N 7",
      "amenity": "restaurant",
      "cuisine": "steak_house",
      "designation": "Restaurante",
      "name": "Estilo Campo",
      "source": "GPS"
    }
  },
  {
    "type": "node",
    "id": 1386012253,
    "lat": 36.8776581,
    "lon": -4.344282,
    "timestamp": "2018-08-05T13:53:24Z",
    "version": 3,
    "changeset": 61374581,
    "user": "dcapillae_buildings-import",
    "uid": 7535386,
    "tags": {
      "amenity": "restaurant",
      "cuisine": "spanish",
      "name": "Ventas el Conde",
      "source": "Local knowledge"
    }
  },
  {
    "type": "node",
    "id": 1417495401,
    "lat": 36.7221131,
    "lon": -4.416876,
    "timestamp": "2019-03-10T09:42:44Z",
    "version": 10,
    "changeset": 67983194,
    "user": "Tungmar",
    "uid": 427807,
    "tags": {
      "addr:housenumber": "5",
      "addr:postcode": "29015",
      "addr:street": "Calle Pozo del Rey",
      "amenity": "restaurant",
      "cuisine": "spanish",
      "diet:vegan": "yes",
      "diet:vegetarian": "only",
      "name": "El Vegetariano de Alcazabilla",
      "opening_hours": "Mo-Th 14:00-16:00, 19:00-22:30; Fr-Sa 14:00-16:00, 19:00-23:30"
    }
  },
  {
    "type": "node",
    "id": 1426434978,
    "lat": 36.5447082,
    "lon": -4.6602105,
    "timestamp": "2011-09-07T20:14:47Z",
    "version": 2,
    "changeset": 9239934,
    "user": "jamboted",
    "uid": 358953,
    "tags": {
      "amenity": "restaurant",
      "name": "Peña La Cresta"
    }
  },
  {
    "type": "node",
    "id": 1426486399,
    "lat": 36.5461913,
    "lon": -4.6586651,
    "timestamp": "2011-09-07T20:25:12Z",
    "version": 1,
    "changeset": 9240498,
    "user": "jamboted",
    "uid": 358953,
    "tags": {
      "amenity": "restaurant",
      "name": "Restaurante El Golf"
    }
  },
  {
    "type": "node",
    "id": 1437620426,
    "lat": 36.651044,
    "lon": -4.5508799,
    "timestamp": "2011-09-19T17:16:00Z",
    "version": 1,
    "changeset": 9344552,
    "user": "Agaroma",
    "uid": 524601,
    "tags": {
      "amenity": "restaurant",
      "name": "Mirador de la Peana"
    }
  },
  {
    "type": "node",
    "id": 1574473832,
    "lat": 36.6083886,
    "lon": -4.5135747,
    "timestamp": "2012-01-02T18:53:26Z",
    "version": 4,
    "changeset": 10274395,
    "user": "an_bg",
    "uid": 578581,
    "tags": {
      "addr:housename": "Edif. EUROCENTRO",
      "addr:postcode": "29620",
      "addr:street": "Calle Caputulaciones",
      "amenity": "restaurant",
      "designation": "Bar-Restaurante \"SOFIA\"",
      "name": "\"SOFIA\"",
      "source": "Bar-Restaurante \"SOFIA\""
    }
  },
  {
    "type": "node",
    "id": 1596548816,
    "lat": 36.7634911,
    "lon": -4.7104476,
    "timestamp": "2012-01-18T18:29:50Z",
    "version": 1,
    "changeset": 10429863,
    "user": "flightsimjoe",
    "uid": 499052,
    "tags": {
      "amenity": "restaurant"
    }
  },
  {
    "type": "node",
    "id": 1600329918,
    "lat": 36.807403,
    "lon": -4.6957841,
    "timestamp": "2013-11-14T08:24:02Z",
    "version": 2,
    "changeset": 18889465,
    "user": "andi9876",
    "uid": 1256497,
    "tags": {
      "amenity": "restaurant",
      "name": "Los Caballos"
    }
  },
  {
    "type": "node",
    "id": 1629577847,
    "lat": 36.6742292,
    "lon": -4.4843532,
    "timestamp": "2023-01-23T14:21:42Z",
    "version": 4,
    "changeset": 131610071,
    "user": "kapazao_import",
    "uid": 8770019,
    "tags": {
      "addr:postcode": "29004",
      "addr:street": "Calle Argonautas",
      "amenity": "restaurant",
      "email": "paco@restaurantelosbravos.com",
      "name": "Restaurante Los Bravos",
      "nohousenumber": "yes",
      "phone": "+34 952239324",
      "phone:mobile": "+34 639083999",
      "website": "http://restaurantelosbravos.es/"
    }
  },
  {
    "type": "node",
    "id": 1629577903,
    "lat": 36.6753983,
    "lon": -4.4875202,
    "timestamp": "2019-08-16T15:07:07Z",
    "version": 4,
    "changeset": 73420137,
    "user": "dcapillae",
    "uid": 10080656,
    "tags": {
      "amenity": "restaurant"
    }
  },
  {
    "type": "node",
    "id": 1672022205,
    "lat": 36.4163647,
    "lon": -5.1572995,
    "timestamp": "2020-01-02T17:09:37Z",
    "version": 7,
    "changeset": 79123131,
    "user": "guyporter",
    "uid": 6201222,
    "tags": {
      "addr:city": "Estepona",
      "addr:postcode": "29680",
      "addr:street": "Puerto Deportivo de Estepona",
      "amenity": "restaurant",
      "cuisine": "spanish",
      "name": "Cafeteria-Bar Halomon",
      "phone": "+34 952 80 28 49"
    }
  },
  {
    "type": "node",
    "id": 1675832982,
    "lat": 36.5075913,
    "lon": -4.9150629,
    "timestamp": "2012-03-15T14:46:59Z",
    "version": 1,
    "changeset": 10989159,
    "user": "UFeldmaus",
    "uid": 41190,
    "tags": {
      "amenity": "restaurant",
      "cuisine": "regional",
      "name": "Villa Tiberio"
    }
  },
  {
    "type": "node",
    "id": 1677695604,
    "lat": 36.4550436,
    "lon": -5.0620616,
    "timestamp": "2018-02-01T16:25:53Z",
    "version": 2,
    "changeset": 55970582,
    "user": "zx6r ninja",
    "uid": 4900785,
    "tags": {
      "amenity": "restaurant",
      "cuisine": "regional",
      "name": "El Caserio"
    }
  },
  {
    "type": "node",
    "id": 1677695619,
    "lat": 36.455359,
    "lon": -5.0635061,
    "timestamp": "2012-03-17T00:10:52Z",
    "version": 1,
    "changeset": 11003866,
    "user": "UFeldmaus",
    "uid": 41190,
    "tags": {
      "amenity": "restaurant",
      "cuisine": "regional",
      "name": "Paco Heidi"
    }
  },
  {
    "type": "node",
    "id": 1704643771,
    "lat": 36.6642406,
    "lon": -4.4614229,
    "timestamp": "2019-07-20T16:42:30Z",
    "version": 4,
    "changeset": 72465166,
    "user": "dcapillae_buildings-import",
    "uid": 7535386,
    "tags": {
      "addr:city": "Málaga",
      "addr:housenumber": "15",
      "addr:postcode": "29004",
      "addr:street": "Calle Rogelio Oliva",
      "amenity": "restaurant",
      "name": "Tick Tack Arrocería"
    }
  },
  {
    "type": "node",
    "id": 1711554373,
    "lat": 36.4522979,
    "lon": -5.0720145,
    "timestamp": "2024-12-26T12:40:37Z",
    "version": 2,
    "changeset": 160634869,
    "user": "Đuro Jiří",
    "uid": 14617702,
    "tags": {
      "amenity": "restaurant",
      "check_date": "2024-12-26",
      "cuisine": "regional",
      "name": "Jolly Rogers"
    }
  },
  {
    "type": "node",
    "id": 1711554389,
    "lat": 36.4533706,
    "lon": -5.0746696,
    "timestamp": "2012-04-11T15:36:28Z",
    "version": 1,
    "changeset": 11266474,
    "user": "UFeldmaus",
    "uid": 41190,
    "tags": {
      "amenity": "restaurant",
      "cuisine": "regional",
      "name": "Playabella"
    }
  },
  {
    "type": "node",
    "id": 1712006280,
    "lat": 36.4510475,
    "lon": -5.0663289,
    "timestamp": "2024-12-26T12:23:45Z",
    "version": 6,
    "changeset": 160634870,
    "user": "Đuro Jiří",
    "uid": 14617702,
    "tags": {
      "amenity": "restaurant",
      "check_date": "2024-12-26",
      "cuisine": "regional",
      "name": "Tikitano"
    }
  },
  {
    "type": "node",
    "id": 1713308278,
    "lat": 36.4987632,
    "lon": -4.9720264,
    "timestamp": "2018-09-18T08:50:38Z",
    "version": 2,
    "changeset": 62689224,
    "user": "2-wheels",
    "uid": 8833132,
    "tags": {
      "amenity": "restaurant",
      "cuisine": "spanish",
      "name": "Mamma Lina"
    }
  },
  {
    "type": "node",
    "id": 1713309471,
    "lat": 36.4984952,
    "lon": -4.9757414,
    "timestamp": "2012-04-12T20:56:49Z",
    "version": 1,
    "changeset": 11281231,
    "user": "bremen",
    "uid": 658059,
    "tags": {
      "amenity": "restaurant",
      "cuisine": "seafood",
      "designation": "especialidad en pescado y marisco fresco",
      "name": "El Bigote"
    }
  },
  {
    "type": "node",
    "id": 1714621313,
    "lat": 36.4236643,
    "lon": -5.14948,
    "timestamp": "2021-06-18T09:09:38Z",
    "version": 11,
    "changeset": 106577670,
    "user": "kapazao",
    "uid": 7543375,
    "tags": {
      "addr:city": "Estepona",
      "addr:housenumber": "28",
      "addr:postcode": "29680",
      "addr:street": "Calle Alcalá Galiano",
      "amenity": "restaurant",
      "cuisine": "spanish",
      "name": "El Balcón Cordobés",
      "phone": "+34 693 32 67 60"
    }
  },
  {
    "type": "node",
    "id": 1731337232,
    "lat": 36.4990674,
    "lon": -4.8158424,
    "timestamp": "2012-04-26T02:30:32Z",
    "version": 2,
    "changeset": 11420379,
    "user": "Alvaro Blanco Morillo",
    "uid": 668329,
    "tags": {
      "amenity": "restaurant",
      "name": "Sunset Beach"
    }
  },
  {
    "type": "node",
    "id": 1731337698,
    "lat": 36.4995849,
    "lon": -4.8196244,
    "timestamp": "2012-04-26T02:32:44Z",
    "version": 1,
    "changeset": 11420379,
    "user": "Alvaro Blanco Morillo",
    "uid": 668329,
    "tags": {
      "amenity": "restaurant",
      "name": "Los Sardinales"
    }
  },
  {
    "type": "node",
    "id": 1736274690,
    "lat": 36.5517319,
    "lon": -4.6824439,
    "timestamp": "2014-07-30T22:25:00Z",
    "version": 2,
    "changeset": 24453204,
    "user": "jamboted",
    "uid": 358953,
    "tags": {
      "amenity": "restaurant",
      "cuisine": "italian",
      "name": "The Pasta Lounge",
      "wifi": "free"
    }
  },
  {
    "type": "node",
    "id": 1749161536,
    "lat": 36.4849736,
    "lon": -4.9539233,
    "timestamp": "2015-04-18T15:58:50Z",
    "version": 2,
    "changeset": 30310176,
    "user": "bryceco",
    "uid": 624323,
    "tags": {
      "amenity": "restaurant",
      "cuisine": "italian",
      "name": "Amore e Fantasía"
    }
  },
  {
    "type": "node",
    "id": 1782301546,
    "lat": 36.5072834,
    "lon": -4.9032768,
    "timestamp": "2023-10-23T19:48:30Z",
    "version": 2,
    "changeset": 143033516,
    "user": "b-jazz-bot",
    "uid": 9451067,
    "tags": {
      "amenity": "restaurant",
      "name": "Calima",
      "opening_hours": "Tu-Sa 19:30-22:00; Sa 13:30-15:00",
      "phone": "+34952764252",
      "website": "https://www.restaurantecalima.es/"
    }
  },
  {
    "type": "node",
    "id": 1784573022,
    "lat": 36.5519519,
    "lon": -4.6842027,
    "timestamp": "2024-11-27T07:10:55Z",
    "version": 3,
    "changeset": 159645468,
    "user": "kapazao",
    "uid": 7543375,
    "tags": {
      "amenity": "restaurant",
      "cuisine": "indian",
      "name": "Swaghat"
    }
  },
  {
    "type": "node",
    "id": 1795639177,
    "lat": 36.5069624,
    "lon": -4.7281329,
    "timestamp": "2020-09-20T15:04:17Z",
    "version": 3,
    "changeset": 91177512,
    "user": "Raj GPSnut Rijhwani",
    "uid": 342523,
    "tags": {
      "addr:city": "Sitio de Calahonda",
      "addr:housename": "El Puente 3",
      "addr:postcode": "29649",
      "addr:street": "Calle José Orbaneja",
      "amenity": "restaurant",
      "name": "\"The Family\" restaurant and bar",
      "source": "Personal knowledge"
    }
  },
  {
    "type": "node",
    "id": 1828475459,
    "lat": 36.507742,
    "lon": -4.8897081,
    "timestamp": "2022-02-15T08:38:59Z",
    "version": 4,
    "changeset": 117424973,
    "user": "AlvaroRC",
    "uid": 3538570,
    "tags": {
      "addr:city": "Marbella",
      "addr:postcode": "29602",
      "addr:street": "Avenida Antonio Belón",
      "amenity": "restaurant",
      "cuisine": "hawaiian",
      "name": "Kohala Poké"
    }
  },
  {
    "type": "node",
    "id": 1849152413,
    "lat": 36.5515971,
    "lon": -4.6149343,
    "timestamp": "2022-07-23T21:46:12Z",
    "version": 2,
    "changeset": 123991264,
    "user": "LFSW",
    "uid": 5421217,
    "tags": {
      "amenity": "restaurant",
      "name": "Mesón de Bravo",
      "name:en": "Meson de Bravo"
    }
  },
  {
    "type": "node",
    "id": 1849152416,
    "lat": 36.5524508,
    "lon": -4.6146814,
    "timestamp": "2014-10-09T14:20:00Z",
    "version": 3,
    "changeset": 25961895,
    "user": "xerif",
    "uid": 2245576,
    "tags": {
      "amenity": "restaurant",
      "cuisine": "mexican"
    }
  },
  {
    "type": "node",
    "id": 1855590397,
    "lat": 36.7427494,
    "lon": -5.1653854,
    "timestamp": "2017-03-05T23:24:24Z",
    "version": 2,
    "changeset": 46608962,
    "user": "Marsupium",
    "uid": 753289,
    "tags": {
      "amenity": "restaurant",
      "cuisine": "regional",
      "name": "Casa Ortega",
      "opening_hours": "Mo-Su 10:00-00:00",
      "wheelchair": "yes"
    }
  },
  {
    "type": "node",
    "id": 1855590398,
    "lat": 36.7380523,
    "lon": -5.1667956,
    "timestamp": "2014-10-10T22:21:17Z",
    "version": 2,
    "changeset": 25992876,
    "user": "Matthias Frank",
    "uid": 287306,
    "tags": {
      "amenity": "restaurant",
      "cuisine": "regional",
      "name": "El Campillo",
      "opening_hours": "Mo-Sa 10:00-22:00"
    }
  },
  {
    "type": "node",
    "id": 1875763397,
    "lat": 36.5074501,
    "lon": -4.8972066,
    "timestamp": "2022-02-17T09:22:45Z",
    "version": 5,
    "changeset": 117510467,
    "user": "AlvaroRC",
    "uid": 3538570,
    "tags": {
      "amenity": "restaurant",
      "name": "La Teraza Restaurant",
      "toilets:wheelchair": "yes",
      "wheelchair": "yes"
    }
  },
  {
    "type": "node",
    "id": 1876346354,
    "lat": 36.5073322,
    "lon": -4.8983844,
    "timestamp": "2022-01-27T17:30:55Z",
    "version": 2,
    "changeset": 116676016,
    "user": "AlvaroRC",
    "uid": 3538570,
    "tags": {
      "amenity": "restaurant",
      "name": "Cruz Blanca"
    }
  },
  {
    "type": "node",
    "id": 1876347296,
    "lat": 36.5073751,
    "lon": -4.8978574,
    "timestamp": "2022-01-27T17:30:55Z",
    "version": 2,
    "changeset": 116676016,
    "user": "AlvaroRC",
    "uid": 3538570,
    "tags": {
      "amenity": "restaurant",
      "name": "Ta-Kumi"
    }
  },
  {
    "type": "node",
    "id": 1879555580,
    "lat": 36.4973907,
    "lon": -4.9403564,
    "timestamp": "2024-12-26T09:14:00Z",
    "version": 7,
    "changeset": 160627896,
    "user": "Đuro Jiří",
    "uid": 14617702,
    "tags": {
      "air_conditioning": "yes",
      "amenity": "restaurant",
      "cuisine": "mediterranean",
      "email": "rservas@besayabeach.com",
      "indoor_seating": "yes",
      "name": "Besya Beach",
      "outdoor_seating": "yes",
      "website": "https://www.besayabeach.com/",
      "wheelchair": "yes"
    }
  },
  {
    "type": "node",
    "id": 1881464541,
    "lat": 36.4892138,
    "lon": -4.9529691,
    "timestamp": "2015-04-18T15:14:37Z",
    "version": 3,
    "changeset": 30309388,
    "user": "bryceco",
    "uid": 624323,
    "tags": {
      "amenity": "restaurant",
      "name": "Hard Rock Cafe Marbella"
    }
  },
  {
    "type": "node",
    "id": 1881623518,
    "lat": 36.509587,
    "lon": -4.8980276,
    "timestamp": "2022-03-17T12:31:04Z",
    "version": 2,
    "changeset": 118591711,
    "user": "AlvaroRC",
    "uid": 3538570,
    "tags": {
      "amenity": "restaurant",
      "cuisine": "italian",
      "name": "Peperone"
    }
  },
  {
    "type": "node",
    "id": 1884633731,
    "lat": 36.5075444,
    "lon": -4.8944743,
    "timestamp": "2023-10-23T19:47:48Z",
    "version": 6,
    "changeset": 143033483,
    "user": "b-jazz-bot",
    "uid": 9451067,
    "tags": {
      "addr:city": "Marbella",
      "addr:postcode": "29602",
      "addr:street": "Avenida de la Fontanilla",
      "amenity": "restaurant",
      "name": "Garum",
      "phone": "+34 952 858 858",
      "website": "https://garummarbella.com/en/",
      "wheelchair": "yes"
    }
  },
  {
    "type": "node",
    "id": 1884980293,
    "lat": 36.5102645,
    "lon": -4.8910689,
    "timestamp": "2020-06-23T19:46:56Z",
    "version": 2,
    "changeset": 87049301,
    "user": "CarlosMG",
    "uid": 2163609,
    "tags": {
      "addr:city": "Marbella",
      "amenity": "restaurant",
      "cuisine": "italian",
      "name": "Da Bruno Pasta"
    }
  },
  {
    "type": "node",
    "id": 1887331750,
    "lat": 36.5080995,
    "lon": -4.896245,
    "timestamp": "2012-08-28T19:27:47Z",
    "version": 1,
    "changeset": 12896815,
    "user": "changchun_1",
    "uid": 131968,
    "tags": {
      "amenity": "restaurant",
      "name": "Food House"
    }
  },
  {
    "type": "node",
    "id": 1887331751,
    "lat": 36.508359,
    "lon": -4.8962773,
    "timestamp": "2020-06-23T22:17:51Z",
    "version": 2,
    "changeset": 87052880,
    "user": "CarlosMG",
    "uid": 2163609,
    "tags": {
      "addr:city": "Marbella",
      "amenity": "restaurant",
      "name": "Franks's"
    }
  },
  {
    "type": "node",
    "id": 1887331776,
    "lat": 36.5112389,
    "lon": -4.8917612,
    "timestamp": "2012-08-28T19:27:47Z",
    "version": 1,
    "changeset": 12896815,
    "user": "changchun_1",
    "uid": 131968,
    "tags": {
      "amenity": "restaurant",
      "name": "Pastas Frescas Pomposiello"
    }
  },
  {
    "type": "node",
    "id": 1908356745,
    "lat": 36.7354107,
    "lon": -4.9169454,
    "timestamp": "2012-09-10T13:10:10Z",
    "version": 1,
    "changeset": 13056817,
    "user": "RobChafer",
    "uid": 98964,
    "tags": {
      "amenity": "restaurant"
    }
  },
  {
    "type": "node",
    "id": 1925307006,
    "lat": 36.9281765,
    "lon": -4.8014358,
    "timestamp": "2012-09-21T13:11:31Z",
    "version": 1,
    "changeset": 13195522,
    "user": "RobChafer",
    "uid": 98964,
    "tags": {
      "amenity": "restaurant",
      "cuisine": "regional",
      "name": "El Mirador"
    }
  },
  {
    "type": "node",
    "id": 1944635953,
    "lat": 36.7225917,
    "lon": -4.4171596,
    "timestamp": "2024-09-22T06:12:47Z",
    "version": 12,
    "changeset": 156936699,
    "user": "alan_gr",
    "uid": 5307206,
    "tags": {
      "addr:city": "Málaga",
      "addr:housenumber": "15",
      "addr:postcode": "29015",
      "addr:street": "Calle Alcazabilla",
      "amenity": "restaurant",
      "check_date": "2024-09-22",
      "name": "Brunchit",
      "opening_hours": "Mo-Fr 09:00-16:00; Sa-Su 09:00-17:00",
      "website": "https://www.brunchit.es/brunch-en-m%C3%A1laga-alcazabilla"
    }
  },
  {
    "type": "node",
    "id": 1944635954,
    "lat": 36.7223073,
    "lon": -4.4206242,
    "timestamp": "2019-11-09T16:11:57Z",
    "version": 4,
    "changeset": 76838193,
    "user": "wheelmap_visitor",
    "uid": 290680,
    "tags": {
      "amenity": "restaurant",
      "name": "Pepa y Pepe",
      "wheelchair": "no"
    }
  },
  {
    "type": "node",
    "id": 1944635956,
    "lat": 36.7221926,
    "lon": -4.42066,
    "timestamp": "2023-10-15T10:05:44Z",
    "version": 4,
    "changeset": 142610498,
    "user": "b-jazz-bot",
    "uid": 9451067,
    "tags": {
      "amenity": "restaurant",
      "name": "Taberna Matahambre",
      "website": "https://www.matahambre.com/"
    }
  },
  {
    "type": "node",
    "id": 1944647926,
    "lat": 36.7236525,
    "lon": -4.4203611,
    "timestamp": "2019-11-09T11:47:00Z",
    "version": 3,
    "changeset": 76838193,
    "user": "wheelmap_visitor",
    "uid": 290680,
    "tags": {
      "amenity": "restaurant",
      "name": "El Beato",
      "wheelchair": "no"
    }
  },
  {
    "type": "node",
    "id": 1968652377,
    "lat": 36.8209384,
    "lon": -4.3533031,
    "timestamp": "2012-10-16T17:21:53Z",
    "version": 1,
    "changeset": 13521842,
    "user": "RobChafer",
    "uid": 98964,
    "tags": {
      "amenity": "restaurant",
      "cuisine": "regional",
      "name": "Venta Galwey"
    }
  },
  {
    "type": "node",
    "id": 1984991126,
    "lat": 36.5500548,
    "lon": -4.615544,
    "timestamp": "2012-10-26T21:04:16Z",
    "version": 1,
    "changeset": 13643515,
    "user": "Joe E",
    "uid": 114310,
    "tags": {
      "amenity": "restaurant",
      "cuisine": "spanish",
      "name": "Mesón Rodeño",
      "source": "survey"
    }
  },
  {
    "type": "node",
    "id": 1984991136,
    "lat": 36.5386154,
    "lon": -4.6215943,
    "timestamp": "2012-10-26T21:04:17Z",
    "version": 1,
    "changeset": 13643515,
    "user": "Joe E",
    "uid": 114310,
    "tags": {
      "amenity": "restaurant",
      "cuisine": "regional",
      "source": "survey"
    }
  },
  {
    "type": "node",
    "id": 1984991137,
    "lat": 36.5386484,
    "lon": -4.6219967,
    "timestamp": "2020-06-23T15:54:58Z",
    "version": 2,
    "changeset": 87042311,
    "user": "CarlosMG",
    "uid": 2163609,
    "tags": {
      "addr:city": "Fuengirola",
      "amenity": "restaurant",
      "cuisine": "chinese",
      "source": "survey"
    }
  },
  {
    "type": "node",
    "id": 1984991138,
    "lat": 36.5386838,
    "lon": -4.6220808,
    "timestamp": "2012-10-26T21:04:17Z",
    "version": 1,
    "changeset": 13643515,
    "user": "Joe E",
    "uid": 114310,
    "tags": {
      "amenity": "restaurant",
      "cuisine": "italian",
      "source": "survey"
    }
  },
  {
    "type": "node",
    "id": 1984991140,
    "lat": 36.5389107,
    "lon": -4.6213408,
    "timestamp": "2012-10-26T21:04:17Z",
    "version": 1,
    "changeset": 13643515,
    "user": "Joe E",
    "uid": 114310,
    "tags": {
      "amenity": "restaurant",
      "cuisine": "regional",
      "source": "survey"
    }
  },
  {
    "type": "node",
    "id": 1984991144,
    "lat": 36.5389695,
    "lon": -4.6211458,
    "timestamp": "2012-10-26T21:04:17Z",
    "version": 1,
    "changeset": 13643515,
    "user": "Joe E",
    "uid": 114310,
    "tags": {
      "amenity": "restaurant",
      "cuisine": "chinese",
      "source": "survey"
    }
  },
  {
    "type": "node",
    "id": 1984991177,
    "lat": 36.5503358,
    "lon": -4.615932,
    "timestamp": "2012-10-26T21:04:18Z",
    "version": 1,
    "changeset": 13643515,
    "user": "Joe E",
    "uid": 114310,
    "tags": {
      "amenity": "restaurant",
      "cuisine": "seafood",
      "source": "survey"
    }
  },
  {
    "type": "node",
    "id": 1984991256,
    "lat": 36.5542528,
    "lon": -4.6128368,
    "timestamp": "2012-10-26T21:04:20Z",
    "version": 1,
    "changeset": 13643515,
    "user": "Joe E",
    "uid": 114310,
    "tags": {
      "amenity": "restaurant",
      "cuisine": "regional",
      "source": "survey"
    }
  },
  {
    "type": "node",
    "id": 1992998163,
    "lat": 36.448902,
    "lon": -5.2566013,
    "timestamp": "2012-11-01T21:23:19Z",
    "version": 1,
    "changeset": 13715873,
    "user": "UFeldmaus",
    "uid": 41190,
    "tags": {
      "amenity": "restaurant",
      "name": "The Forge"
    }
  },
  {
    "type": "node",
    "id": 1992998165,
    "lat": 36.4404757,
    "lon": -5.2429155,
    "timestamp": "2012-11-01T21:23:19Z",
    "version": 1,
    "changeset": 13715873,
    "user": "UFeldmaus",
    "uid": 41190,
    "tags": {
      "amenity": "restaurant",
      "cuisine": "regional",
      "name": "Venta Victoria"
    }
  },
  {
    "type": "node",
    "id": 2028899789,
    "lat": 36.7596235,
    "lon": -5.1624955,
    "timestamp": "2017-12-21T21:58:21Z",
    "version": 2,
    "changeset": 54827222,
    "user": "gpesquero",
    "uid": 3584,
    "tags": {
      "amenity": "restaurant",
      "name": "Voltasur"
    }
  },
  {
    "type": "node",
    "id": 2053330724,
    "lat": 36.7687599,
    "lon": -5.1062582,
    "timestamp": "2021-11-16T12:16:41Z",
    "version": 3,
    "changeset": 113849539,
    "user": "jogar86",
    "uid": 14274260,
    "tags": {
      "amenity": "restaurant",
      "name": "Venta La Venta"
    }
  },
  {
    "type": "node",
    "id": 2055358967,
    "lat": 36.7554327,
    "lon": -5.1405694,
    "timestamp": "2012-12-08T00:35:23Z",
    "version": 1,
    "changeset": 14194764,
    "user": "CiudadDelTajo",
    "uid": 1050159,
    "tags": {
      "amenity": "restaurant",
      "name": "Venta La Codorniz"
    }
  },
  {
    "type": "node",
    "id": 2077562734,
    "lat": 36.5978367,
    "lon": -4.5123963,
    "timestamp": "2022-05-13T18:44:33Z",
    "version": 3,
    "changeset": 120950082,
    "user": "gpesquero",
    "uid": 3584,
    "tags": {
      "amenity": "restaurant",
      "name": "Restaurante Metro"
    }
  },
  {
    "type": "node",
    "id": 2080354287,
    "lat": 36.7800867,
    "lon": -4.8321764,
    "timestamp": "2012-12-23T19:37:25Z",
    "version": 1,
    "changeset": 14382313,
    "user": "Hotel Rural El Caseron De Bonela",
    "uid": 1158869,
    "tags": {
      "amenity": "restaurant"
    }
  },
  {
    "type": "node",
    "id": 2083959150,
    "lat": 36.7222345,
    "lon": -4.4192671,
    "timestamp": "2023-10-15T09:57:47Z",
    "version": 2,
    "changeset": 142610127,
    "user": "b-jazz-bot",
    "uid": 9451067,
    "tags": {
      "amenity": "restaurant",
      "name": "Clandestino",
      "website": "https://clandestinomalaga.com/"
    }
  },
  {
    "type": "node",
    "id": 2083959155,
    "lat": 36.7218492,
    "lon": -4.4172764,
    "timestamp": "2021-10-13T18:56:00Z",
    "version": 8,
    "changeset": 112474952,
    "user": "dcapillae",
    "uid": 10080656,
    "tags": {
      "addr:city": "Málaga",
      "addr:country": "ES",
      "addr:housenumber": "7",
      "addr:postcode": "29015",
      "addr:street": "Calle Alcazabilla",
      "amenity": "restaurant",
      "cuisine": "spanish",
      "name": "La Plaza",
      "outdoor_seating": "yes"
    }
  },
  {
    "type": "node",
    "id": 2084935298,
    "lat": 36.6518815,
    "lon": -4.5936679,
    "timestamp": "2018-09-06T09:11:56Z",
    "version": 2,
    "changeset": 62335332,
    "user": "andi9876",
    "uid": 1256497,
    "tags": {
      "amenity": "restaurant"
    }
  },
  {
    "type": "node",
    "id": 2209846269,
    "lat": 36.4915974,
    "lon": -4.7051454,
    "timestamp": "2018-05-28T10:53:52Z",
    "version": 3,
    "changeset": 59336665,
    "user": "Eric Penoyer",
    "uid": 8199387,
    "tags": {
      "addr:housenumber": "27",
      "addr:street": "Avenida Polaris de Riviera",
      "amenity": "restaurant",
      "cuisine": "indian",
      "name": "Indian",
      "name:en": "Korma Indian"
    }
  },
  {
    "type": "node",
    "id": 2209846274,
    "lat": 36.4905289,
    "lon": -4.7057816,
    "timestamp": "2022-02-22T09:23:31Z",
    "version": 4,
    "changeset": 117717482,
    "user": "NachoCarral",
    "uid": 2595123,
    "tags": {
      "amenity": "restaurant",
      "cuisine": "asian",
      "name": "Mao"
    }
  },
  {
    "type": "node",
    "id": 2217030208,
    "lat": 36.4255951,
    "lon": -5.1533039,
    "timestamp": "2013-03-23T18:07:45Z",
    "version": 1,
    "changeset": 15469562,
    "user": "UFeldmaus",
    "uid": 41190,
    "tags": {
      "amenity": "restaurant",
      "cuisine": "german",
      "name": "Tertulia"
    }
  },
  {
    "type": "node",
    "id": 2240077421,
    "lat": 36.4109665,
    "lon": -5.1833378,
    "timestamp": "2024-12-26T20:35:33Z",
    "version": 2,
    "changeset": 160652644,
    "user": "Đuro Jiří",
    "uid": 14617702,
    "tags": {
      "amenity": "restaurant",
      "cuisine": "regional",
      "name": "El Dorado"
    }
  },
  {
    "type": "node",
    "id": 2240077426,
    "lat": 36.4104816,
    "lon": -5.1846429,
    "timestamp": "2013-03-31T21:36:45Z",
    "version": 1,
    "changeset": 15560054,
    "user": "UFeldmaus",
    "uid": 41190,
    "tags": {
      "amenity": "restaurant",
      "cuisine": "regional",
      "name": "La Menorah"
    }
  },
  {
    "type": "node",
    "id": 2241222838,
    "lat": 36.4312083,
    "lon": -5.1952486,
    "timestamp": "2013-04-01T07:56:59Z",
    "version": 1,
    "changeset": 15563797,
    "user": "UFeldmaus",
    "uid": 41190,
    "tags": {
      "amenity": "restaurant",
      "name": "Casa del Club"
    }
  },
  {
    "type": "node",
    "id": 2301717623,
    "lat": 36.7892657,
    "lon": -4.718643,
    "timestamp": "2013-05-12T19:52:24Z",
    "version": 1,
    "changeset": 16101807,
    "user": "cloudbase",
    "uid": 576814,
    "tags": {
      "amenity": "restaurant",
      "cuisine": "spanish",
      "name": "Don Joaquín"
    }
  },
  {
    "type": "node",
    "id": 2305395933,
    "lat": 36.4257565,
    "lon": -5.1439748,
    "timestamp": "2021-06-18T09:09:38Z",
    "version": 4,
    "changeset": 106577670,
    "user": "kapazao",
    "uid": 7543375,
    "tags": {
      "addr:housename": "Edificio Salymar",
      "addr:housenumber": "68",
      "addr:postcode": "29680",
      "addr:street": "Calle Real",
      "amenity": "restaurant",
      "cuisine": "spanish",
      "fixme": "Revisar existencia",
      "name": "La Taberna de Lucía 2"
    }
  },
  {
    "type": "node",
    "id": 2305398189,
    "lat": 36.4165883,
    "lon": -5.1566014,
    "timestamp": "2024-02-07T10:37:52Z",
    "version": 5,
    "changeset": 147170507,
    "user": "kapazao_import",
    "uid": 8770019,
    "tags": {
      "addr:housename": "Puerto Deportivo",
      "addr:postcode": "29680",
      "addr:street": "Avenida Luis Braille",
      "addr:unit": "38,39",
      "amenity": "restaurant",
      "cuisine": "spanish",
      "name": "La Taberna de Lucia 3"
    }
  },
  {
    "type": "node",
    "id": 2315236922,
    "lat": 36.4266741,
    "lon": -5.1419346,
    "timestamp": "2023-09-21T20:23:53Z",
    "version": 3,
    "changeset": 141576724,
    "user": "Hugoren Martinako",
    "uid": 3392826,
    "tags": {
      "addr:country": "ES",
      "addr:housenumber": "22-26",
      "addr:postcode": "29680",
      "addr:street": "Calle Real",
      "amenity": "restaurant",
      "cuisine": "italian",
      "name": "El Rincon Toscano"
    }
  },
  {
    "type": "node",
    "id": 2317711932,
    "lat": 36.4153762,
    "lon": -5.1586901,
    "timestamp": "2020-01-02T17:09:37Z",
    "version": 2,
    "changeset": 79123131,
    "user": "guyporter",
    "uid": 6201222,
    "tags": {
      "amenity": "restaurant",
      "cuisine": "chinese"
    }
  },
  {
    "type": "node",
    "id": 2317711933,
    "lat": 36.4154376,
    "lon": -5.1587733,
    "timestamp": "2020-01-02T17:09:37Z",
    "version": 2,
    "changeset": 79123131,
    "user": "guyporter",
    "uid": 6201222,
    "tags": {
      "amenity": "restaurant",
      "cuisine": "indian"
    }
  },
  {
    "type": "node",
    "id": 2334248298,
    "lat": 36.6651309,
    "lon": -4.5625064,
    "timestamp": "2022-05-09T09:28:09Z",
    "version": 3,
    "changeset": 120738207,
    "user": "kenke",
    "uid": 2569966,
    "tags": {
      "amenity": "restaurant",
      "name": "Restaurante Cienfuegos",
      "toilets": "yes",
      "toilets:access": "customers",
      "toilets:female": "yes",
      "toilets:male": "yes",
      "website": "http://www.restaurantecienfuegos.es/"
    }
  },
  {
    "type": "node",
    "id": 2336269995,
    "lat": 36.8638567,
    "lon": -5.1809531,
    "timestamp": "2024-04-21T18:33:22Z",
    "version": 3,
    "changeset": 150313951,
    "user": "Riccardo Stagni",
    "uid": 67621,
    "tags": {
      "amenity": "restaurant",
      "check_date": "2024-04-21",
      "cuisine": "regional",
      "name": "Dominguez"
    }
  },
  {
    "type": "node",
    "id": 2336270008,
    "lat": 36.86233,
    "lon": -5.1786901,
    "timestamp": "2013-06-07T21:17:12Z",
    "version": 1,
    "changeset": 16462636,
    "user": "st1974",
    "uid": 44793,
    "tags": {
      "amenity": "restaurant",
      "name": "La Tasca"
    }
  },
  {
    "type": "node",
    "id": 2336270011,
    "lat": 36.8639126,
    "lon": -5.1811098,
    "timestamp": "2024-04-21T18:33:08Z",
    "version": 2,
    "changeset": 150313951,
    "user": "Riccardo Stagni",
    "uid": 67621,
    "tags": {
      "amenity": "restaurant",
      "check_date": "2024-04-21",
      "cuisine": "regional",
      "name": "Palmero"
    }
  },
  {
    "type": "node",
    "id": 2350821766,
    "lat": 36.830714,
    "lon": -4.7418459,
    "timestamp": "2013-06-18T08:53:49Z",
    "version": 1,
    "changeset": 16600677,
    "user": "andi9876",
    "uid": 1256497,
    "tags": {
      "amenity": "restaurant",
      "name": "Los Conejitos"
    }
  },
  {
    "type": "node",
    "id": 2353197051,
    "lat": 36.4539061,
    "lon": -5.0497782,
    "timestamp": "2018-04-06T06:00:51Z",
    "version": 3,
    "changeset": 57854637,
    "user": "Lübeck",
    "uid": 55462,
    "tags": {
      "amenity": "restaurant",
      "delivery": "no",
      "name": "Barraca Beach"
    }
  },
  {
    "type": "node",
    "id": 2353754629,
    "lat": 36.510961,
    "lon": -4.885051,
    "timestamp": "2023-01-29T07:56:00Z",
    "version": 2,
    "changeset": 131831353,
    "user": "alkino",
    "uid": 510085,
    "tags": {
      "amenity": "restaurant",
      "name": "El Cortijo",
      "opening_hours": "Mo-Sa 13:00-23:00"
    }
  },
  {
    "type": "node",
    "id": 2354533397,
    "lat": 36.4623707,
    "lon": -5.0523518,
    "timestamp": "2018-07-02T21:17:57Z",
    "version": 2,
    "changeset": 60359345,
    "user": "craig63",
    "uid": 8295045,
    "tags": {
      "amenity": "restaurant",
      "name": "Kikos"
    }
  },
  {
    "type": "node",
    "id": 2363692970,
    "lat": 36.5227733,
    "lon": -4.6284314,
    "timestamp": "2024-12-25T09:15:41Z",
    "version": 6,
    "changeset": 160596527,
    "user": "Đuro Jiří",
    "uid": 14617702,
    "tags": {
      "air_conditioning": "yes",
      "amenity": "restaurant",
      "indoor_seating": "yes",
      "name": "Bikini Beach",
      "outdoor_seating": "yes",
      "wheelchair": "yes"
    }
  },
  {
    "type": "node",
    "id": 2363692971,
    "lat": 36.5270267,
    "lon": -4.6265295,
    "timestamp": "2023-02-02T08:10:00Z",
    "version": 2,
    "changeset": 131991262,
    "user": "NachoCarral",
    "uid": 2595123,
    "tags": {
      "amenity": "restaurant",
      "name": "Chiringuito El Cateto"
    }
  },
  {
    "type": "node",
    "id": 2363692977,
    "lat": 36.535428,
    "lon": -4.6227191,
    "timestamp": "2013-06-27T23:23:26Z",
    "version": 1,
    "changeset": 16733658,
    "user": "RobChafer",
    "uid": 98964,
    "tags": {
      "amenity": "restaurant"
    }
  },
  {
    "type": "node",
    "id": 2363692978,
    "lat": 36.5366861,
    "lon": -4.6220144,
    "timestamp": "2022-12-06T22:22:47Z",
    "version": 3,
    "changeset": 129800339,
    "user": "wheelmap_visitor",
    "uid": 290680,
    "tags": {
      "addr:housenumber": "9",
      "addr:street": "Paseo Marítimo Rey de España",
      "amenity": "restaurant",
      "name": "La Caracola",
      "opening_hours": "Mo-Su 09:00-24:00",
      "phone": "+34 952 584 687",
      "source": "survey",
      "website": "https://restaurantelacaracola.com/",
      "wheelchair": "yes"
    }
  },
  {
    "type": "node",
    "id": 2365605630,
    "lat": 36.5921116,
    "lon": -4.5248574,
    "timestamp": "2013-06-29T12:42:02Z",
    "version": 1,
    "changeset": 16751459,
    "user": "RobChafer",
    "uid": 98964,
    "tags": {
      "amenity": "restaurant",
      "cuisine": "english",
      "name": "Twenty Seven"
    }
  },
  {
    "type": "node",
    "id": 2365610876,
    "lat": 36.5640763,
    "lon": -4.5996296,
    "timestamp": "2024-12-24T13:40:27Z",
    "version": 8,
    "changeset": 160575258,
    "user": "Đuro Jiří",
    "uid": 14617702,
    "tags": {
      "addr:housenumber": "34",
      "addr:street": "Paseo Marítimo Rey de España",
      "air_conditioning": "yes",
      "amenity": "restaurant",
      "indoor_seating": "yes",
      "name": "Kamana",
      "outdoor_seating": "yes",
      "wheelchair": "yes"
    }
  },
  {
    "type": "node",
    "id": 2365610884,
    "lat": 36.566117,
    "lon": -4.5971517,
    "timestamp": "2024-12-24T13:40:21Z",
    "version": 6,
    "changeset": 160575895,
    "user": "Đuro Jiří",
    "uid": 14617702,
    "tags": {
      "air_conditioning": "yes",
      "amenity": "restaurant",
      "indoor_seating": "yes",
      "name": "Chiringuito Oasis",
      "outdoor_seating": "yes",
      "wheelchair": "yes"
    }
  },
  {
    "type": "node",
    "id": 2365610889,
    "lat": 36.5678913,
    "lon": -4.595068,
    "timestamp": "2023-03-16T05:09:06Z",
    "version": 3,
    "changeset": 133732976,
    "user": "thetornado76",
    "uid": 1624486,
    "tags": {
      "amenity": "restaurant",
      "name": "Restaurante Salvador El Lotero",
      "outdoor_seating": "yes"
    }
  },
  {
    "type": "node",
    "id": 2365610893,
    "lat": 36.5689025,
    "lon": -4.5937596,
    "timestamp": "2024-12-24T13:28:31Z",
    "version": 5,
    "changeset": 160575895,
    "user": "Đuro Jiří",
    "uid": 14617702,
    "tags": {
      "addr:housenumber": "29",
      "addr:postcode": "29640",
      "addr:street": "Paseo Marítimo Rey de España",
      "air_conditioning": "yes",
      "amenity": "restaurant",
      "cuisine": "spanish;seafood;fish",
      "indoor_seating": "yes",
      "name": "Fuengimar Restauracion",
      "outdoor_seating": "yes"
    }
  },
  {
    "type": "node",
    "id": 2365610897,
    "lat": 36.5699534,
    "lon": -4.5924332,
    "timestamp": "2023-03-16T05:09:06Z",
    "version": 3,
    "changeset": 133732976,
    "user": "thetornado76",
    "uid": 1624486,
    "tags": {
      "amenity": "restaurant",
      "cuisine": "local",
      "name": "Chiringuito Los Andaluces",
      "outdoor_seating": "yes",
      "phone": "+34-952-66 06 69"
    }
  },
  {
    "type": "node",
    "id": 2365610900,
    "lat": 36.5707955,
    "lon": -4.5909366,
    "timestamp": "2023-10-03T19:22:41Z",
    "version": 4,
    "changeset": 142114761,
    "user": "LFSW",
    "uid": 5421217,
    "tags": {
      "addr:postcode": "29640",
      "addr:street": "Paseo Marítimo Rey de España",
      "amenity": "restaurant",
      "name": "Los Marinos Paco",
      "name:en": "Los Marinos jose",
      "opening_hours": "Mo-Su 10:00-00:00",
      "phone": "+34 952 66 12 26"
    }
  },
  {
    "type": "node",
    "id": 2371603482,
    "lat": 36.6897788,
    "lon": -4.4423937,
    "timestamp": "2019-12-17T11:39:46Z",
    "version": 2,
    "changeset": 78524634,
    "user": "dcapillae_buildings-import",
    "uid": 7535386,
    "tags": {
      "addr:housenumber": "28",
      "addr:postcode": "29004",
      "addr:street": "Paseo Marítimo Antonio Banderas",
      "amenity": "restaurant",
      "cuisine": "italian",
      "name": "Bellavista Mare"
    }
  },
  {
    "type": "node",
    "id": 2371603483,
    "lat": 36.6903106,
    "lon": -4.4452194,
    "timestamp": "2024-02-14T11:48:12Z",
    "version": 5,
    "changeset": 147447403,
    "user": "kapazao_import",
    "uid": 8770019,
    "tags": {
      "amenity": "restaurant",
      "cuisine": "seafood",
      "name": "Marisquería La Mayor",
      "opening_hours": "Tu-Sa 13:00-0:00; Su-Mo 13:00-17:00"
    }
  },
  {
    "type": "node",
    "id": 2379193795,
    "lat": 36.5929644,
    "lon": -4.5732898,
    "timestamp": "2022-07-06T17:43:10Z",
    "version": 4,
    "changeset": 123287379,
    "user": "LFSW",
    "uid": 5421217,
    "tags": {
      "addr:housenumber": "12",
      "addr:postcode": "29639",
      "addr:street": "Calle Ibiza",
      "amenity": "restaurant",
      "cuisine": "spanish",
      "name": "La Perla",
      "opening_hours": "We-Su 13:30-16:00, 19:30-23:00; Tu 19:30-23:00",
      "phone": "+34 952 568166",
      "website": "https://www.restaurantelaperla.es/"
    }
  },
  {
    "type": "node",
    "id": 2379193799,
    "lat": 36.5343698,
    "lon": -4.6281805,
    "timestamp": "2023-03-29T20:17:03Z",
    "version": 3,
    "changeset": 134277441,
    "user": "sanchi",
    "uid": 170106,
    "tags": {
      "addr:housenumber": "4",
      "addr:postcode": "29640",
      "addr:street": "Calle Málaga",
      "amenity": "restaurant",
      "cuisine": "spanish",
      "full_name": "Restaurante - Cerveceria Tipi Tapa",
      "name": "Tipi Tapa",
      "phone": "+34 951 31 16 30",
      "source": "survey",
      "website": "http://cerveceriatipitapa.es/"
    }
  },
  {
    "type": "node",
    "id": 2379272629,
    "lat": 36.5492958,
    "lon": -4.6166871,
    "timestamp": "2016-07-25T03:42:33Z",
    "version": 3,
    "changeset": 41002025,
    "user": "Petsamo",
    "uid": 3290218,
    "tags": {
      "amenity": "restaurant",
      "cuisine": "finnish",
      "name": "Dos Leones 2",
      "source": "survey"
    }
  },
  {
    "type": "node",
    "id": 2383346449,
    "lat": 36.5594673,
    "lon": -4.6084386,
    "timestamp": "2013-12-21T11:27:07Z",
    "version": 2,
    "changeset": 19564472,
    "user": "Markus59",
    "uid": 39457,
    "tags": {
      "amenity": "restaurant",
      "cuisine": "greek",
      "internet_access": "wlan",
      "internet_access:fee": "no",
      "source": "survey"
    }
  },
  {
    "type": "node",
    "id": 2397543298,
    "lat": 36.6789378,
    "lon": -4.7234944,
    "timestamp": "2013-07-26T17:34:10Z",
    "version": 1,
    "changeset": 17104594,
    "user": "RobChafer",
    "uid": 98964,
    "tags": {
      "amenity": "restaurant"
    }
  },
  {
    "type": "node",
    "id": 2411174621,
    "lat": 36.5290547,
    "lon": -4.631221,
    "timestamp": "2025-04-14T06:07:03Z",
    "version": 2,
    "changeset": 164921986,
    "user": "RossA",
    "uid": 229347,
    "tags": {
      "amenity": "restaurant",
      "name": "Skate Park"
    }
  },
  {
    "type": "node",
    "id": 2411186954,
    "lat": 36.5271608,
    "lon": -4.6305678,
    "timestamp": "2024-08-27T21:24:29Z",
    "version": 4,
    "changeset": 155852058,
    "user": "rui228",
    "uid": 12612838,
    "tags": {
      "amenity": "restaurant",
      "cuisine": "chinese",
      "name": "Sushi som"
    }
  },
  {
    "type": "node",
    "id": 2418837324,
    "lat": 36.5341765,
    "lon": -4.6606902,
    "timestamp": "2018-04-25T10:39:26Z",
    "version": 2,
    "changeset": 58403966,
    "user": "NachoCarral",
    "uid": 2595123,
    "tags": {
      "amenity": "restaurant"
    }
  },
  {
    "type": "node",
    "id": 2423549606,
    "lat": 36.5950468,
    "lon": -4.6387209,
    "timestamp": "2023-03-02T09:30:36Z",
    "version": 5,
    "changeset": 133203502,
    "user": "felixi",
    "uid": 293845,
    "tags": {
      "addr:housenumber": "5",
      "addr:postcode": "29650",
      "addr:street": "Plaza de la Libertad",
      "amenity": "restaurant",
      "cuisine": "spanish",
      "name": "Porras",
      "phone": "+34 666 546 703"
    }
  },
  {
    "type": "node",
    "id": 2440430703,
    "lat": 36.5435653,
    "lon": -4.6379514,
    "timestamp": "2016-05-13T11:25:12Z",
    "version": 2,
    "changeset": 39289470,
    "user": "Mario Marin Pascual",
    "uid": 3938319,
    "tags": {
      "addr:street": "Calle Geranios",
      "amenity": "restaurant",
      "cuisine": "pizza",
      "name": "pizzeria Marta"
    }
  },
  {
    "type": "node",
    "id": 2454094340,
    "lat": 36.6634091,
    "lon": -4.5615715,
    "timestamp": "2015-01-15T21:23:37Z",
    "version": 2,
    "changeset": 28173933,
    "user": "kenke",
    "uid": 2569966,
    "tags": {
      "amenity": "restaurant",
      "name": "Gambrinus"
    }
  },
  {
    "type": "node",
    "id": 2455459532,
    "lat": 36.657357,
    "lon": -4.5588021,
    "timestamp": "2013-09-12T12:19:14Z",
    "version": 1,
    "changeset": 17798539,
    "user": "Leonardo Velasco",
    "uid": 241061,
    "tags": {
      "amenity": "restaurant",
      "cuisine": "italian",
      "name": "El Tomillar",
      "website": "http://www.el-tomillar.es/"
    }
  },
  {
    "type": "node",
    "id": 2455462377,
    "lat": 36.6615314,
    "lon": -4.5502951,
    "timestamp": "2013-10-02T13:01:08Z",
    "version": 3,
    "changeset": 18143450,
    "user": "Leonardo Velasco",
    "uid": 241061,
    "tags": {
      "amenity": "restaurant",
      "cuisine": "spanish",
      "name": "Chopp",
      "website": "http://www.choppbocadillosartesanos.com"
    }
  },
  {
    "type": "node",
    "id": 2455464219,
    "lat": 36.6805459,
    "lon": -4.5407485,
    "timestamp": "2013-09-12T12:23:29Z",
    "version": 1,
    "changeset": 17798595,
    "user": "Leonardo Velasco",
    "uid": 241061,
    "tags": {
      "amenity": "restaurant",
      "name": "El Limonar"
    }
  },
  {
    "type": "node",
    "id": 2460501083,
    "lat": 36.7172731,
    "lon": -4.4629871,
    "timestamp": "2018-06-26T14:49:01Z",
    "version": 4,
    "changeset": 60185762,
    "user": "AlviNihonCatastro",
    "uid": 8277219,
    "tags": {
      "amenity": "restaurant",
      "cuisine": "regional",
      "name": "MataHambre"
    }
  },
  {
    "type": "node",
    "id": 2462611126,
    "lat": 36.6697284,
    "lon": -4.5035612,
    "timestamp": "2019-09-18T13:19:48Z",
    "version": 3,
    "changeset": 74626862,
    "user": "dcapillae_buildings-import",
    "uid": 7535386,
    "tags": {
      "addr:housenumber": "3",
      "addr:postcode": "29140",
      "addr:street": "Camino Nuevo",
      "amenity": "restaurant",
      "name": "Café Pizzería La Capricho"
    }
  },
  {
    "type": "node",
    "id": 2498354449,
    "lat": 36.660504,
    "lon": -4.5605962,
    "timestamp": "2013-10-16T11:42:56Z",
    "version": 4,
    "changeset": 18384662,
    "user": "Leonardo Velasco",
    "uid": 241061,
    "tags": {
      "addr:street": "Calle San Pablo",
      "amenity": "restaurant",
      "cuisine": "italian",
      "name": "Mama Luchia"
    }
  },
  {
    "type": "node",
    "id": 2500543884,
    "lat": 36.4841973,
    "lon": -4.9904642,
    "timestamp": "2013-10-18T11:30:12Z",
    "version": 1,
    "changeset": 18417822,
    "user": "vramos",
    "uid": 475402,
    "tags": {
      "amenity": "restaurant",
      "cuisine": "pizza",
      "name": "Trastevere"
    }
  },
  {
    "type": "node",
    "id": 2501888735,
    "lat": 36.7361506,
    "lon": -4.4747962,
    "timestamp": "2023-06-12T16:11:15Z",
    "version": 2,
    "changeset": 137251155,
    "user": "dcapillae",
    "uid": 10080656,
    "tags": {
      "addr:housenumber": "6",
      "addr:postcode": "29190",
      "addr:street": "Calle Bandaneira",
      "amenity": "restaurant",
      "name": "Amador"
    }
  },
  {
    "type": "node",
    "id": 2503722344,
    "lat": 36.507281,
    "lon": -4.898056,
    "timestamp": "2013-10-21T11:20:33Z",
    "version": 1,
    "changeset": 18466992,
    "user": "WingedStone",
    "uid": 35018,
    "tags": {
      "amenity": "restaurant",
      "name": "Terra sana"
    }
  },
  {
    "type": "node",
    "id": 2503874053,
    "lat": 36.5097555,
    "lon": -4.8832712,
    "timestamp": "2022-10-09T22:56:19Z",
    "version": 8,
    "changeset": 127271286,
    "user": "kmpoppe (@ Mapillary Update)",
    "uid": 14309561,
    "tags": {
      "addr:housenumber": "3",
      "addr:postcode": "29601",
      "addr:street": "Plaza Altamirano",
      "amenity": "restaurant",
      "cuisine": "fish",
      "image": "https://images.mapillary.com/oNQGmMzw4yzx98PDzNpLsA/thumb-2048.jpg",
      "mapillary": "460598918573090",
      "name": "Altamirano",
      "phone": "+34952 82 49 32",
      "website": "https://baraltamirano.es/"
    }
  },
  {
    "type": "node",
    "id": 2503874760,
    "lat": 36.5096846,
    "lon": -4.8830948,
    "timestamp": "2021-07-09T21:27:32Z",
    "version": 3,
    "changeset": 107726957,
    "user": "AlvaroRC",
    "uid": 3538570,
    "tags": {
      "addr:city": "Marbella",
      "addr:housenumber": "3",
      "addr:postcode": "29601",
      "addr:street": "Plaza Altamirano",
      "amenity": "restaurant",
      "name": "The Farm"
    }
  },
  {
    "type": "node",
    "id": 2503878441,
    "lat": 36.50964,
    "lon": -4.883304,
    "timestamp": "2013-10-21T13:40:42Z",
    "version": 1,
    "changeset": 18469119,
    "user": "WingedStone",
    "uid": 35018,
    "tags": {
      "amenity": "restaurant",
      "name": "Zozoï"
    }
  },
  {
    "type": "node",
    "id": 2506018012,
    "lat": 36.7240319,
    "lon": -4.4198565,
    "timestamp": "2017-11-23T20:24:25Z",
    "version": 5,
    "changeset": 54035332,
    "user": "dcapillae_old",
    "uid": 865993,
    "tags": {
      "amenity": "restaurant",
      "cuisine": "tapas",
      "name": "El Mesón de Cervantes",
      "opening_hours": "We-Mo 19:00-00:00",
      "wheelchair": "yes"
    }
  },
  {
    "type": "node",
    "id": 2506018014,
    "lat": 36.7239894,
    "lon": -4.4194943,
    "timestamp": "2019-11-09T16:24:36Z",
    "version": 3,
    "changeset": 76838193,
    "user": "wheelmap_visitor",
    "uid": 290680,
    "tags": {
      "amenity": "restaurant",
      "cuisine": "pizza",
      "name": "La Romantica",
      "wheelchair": "yes"
    }
  },
  {
    "type": "node",
    "id": 2506018015,
    "lat": 36.7239539,
    "lon": -4.4193094,
    "timestamp": "2021-02-15T22:44:04Z",
    "version": 8,
    "changeset": 99335411,
    "user": "dcapillae",
    "uid": 10080656,
    "tags": {
      "addr:housenumber": "8",
      "addr:postcode": "29012",
      "addr:street": "Calle Cárcer",
      "amenity": "restaurant",
      "cuisine": "tapas",
      "name": "Tapeo de Cervantes",
      "opening_hours": "Tu-Sa 13:00-15:30, 19:30-23:30; Su 19:30-23:30",
      "operator": "Gabriel Alejandro Spatz",
      "phone": "+34 952 609 458",
      "toilets:wheelchair": "yes",
      "wheelchair": "limited"
    }
  },
  {
    "type": "node",
    "id": 2506018016,
    "lat": 36.7237883,
    "lon": -4.4197485,
    "timestamp": "2019-11-09T16:22:43Z",
    "version": 2,
    "changeset": 76838193,
    "user": "wheelmap_visitor",
    "uid": 290680,
    "tags": {
      "amenity": "restaurant",
      "cuisine": "tapas",
      "name": "Taperia de Sybaris",
      "wheelchair": "yes"
    }
  },
  {
    "type": "node",
    "id": 2507305337,
    "lat": 36.7191054,
    "lon": -4.422576,
    "timestamp": "2022-02-14T15:58:37Z",
    "version": 6,
    "changeset": 117399616,
    "user": "dcapillae",
    "uid": 10080656,
    "tags": {
      "addr:housenumber": "5",
      "addr:postcode": "29005",
      "addr:street": "Calle Esparteros",
      "amenity": "restaurant",
      "cuisine": "regional",
      "name": "La Aldea",
      "phone": "+34 952 22 76 89"
    }
  },
  {
    "type": "node",
    "id": 2507305338,
    "lat": 36.7192743,
    "lon": -4.4220503,
    "timestamp": "2023-11-20T12:47:31Z",
    "version": 7,
    "changeset": 144244435,
    "user": "Helge Kreutzmannn",
    "uid": 8353937,
    "tags": {
      "addr:housenumber": "9",
      "addr:postcode": "29005",
      "addr:street": "Calle Marín García",
      "alt_name": "Lo Gueno",
      "amenity": "restaurant",
      "indoor_seating": "yes",
      "name": "Mesón Lo Güeno",
      "outdoor_seating": "yes",
      "website": "https://www.logueno.es"
    }
  },
  {
    "type": "node",
    "id": 2542855704,
    "lat": 36.5417517,
    "lon": -4.7218754,
    "timestamp": "2020-09-08T03:11:48Z",
    "version": 5,
    "changeset": 90554146,
    "user": "thetornado76",
    "uid": 1624486,
    "tags": {
      "addr:city": "Mijas",
      "addr:housename": "La Terraza Restaurant",
      "addr:postcode": "29649",
      "addr:street": "Calle Mirador de Cala Golf",
      "amenity": "restaurant",
      "cuisine": "regional;tapas;bar",
      "name": "La Terraza",
      "website": "https://www.lacala.com/"
    }
  },
  {
    "type": "node",
    "id": 2543015238,
    "lat": 36.910371,
    "lon": -4.7324076,
    "timestamp": "2013-11-21T12:36:24Z",
    "version": 1,
    "changeset": 19033775,
    "user": "HenningS",
    "uid": 343052,
    "tags": {
      "amenity": "restaurant",
      "cuisine": "regional",
      "name": "rocaBella"
    }
  },
  {
    "type": "node",
    "id": 2610845639,
    "lat": 36.7197563,
    "lon": -4.4209394,
    "timestamp": "2023-03-02T18:58:24Z",
    "version": 3,
    "changeset": 133224575,
    "user": "alan_gr",
    "uid": 5307206,
    "tags": {
      "addr:city": "Málaga",
      "addr:housenumber": "5",
      "addr:postcode": "29015",
      "addr:street": "Calle Strachan",
      "amenity": "restaurant",
      "name": "La Taberna del Cura"
    }
  },
  {
    "type": "node",
    "id": 2610845640,
    "lat": 36.7196308,
    "lon": -4.4209509,
    "timestamp": "2021-02-21T19:18:56Z",
    "version": 4,
    "changeset": 99695270,
    "user": "dcapillae_buildings-import",
    "uid": 7535386,
    "tags": {
      "addr:city": "Málaga",
      "addr:housenumber": "6",
      "addr:postcode": "29015",
      "addr:street": "Calle Strachan",
      "amenity": "restaurant",
      "cuisine": "regional",
      "name": "Gorki",
      "wheelchair": "yes"
    }
  },
  {
    "type": "node",
    "id": 2615127927,
    "lat": 36.9413715,
    "lon": -5.2528595,
    "timestamp": "2021-12-08T20:02:17Z",
    "version": 2,
    "changeset": 114715581,
    "user": "Peri3",
    "uid": 14595185,
    "tags": {
      "amenity": "restaurant",
      "name": "La pacheca"
    }
  },
  {
    "type": "node",
    "id": 2622084144,
    "lat": 36.6607074,
    "lon": -4.5661074,
    "timestamp": "2014-01-14T11:28:29Z",
    "version": 1,
    "changeset": 19988584,
    "user": "Leonardo Velasco",
    "uid": 241061,
    "tags": {
      "amenity": "restaurant",
      "cuisine": "chinese"
    }
  },
  {
    "type": "node",
    "id": 2622084592,
    "lat": 36.6596037,
    "lon": -4.5597003,
    "timestamp": "2019-06-27T16:31:41Z",
    "version": 2,
    "changeset": 71679212,
    "user": "dcapillae",
    "uid": 10080656,
    "tags": {
      "amenity": "restaurant",
      "cuisine": "chinese",
      "name": "Restaurante Gracia y Paz"
    }
  },
  {
    "type": "node",
    "id": 2622087908,
    "lat": 36.6600763,
    "lon": -4.5678549,
    "timestamp": "2015-01-12T23:52:07Z",
    "version": 3,
    "changeset": 28100657,
    "user": "kenke",
    "uid": 2569966,
    "tags": {
      "addr:city": "Alhaurín de la Torre",
      "addr:postcode": "29130",
      "addr:street": "Avenida Reyes Católicos",
      "amenity": "restaurant",
      "cuisine": "regional",
      "name": "La Tapería Gastrobar"
    }
  },
  {
    "type": "node",
    "id": 2622088735,
    "lat": 36.6628888,
    "lon": -4.5630379,
    "timestamp": "2022-05-19T19:50:26Z",
    "version": 4,
    "changeset": 121211093,
    "user": "kenke",
    "uid": 2569966,
    "tags": {
      "amenity": "restaurant",
      "cuisine": "regional",
      "name": "La Baranda"
    }
  },
  {
    "type": "node",
    "id": 2622089185,
    "lat": 36.6647089,
    "lon": -4.5628925,
    "timestamp": "2014-01-14T11:35:27Z",
    "version": 1,
    "changeset": 19988687,
    "user": "Leonardo Velasco",
    "uid": 241061,
    "tags": {
      "amenity": "restaurant",
      "cuisine": "regional",
      "name": "Balbuena Mesón Asturiano"
    }
  },
  {
    "type": "node",
    "id": 2622089444,
    "lat": 36.6640029,
    "lon": -4.5619757,
    "timestamp": "2014-01-14T11:35:57Z",
    "version": 1,
    "changeset": 19988695,
    "user": "Leonardo Velasco",
    "uid": 241061,
    "tags": {
      "amenity": "restaurant",
      "cuisine": "burger",
      "name": "ETC"
    }
  },
  {
    "type": "node",
    "id": 2622091524,
    "lat": 36.6616878,
    "lon": -4.5501178,
    "timestamp": "2014-01-14T11:36:50Z",
    "version": 1,
    "changeset": 19988714,
    "user": "Leonardo Velasco",
    "uid": 241061,
    "tags": {
      "amenity": "restaurant",
      "cuisine": "international",
      "name": "La Canasta"
    }
  },
  {
    "type": "node",
    "id": 2625875932,
    "lat": 36.4290002,
    "lon": -5.1587209,
    "timestamp": "2024-12-17T21:29:58Z",
    "version": 2,
    "changeset": 160323026,
    "user": "marcomoya",
    "uid": 7540634,
    "tags": {
      "addr:city": "Estepona",
      "addr:housenumber": "30",
      "addr:street": "Calle Estebbuna",
      "amenity": "restaurant",
      "cuisine": "regional",
      "email": "restauranteelfrenazoestepona@gmail.com",
      "name": "Bar Restaurante El Frenazo",
      "phone": "+34 952 79 50 11",
      "website": "https://www.facebook.com/bellotas2002/?locale=es_ES"
    }
  },
  {
    "type": "node",
    "id": 2766723083,
    "lat": 36.7224552,
    "lon": -4.4169854,
    "timestamp": "2024-09-22T06:12:47Z",
    "version": 8,
    "changeset": 156936699,
    "user": "alan_gr",
    "uid": 5307206,
    "tags": {
      "addr:city": "Málaga",
      "addr:country": "ES",
      "addr:housenumber": "14",
      "addr:postcode": "29015",
      "addr:street": "Calle Alcazabilla",
      "amenity": "restaurant",
      "check_date": "2024-09-22",
      "cuisine": "burger",
      "description": "Burger and grill",
      "name": "Katogui Agora"
    }
  },
  {
    "type": "node",
    "id": 2766723094,
    "lat": 36.7228951,
    "lon": -4.4178237,
    "timestamp": "2023-08-22T14:10:50Z",
    "version": 5,
    "changeset": 140231616,
    "user": "areyesl",
    "uid": 9370539,
    "tags": {
      "addr:city": "Málaga",
      "addr:housenumber": "2",
      "addr:place": "Plaza de la Merced",
      "addr:postcode": "29012",
      "amenity": "restaurant",
      "cuisine": "regional",
      "name": "Cortijo de Pepe",
      "phone": "+34 952 22 40 71",
      "website": "https://www.cortijodepepe.es",
      "wheelchair": "limited"
    }
  },
  {
    "type": "node",
    "id": 2766723110,
    "lat": 36.7230236,
    "lon": -4.4180837,
    "timestamp": "2024-02-14T11:48:12Z",
    "version": 15,
    "changeset": 147447403,
    "user": "kapazao_import",
    "uid": 8770019,
    "tags": {
      "air_conditioning": "yes",
      "amenity": "restaurant",
      "cuisine": "italian;italian_pizza",
      "diet:halal": "no",
      "diet:kosher": "no",
      "diet:vegan": "yes",
      "diet:vegetarian": "yes",
      "indoor_seating": "yes",
      "internet_access": "wlan",
      "name": "Lorenzo Trattoria",
      "opening_hours": "Mo-Th 13:00-16:00,19:30-24:00; Fr,Sa 13:00-16:00,19:00-00:30; Su 13:00-16:00,19:00-24:00",
      "outdoor_seating": "no",
      "payment:credit_cards": "yes",
      "payment:debit_cards": "yes",
      "smoking": "no",
      "wheelchair": "yes"
    }
  },
  {
    "type": "node",
    "id": 2766723114,
    "lat": 36.7233434,
    "lon": -4.4182125,
    "timestamp": "2023-08-27T08:47:08Z",
    "version": 6,
    "changeset": 140441454,
    "user": "areyesl",
    "uid": 9370539,
    "tags": {
      "amenity": "restaurant",
      "name": "Esquina La Merced",
      "toilets:wheelchair": "yes",
      "wheelchair": "yes"
    }
  },
  {
    "type": "node",
    "id": 2766723128,
    "lat": 36.723871,
    "lon": -4.4173973,
    "timestamp": "2023-08-27T10:07:49Z",
    "version": 6,
    "changeset": 140444314,
    "user": "Cisneros1992",
    "uid": 8257044,
    "tags": {
      "addr:housenumber": "17",
      "addr:place": "Plaza de la Merced",
      "addr:postcode": "29012",
      "amenity": "restaurant",
      "name": "Restaurante Ispaña"
    }
  },
  {
    "type": "node",
    "id": 2766723132,
    "lat": 36.7237578,
    "lon": -4.4172287,
    "timestamp": "2023-08-27T10:07:49Z",
    "version": 8,
    "changeset": 140444314,
    "user": "Cisneros1992",
    "uid": 8257044,
    "tags": {
      "addr:city": "Málaga",
      "addr:housenumber": "18",
      "addr:place": "Plaza de la Merced",
      "addr:postcode": "29012",
      "amenity": "restaurant",
      "name": "La Plaza",
      "opening_hours": "Mo-Su 09:00-00:45",
      "toilets:wheelchair": "yes",
      "website": "https://www.laplazamalaga.com/",
      "wheelchair": "yes"
    }
  },
  {
    "type": "node",
    "id": 2766723137,
    "lat": 36.7234857,
    "lon": -4.4168312,
    "timestamp": "2023-08-27T09:26:13Z",
    "version": 16,
    "changeset": 140442664,
    "user": "Cisneros1992",
    "uid": 8257044,
    "tags": {
      "addr:housenumber": "21",
      "addr:place": "Plaza de la Merced",
      "addr:postcode": "29012",
      "amenity": "restaurant",
      "diet:vegan": "yes",
      "diet:vegetarian": "yes",
      "name": "Cañadú",
      "opening_hours": "Mo-Su 13:15-16:00, 19:30-23:30",
      "phone": "+34 952 60 27 19",
      "toilets:wheelchair": "yes",
      "website": "https://www.canadu.es/",
      "wheelchair": "yes"
    }
  },
  {
    "type": "node",
    "id": 2766723140,
    "lat": 36.723693,
    "lon": -4.419565,
    "timestamp": "2019-11-09T16:26:30Z",
    "version": 5,
    "changeset": 76838193,
    "user": "wheelmap_visitor",
    "uid": 290680,
    "tags": {
      "addr:housenumber": "18",
      "addr:street": "Calle Álamos",
      "amenity": "restaurant",
      "description:de": "Café Bio",
      "description:en": "coffeehouse ecological",
      "name": "Noviembre",
      "toilets:wheelchair": "no",
      "wheelchair": "yes"
    }
  },
  {
    "type": "node",
    "id": 2766723147,
    "lat": 36.7241315,
    "lon": -4.4188847,
    "timestamp": "2023-07-31T18:13:24Z",
    "version": 3,
    "changeset": 139266292,
    "user": "Julian_1_2_3_4_5",
    "uid": 19680976,
    "tags": {
      "amenity": "restaurant",
      "indoor_seating": "yes",
      "name": "La Brocheteria",
      "outdoor_seating": "no"
    }
  },
  {
    "type": "node",
    "id": 2767096015,
    "lat": 36.722821,
    "lon": -4.4205957,
    "timestamp": "2024-09-14T12:26:44Z",
    "version": 4,
    "changeset": 156609977,
    "user": "Groctel",
    "uid": 10649092,
    "tags": {
      "addr:city": "Málaga",
      "addr:housenumber": "5",
      "addr:postcode": "29008",
      "addr:street": "Calle Méndez Núñez",
      "amenity": "restaurant",
      "cuisine": "asian",
      "diet:vegan": "yes",
      "diet:vegetarian": "yes",
      "indoor_seating": "yes",
      "name": "Udon",
      "outdoor_seating": "no",
      "phone": "+34 951570145",
      "takeaway": "yes",
      "website": "https://www.udon.es/es/restaurants/malaga/udon-malaga"
    }
  },
  {
    "type": "node",
    "id": 2767096032,
    "lat": 36.7217242,
    "lon": -4.4214728,
    "timestamp": "2019-11-09T16:03:58Z",
    "version": 5,
    "changeset": 76838193,
    "user": "wheelmap_visitor",
    "uid": 290680,
    "tags": {
      "amenity": "restaurant",
      "cuisine": "tapas",
      "internet_access": "wlan",
      "name": "Pepa Y Pepe",
      "wheelchair": "no"
    }
  },