[
  {
    "type": "node",
    "id": 241176287,
    "lat": 36.1604123,
    "lon": -5.3491917,
    "timestamp": "2025-01-03T11:53:32Z",
    "version": 4,
    "changeset": 160945223,
    "user": "soyandaluz",
    "uid": 18654338,
    "tags": {
      "addr:city": "La Línea de la Concepción",
      "addr:postcode": "11300",
      "addr:street": "Avenida de España",
      "amenity": "restaurant",
      "cuisine": "italian",
      "name": "Gallipoli"
    }
  },
  {
    "type": "node",
    "id": 280579117,
    "lat": 36.2340324,
    "lon": -5.3163717,
    "timestamp": "2008-07-23T22:50:15Z",
    "version": 1,
    "changeset": 582004,
    "user": "stev",
    "uid": 3762,
    "tags": {
      "amenity": "restaurant",
      "name": "Dragonfly"
    }
  },
  {
    "type": "node",
    "id": 280579155,
    "lat": 36.2337006,
    "lon": -5.3149566,
    "timestamp": "2017-03-29T09:27:26Z",
    "version": 4,
    "changeset": 47253920,
    "user": "mxrev8",
    "uid": 5571621,
    "tags": {
      "amenity": "restaurant",
      "name": "DBlanco Beach Club",
      "opening_hours:url": "http://www.dblancoalcaidesa.com/welcome.html",
      "smoking": "outside"
    }
  },
  {
    "type": "node",
    "id": 280579473,
    "lat": 36.2343951,
    "lon": -5.316628,
    "timestamp": "2024-10-25T21:32:54Z",
    "version": 3,
    "changeset": 158355765,
    "user": "soyandaluz",
    "uid": 18654338,
    "tags": {
      "amenity": "restaurant",
      "name": "BioPizza"
    }
  },
  {
    "type": "node",
    "id": 366062527,
    "lat": 36.8810875,
    "lon": -5.405221,
    "timestamp": "2022-02-16T17:30:20Z",
    "version": 3,
    "changeset": 117486462,
    "user": "felixi",
    "uid": 293845,
    "tags": {
      "amenity": "restaurant",
      "name": "Meson Tendido Cero"
    }
  },
  {
    "type": "node",
    "id": 366734644,
    "lat": 36.8798652,
    "lon": -5.4088533,
    "timestamp": "2014-12-14T16:58:47Z",
    "version": 6,
    "changeset": 27462565,
    "user": "m_fl",
    "uid": 198925,
    "tags": {
      "amenity": "restaurant",
      "cuisine": "regional",
      "internet_access": "no",
      "name": "La Pozá Saborido"
    }
  },
  {
    "type": "node",
    "id": 367103742,
    "lat": 36.87696,
    "lon": -5.4253623,
    "timestamp": "2018-07-11T22:38:40Z",
    "version": 4,
    "changeset": 60629547,
    "user": "Kico_Diaz",
    "uid": 7363218,
    "tags": {
      "amenity": "restaurant",
      "cuisine": "regional;spanish;breakfast",
      "name": "El Cortijo",
      "name:en": "Venta El Cortijo",
      "name:es": "Venta El Cortijo",
      "tourism": "hostel"
    }
  },
  {
    "type": "node",
    "id": 367735020,
    "lat": 36.8748879,
    "lon": -5.4203301,
    "timestamp": "2009-03-30T23:04:07Z",
    "version": 1,
    "changeset": 871723,
    "user": "balrog-kun",
    "uid": 20587,
    "tags": {
      "amenity": "restaurant",
      "cuisine": "regional",
      "name": "Venta El Arenal"
    }
  },
  {
    "type": "node",
    "id": 369695589,
    "lat": 36.3109018,
    "lon": -5.4494732,
    "timestamp": "2024-10-17T21:26:48Z",
    "version": 3,
    "changeset": 158026922,
    "user": "marcomoya",
    "uid": 7540634,
    "tags": {
      "amenity": "restaurant",
      "cuisine": "mediterranean",
      "name": "Venta Jarandilla",
      "phone": "+34 956 647 030"
    }
  },
  {
    "type": "node",
    "id": 470211292,
    "lat": 36.1810381,
    "lon": -5.9036058,
    "timestamp": "2024-11-03T08:05:51Z",
    "version": 2,
    "changeset": 158687905,
    "user": "xuser",
    "uid": 22136064,
    "tags": {
      "amenity": "restaurant",
      "name": "Kcurro"
    }
  },
  {
    "type": "node",
    "id": 470365938,
    "lat": 36.1908116,
    "lon": -6.0267594,
    "timestamp": "2021-09-23T18:11:37Z",
    "version": 2,
    "changeset": 111611663,
    "user": "walo",
    "uid": 149606,
    "tags": {
      "amenity": "restaurant",
      "name": "Las acacias"
    }
  },
  {
    "type": "node",
    "id": 562654451,
    "lat": 36.8242492,
    "lon": -5.7418361,
    "timestamp": "2009-11-13T09:41:49Z",
    "version": 1,
    "changeset": 3104488,
    "user": "PhQ",
    "uid": 141978,
    "tags": {
      "amenity": "restaurant"
    }
  },
  {
    "type": "node",
    "id": 566207026,
    "lat": 36.3390942,
    "lon": -6.1506096,
    "timestamp": "2013-06-11T08:19:30Z",
    "version": 2,
    "changeset": 16506873,
    "user": "flo79",
    "uid": 590160,
    "tags": {
      "amenity": "restaurant"
    }
  },
  {
    "type": "node",
    "id": 579666453,
    "lat": 36.3732311,
    "lon": -5.4193058,
    "timestamp": "2024-11-09T21:30:21Z",
    "version": 2,
    "changeset": 158949634,
    "user": "marcomoya",
    "uid": 7540634,
    "tags": {
      "amenity": "restaurant"
    }
  },
  {
    "type": "node",
    "id": 593879495,
    "lat": 36.7036429,
    "lon": -5.422103,
    "timestamp": "2015-01-08T22:48:28Z",
    "version": 2,
    "changeset": 28008753,
    "user": "Vince Darley",
    "uid": 21681,
    "tags": {
      "amenity": "restaurant",
      "name": "El Paral"
    }
  },
  {
    "type": "node",
    "id": 593879543,
    "lat": 36.7585373,
    "lon": -5.3668726,
    "timestamp": "2016-04-05T18:08:56Z",
    "version": 3,
    "changeset": 38326755,
    "user": "Carsten_FfM",
    "uid": 1413853,
    "tags": {
      "amenity": "restaurant",
      "name": "Casa de las Piedras"
    }
  },
  {
    "type": "node",
    "id": 593879548,
    "lat": 36.7579762,
    "lon": -5.3652795,
    "timestamp": "2021-09-16T22:50:42Z",
    "version": 5,
    "changeset": 111312406,
    "user": "Carlos_N",
    "uid": 3242739,
    "tags": {
      "addr:city": "Grazalema",
      "addr:country": "ES",
      "addr:housenumber": "8",
      "addr:postcode": "11610",
      "addr:street": "Plaza de España",
      "amenity": "restaurant",
      "name": "Cádiz El Chico"
    }
  },
  {
    "type": "node",
    "id": 593879549,
    "lat": 36.7581517,
    "lon": -5.3648343,
    "timestamp": "2009-12-16T18:46:01Z",
    "version": 1,
    "changeset": 3388698,
    "user": "UFeldmaus",
    "uid": 41190,
    "tags": {
      "amenity": "restaurant",
      "name": "El Endrinal"
    }
  },
  {
    "type": "node",
    "id": 655138260,
    "lat": 36.157307,
    "lon": -5.4480696,
    "timestamp": "2010-02-27T11:48:06Z",
    "version": 1,
    "changeset": 3987687,
    "user": "LW-Torrecilla",
    "uid": 238357,
    "tags": {
      "amenity": "restaurant",
      "name": "Bar Raul"
    }
  },
  {
    "type": "node",
    "id": 663856589,
    "lat": 36.3646593,
    "lon": -6.1566136,
    "timestamp": "2019-03-03T22:53:53Z",
    "version": 4,
    "changeset": 67749258,
    "user": "mor",
    "uid": 220932,
    "tags": {
      "addr:street": "Carretera de Carabineros",
      "amenity": "restaurant",
      "cuisine": "steak_house;barbecue;spanish;local;regional;grill;fish",
      "name": "Venta López",
      "phone": "+34 856093939"
    }
  },
  {
    "type": "node",
    "id": 671545147,
    "lat": 36.311166,
    "lon": -6.1126899,
    "timestamp": "2023-11-01T15:16:46Z",
    "version": 7,
    "changeset": 143481059,
    "user": "geisterwelt",
    "uid": 20505595,
    "tags": {
      "amenity": "restaurant",
      "cuisine": "sandwich",
      "name": "Camping Roche Take Away"
    }
  },
  {
    "type": "node",
    "id": 698086759,
    "lat": 36.4172822,
    "lon": -6.1493635,
    "timestamp": "2014-04-14T23:31:53Z",
    "version": 3,
    "changeset": 21699428,
    "user": "chiclana1990",
    "uid": 570548,
    "tags": {
      "amenity": "restaurant",
      "name": "El Molino Tapas"
    }
  },
  {
    "type": "node",
    "id": 818941323,
    "lat": 36.0826034,
    "lon": -5.5037151,
    "timestamp": "2019-04-15T13:47:03Z",
    "version": 2,
    "changeset": 69236231,
    "user": "OttoR",
    "uid": 4123522,
    "tags": {
      "amenity": "restaurant",
      "name": "Las Piedras"
    }
  },
  {
    "type": "node",
    "id": 876318167,
    "lat": 36.1614452,
    "lon": -5.3525472,
    "timestamp": "2025-03-01T12:11:16Z",
    "version": 6,
    "changeset": 163085647,
    "user": "soyandaluz",
    "uid": 18654338,
    "tags": {
      "addr:city": "La Línea de la Concepción",
      "addr:housenumber": "1",
      "addr:postcode": "11300",
      "addr:street": "Calle Salvador Dalí",
      "amenity": "restaurant",
      "cuisine": "italian",
      "name": "Don Giovanni"
    }
  },
  {
    "type": "node",
    "id": 937642722,
    "lat": 36.0121354,
    "lon": -5.6026902,
    "timestamp": "2024-09-19T19:37:09Z",
    "version": 6,
    "changeset": 156837491,
    "user": "kapazao_import",
    "uid": 8770019,
    "tags": {
      "addr:housename": "Bar Tapaboca",
      "addr:housenumber": "9",
      "addr:postcode": "11380",
      "addr:street": "Calle Guzmán el Bueno",
      "amenity": "restaurant",
      "cuisine": "spanish",
      "designation": "Bar Andaluz",
      "ele": "37.62",
      "name": "Bar Tapaboca",
      "shop": "hardware",
      "wpt_description": "FERETERIA"
    }
  },
  {
    "type": "node",
    "id": 940894528,
    "lat": 36.7000321,
    "lon": -6.0873654,
    "timestamp": "2018-10-24T18:52:00Z",
    "version": 2,
    "changeset": 63842857,
    "user": "2-wheels",
    "uid": 8833132,
    "tags": {
      "amenity": "restaurant",
      "name": "Don Pepe"
    }
  },
  {
    "type": "node",
    "id": 942336127,
    "lat": 36.5988796,
    "lon": -6.2415567,
    "timestamp": "2010-10-09T09:07:13Z",
    "version": 1,
    "changeset": 5991914,
    "user": "fgugg",
    "uid": 150297,
    "tags": {
      "amenity": "restaurant"
    }
  },
  {
    "type": "node",
    "id": 945652257,
    "lat": 36.5197992,
    "lon": -5.3244323,
    "timestamp": "2014-09-02T19:11:22Z",
    "version": 3,
    "changeset": 25189356,
    "user": "genal_es",
    "uid": 301068,
    "tags": {
      "amenity": "restaurant",
      "cuisine": "spanish",
      "name": "Bodeguita Chaparro"
    }
  },
  {
    "type": "node",
    "id": 965215670,
    "lat": 36.7661049,
    "lon": -5.4657007,
    "timestamp": "2010-10-25T19:23:50Z",
    "version": 1,
    "changeset": 6176588,
    "user": "UFeldmaus",
    "uid": 41190,
    "tags": {
      "amenity": "restaurant",
      "name": "Méson La Fuente"
    }
  },
  {
    "type": "node",
    "id": 965216177,
    "lat": 36.7657176,
    "lon": -5.4690386,
    "timestamp": "2010-10-25T19:23:59Z",
    "version": 1,
    "changeset": 6176588,
    "user": "UFeldmaus",
    "uid": 41190,
    "tags": {
      "amenity": "restaurant",
      "name": "Venta El Bujio"
    }
  },
  {
    "type": "node",
    "id": 965216184,
    "lat": 36.7638599,
    "lon": -5.465844,
    "timestamp": "2010-10-25T19:23:59Z",
    "version": 1,
    "changeset": 6176588,
    "user": "UFeldmaus",
    "uid": 41190,
    "tags": {
      "amenity": "restaurant",
      "name": "El Caucha"
    }
  },
  {
    "type": "node",
    "id": 969920143,
    "lat": 36.2076206,
    "lon": -5.5192269,
    "timestamp": "2021-10-06T09:05:11Z",
    "version": 3,
    "changeset": 112159489,
    "user": "Javier Sanchez",
    "uid": 47882,
    "tags": {
      "amenity": "restaurant",
      "name": "Bar Restaurante Venta el Frenazo",
      "opening_hours": "We-Su 08:00-17:00; Mo-Tu off",
      "phone": "+34 956 62 08 14"
    }
  },
  {
    "type": "node",
    "id": 979162439,
    "lat": 36.6226712,
    "lon": -5.3387685,
    "timestamp": "2021-01-29T22:06:17Z",
    "version": 10,
    "changeset": 98391613,
    "user": "kapazao",
    "uid": 7543375,
    "tags": {
      "amenity": "restaurant",
      "cuisine": "regional",
      "fixme": "Añadir horario a los días de apertura",
      "internet_access": "no",
      "name": "Meson Los Alcornocales",
      "opening_hours": "Tu-Su",
      "smoking": "no",
      "wheelchair": "yes"
    }
  },
  {
    "type": "node",
    "id": 985094175,
    "lat": 36.3428623,
    "lon": -6.1475607,
    "timestamp": "2013-06-13T08:30:45Z",
    "version": 3,
    "changeset": 16534423,
    "user": "flo79",
    "uid": 590160,
    "tags": {
      "amenity": "restaurant"
    }
  },
  {
    "type": "node",
    "id": 996045276,
    "lat": 36.8851804,
    "lon": -5.5350321,
    "timestamp": "2012-08-05T18:35:38Z",
    "version": 2,
    "changeset": 12624485,
    "user": "Rickydh",
    "uid": 335661,
    "tags": {
      "amenity": "restaurant",
      "name": "Venta de los 4 Mojones"
    }
  },
  {
    "type": "node",
    "id": 1008328478,
    "lat": 36.9838441,
    "lon": -5.3803787,
    "timestamp": "2010-11-27T18:21:22Z",
    "version": 1,
    "changeset": 6472056,
    "user": "Basilmap",
    "uid": 209191,
    "tags": {
      "amenity": "restaurant"
    }
  },
  {
    "type": "node",
    "id": 1008328604,
    "lat": 36.9245045,
    "lon": -5.5549339,
    "timestamp": "2016-04-04T09:05:21Z",
    "version": 2,
    "changeset": 38285139,
    "user": "Carsten_FfM",
    "uid": 1413853,
    "tags": {
      "amenity": "restaurant"
    }
  },
  {
    "type": "node",
    "id": 1008328707,
    "lat": 36.9647542,
    "lon": -5.4298963,
    "timestamp": "2010-11-27T18:21:25Z",
    "version": 1,
    "changeset": 6472056,
    "user": "Basilmap",
    "uid": 209191,
    "tags": {
      "amenity": "restaurant"
    }
  },
  {
    "type": "node",
    "id": 1033071919,
    "lat": 36.5316764,
    "lon": -6.1850875,
    "timestamp": "2010-12-11T11:55:11Z",
    "version": 1,
    "changeset": 6622101,
    "user": "NACLE",
    "uid": 378284,
    "tags": {
      "amenity": "restaurant",
      "name": "Restaurante El Chato"
    }
  },
  {
    "type": "node",
    "id": 1033754662,
    "lat": 36.5304127,
    "lon": -6.185536,
    "timestamp": "2010-12-13T19:02:49Z",
    "version": 2,
    "changeset": 6650954,
    "user": "NACLE",
    "uid": 378284,
    "tags": {
      "amenity": "restaurant",
      "name": "Chino-Cantonese"
    }
  },
  {
    "type": "node",
    "id": 1037541633,
    "lat": 36.5320434,
    "lon": -6.2002139,
    "timestamp": "2022-11-13T12:56:46Z",
    "version": 3,
    "changeset": 128846088,
    "user": "Casquito",
    "uid": 17528447,
    "tags": {
      "amenity": "restaurant",
      "name": "La Copla"
    }
  },
  {
    "type": "node",
    "id": 1067608703,
    "lat": 36.5006741,
    "lon": -6.2555606,
    "timestamp": "2010-12-27T12:37:54Z",
    "version": 1,
    "changeset": 6777193,
    "user": "NACLE",
    "uid": 378284,
    "tags": {
      "amenity": "restaurant",
      "name": "Restaurante Elcano"
    }
  },
  {
    "type": "node",
    "id": 1118474504,
    "lat": 36.7582569,
    "lon": -5.3628711,
    "timestamp": "2024-08-28T19:42:49Z",
    "version": 8,
    "changeset": 155898105,
    "user": "Juanantonaya",
    "uid": 150021,
    "tags": {
      "amenity": "restaurant",
      "indoor_seating": "yes",
      "name": "Mirador de Grazalema",
      "outdoor_seating": "yes",
      "smoking": "no",
      "wheelchair": "no"
    }
  },
  {
    "type": "node",
    "id": 1119498504,
    "lat": 36.7503246,
    "lon": -5.5670307,
    "timestamp": "2011-01-24T23:27:50Z",
    "version": 2,
    "changeset": 7079319,
    "user": "Vince Darley",
    "uid": 21681,
    "tags": {
      "amenity": "restaurant",
      "cuisine": "spanish",
      "name": "Venta Mariquita"
    }
  },
  {
    "type": "node",
    "id": 1223828667,
    "lat": 36.5359174,
    "lon": -6.2968668,
    "timestamp": "2019-08-28T11:29:46Z",
    "version": 5,
    "changeset": 73833150,
    "user": "sanchi",
    "uid": 170106,
    "tags": {
      "addr:housenumber": "4",
      "addr:street": "Calle Zorrilla",
      "amenity": "restaurant",
      "cuisine": "spanish;mediterranean;grill",
      "name": "Cumbres Mayores",
      "phone": "+34 856072242",
      "website": "http://www.mesoncumbresmayores.com"
    }
  },
  {
    "type": "node",
    "id": 1229289663,
    "lat": 36.2807521,
    "lon": -6.0984997,
    "timestamp": "2018-05-18T22:25:46Z",
    "version": 5,
    "changeset": 59066025,
    "user": "wheelmap_visitor",
    "uid": 290680,
    "tags": {
      "amenity": "restaurant",
      "name": "Restaurante Francisco La Fontanilla",
      "toilets:wheelchair": "yes",
      "wheelchair": "yes"
    }
  },
  {
    "type": "node",
    "id": 1230543636,
    "lat": 36.2787204,
    "lon": -5.4320745,
    "timestamp": "2011-04-03T11:12:47Z",
    "version": 1,
    "changeset": 7752792,
    "user": "UFeldmaus",
    "uid": 41190,
    "tags": {
      "amenity": "restaurant",
      "name": "Venta La Cantina"
    }
  },
  {
    "type": "node",
    "id": 1232961904,
    "lat": 36.1854557,
    "lon": -5.7559165,
    "timestamp": "2025-01-11T16:09:44Z",
    "version": 5,
    "changeset": 161245107,
    "user": "Đuro Jiří",
    "uid": 14617702,
    "tags": {
      "air_conditioning": "yes",
      "amenity": "restaurant",
      "contact:facebook": "https://m.facebook.com/100063534284640/",
      "contact:phone": "+34 956 68 71 32",
      "contact:tripadvisor": "https://www.tripadvisor.it/Restaurant_Review-g2444950-d9823842-Reviews-Restaurante_Apolo_XI-Tahivilla_Province_of_Cadiz_Andalucia.html",
      "cuisine": "spanish",
      "indoor_seating": "yes",
      "name": "Apolo XI",
      "outdoor_seating": "yes"
    }
  },
  {
    "type": "node",
    "id": 1258766561,
    "lat": 36.615255,
    "lon": -5.3459928,
    "timestamp": "2011-04-24T21:08:58Z",
    "version": 1,
    "changeset": 7957158,
    "user": "UFeldmaus",
    "uid": 41190,
    "tags": {
      "amenity": "restaurant",
      "name": "Mesón Los Monteros"
    }
  },
  {
    "type": "node",
    "id": 1305836301,
    "lat": 36.2901903,
    "lon": -6.1063607,
    "timestamp": "2011-05-30T14:16:39Z",
    "version": 1,
    "changeset": 8292517,
    "user": "Bes",
    "uid": 232292,
    "tags": {
      "amenity": "restaurant",
      "cuisine": "spanish",
      "name": "El Marinero"
    }
  },
  {
    "type": "node",
    "id": 1306128905,
    "lat": 36.4560497,
    "lon": -6.2081182,
    "timestamp": "2017-11-04T10:26:52Z",
    "version": 2,
    "changeset": 53500393,
    "user": "alkayata",
    "uid": 571978,
    "tags": {
      "amenity": "restaurant",
      "cuisine": "spanish",
      "name": "Sancho Panza"
    }
  },
  {
    "type": "node",
    "id": 1306128910,
    "lat": 36.4561662,
    "lon": -6.2082611,
    "timestamp": "2017-11-04T10:26:52Z",
    "version": 3,
    "changeset": 53500393,
    "user": "alkayata",
    "uid": 571978,
    "tags": {
      "amenity": "restaurant",
      "name": "La Mar de Fresquita"
    }
  },
  {
    "type": "node",
    "id": 1312933623,
    "lat": 36.6000892,
    "lon": -6.2510531,
    "timestamp": "2021-12-16T11:22:22Z",
    "version": 3,
    "changeset": 115003890,
    "user": "kapazao_import",
    "uid": 8770019,
    "tags": {
      "amenity": "restaurant",
      "brand": "Foster's Hollywood",
      "brand:wikidata": "Q5864366",
      "brand:wikipedia": "es:Foster's Hollywood",
      "cuisine": "american",
      "name": "Foster's Hollywood"
    }
  },
  {
    "type": "node",
    "id": 1329545772,
    "lat": 36.6235018,
    "lon": -5.3381319,
    "timestamp": "2021-01-29T22:06:17Z",
    "version": 2,
    "changeset": 98391613,
    "user": "kapazao",
    "uid": 7543375,
    "tags": {
      "amenity": "restaurant",
      "cuisine": "regional",
      "fixme": "Añadir horario a los días de apertura",
      "internet_access": "no",
      "name": "Meson Los Rosales",
      "opening_hours": "Th-Tu",
      "smoking": "no"
    }
  },
  {
    "type": "node",
    "id": 1329545920,
    "lat": 36.6220231,
    "lon": -5.3390951,
    "timestamp": "2011-06-30T17:25:04Z",
    "version": 2,
    "changeset": 8592551,
    "user": "genal_es",
    "uid": 301068,
    "tags": {
      "amenity": "restaurant",
      "cuisine": "regional",
      "internet_access": "no",
      "name": "Bar El Santo",
      "smoking": "no"
    }
  },
  {
    "type": "node",
    "id": 1336173047,
    "lat": 36.5292597,
    "lon": -6.2991174,
    "timestamp": "2020-12-01T20:06:22Z",
    "version": 4,
    "changeset": 95114324,
    "user": "mcheck",
    "uid": 478872,
    "tags": {
      "addr:city": "Cádiz",
      "addr:housenumber": "9",
      "addr:postcode": "11002",
      "addr:street": "Calle Abreu",
      "amenity": "restaurant",
      "name": "Restaurante El Dorado",
      "phone": "+34 956 223 745"
    }
  },
  {
    "type": "node",
    "id": 1336173049,
    "lat": 36.5294567,
    "lon": -6.2990806,
    "timestamp": "2019-08-28T11:29:46Z",
    "version": 3,
    "changeset": 73833150,
    "user": "sanchi",
    "uid": 170106,
    "tags": {
      "addr:city": "Cádiz",
      "addr:housenumber": "7",
      "addr:postcode": "11002",
      "addr:street": "Calle Abreu",
      "amenity": "restaurant",
      "name": "Restaurante Meson la Cartuja",
      "phone": "+34 956 222 647"
    }
  },
  {
    "type": "node",
    "id": 1344991098,
    "lat": 36.6170606,
    "lon": -5.3423997,
    "timestamp": "2011-07-19T19:04:45Z",
    "version": 2,
    "changeset": 8771619,
    "user": "genal_es",
    "uid": 301068,
    "tags": {
      "amenity": "restaurant",
      "cuisine": "regional",
      "name": "Mesón Alameda"
    }
  },
  {
    "type": "node",
    "id": 1356543506,
    "lat": 36.42082,
    "lon": -5.43692,
    "timestamp": "2011-07-10T14:08:18Z",
    "version": 1,
    "changeset": 8683905,
    "user": "tuxpalm",
    "uid": 176618,
    "tags": {
      "amenity": "restaurant",
      "cuisine": "regional",
      "name": "Mesilla de los Ángeles"
    }
  },
  {
    "type": "node",
    "id": 1356894919,
    "lat": 36.43921,
    "lon": -5.4561,
    "timestamp": "2023-10-23T19:50:01Z",
    "version": 2,
    "changeset": 143033584,
    "user": "b-jazz-bot",
    "uid": 9451067,
    "tags": {
      "amenity": "restaurant",
      "cuisine": "regional",
      "internet_access": "wlan",
      "internet_access:fee": "no",
      "name": "La Bodega de Ana",
      "website": "https://www.labodegadeana.com/"
    }
  },
  {
    "type": "node",
    "id": 1408803654,
    "lat": 36.987545,
    "lon": -5.9403037,
    "timestamp": "2011-08-22T18:29:04Z",
    "version": 1,
    "changeset": 9096757,
    "user": "jacksparrow",
    "uid": 235316,
    "tags": {
      "amenity": "restaurant",
      "name": "Pizzería Venecia"
    }
  },
  {
    "type": "node",
    "id": 1430396999,
    "lat": 36.9913721,
    "lon": -5.5890324,
    "timestamp": "2011-09-11T18:33:18Z",
    "version": 1,
    "changeset": 9273718,
    "user": "Rickydh",
    "uid": 335661,
    "tags": {
      "amenity": "restaurant",
      "name": "Las Piedras"
    }
  },
  {
    "type": "node",
    "id": 1551821218,
    "lat": 36.4225165,
    "lon": -6.1420631,
    "timestamp": "2012-03-04T15:27:44Z",
    "version": 3,
    "changeset": 10869633,
    "user": "chiclana1990",
    "uid": 570548,
    "tags": {
      "amenity": "restaurant",
      "cuisine": "spanish",
      "name": "Bodega El Carretero"
    }
  },
  {
    "type": "node",
    "id": 1562462454,
    "lat": 36.2736605,
    "lon": -6.0899514,
    "timestamp": "2018-11-02T23:00:14Z",
    "version": 4,
    "changeset": 64130070,
    "user": "NielsLa",
    "uid": 4627480,
    "tags": {
      "amenity": "restaurant",
      "cuisine": "regional;coffee;tea",
      "internet_access": "wlan",
      "name": "Casa Manolo \"Fuguilla\"",
      "outdoor_seating": "yes",
      "smoking": "outside",
      "wheelchair": "yes"
    }
  },
  {
    "type": "node",
    "id": 1569346381,
    "lat": 36.4227874,
    "lon": -6.1420456,
    "timestamp": "2013-01-03T18:06:35Z",
    "version": 3,
    "changeset": 14515774,
    "user": "chiclana1990",
    "uid": 570548,
    "tags": {
      "amenity": "restaurant",
      "name": "El Sitio"
    }
  },
  {
    "type": "node",
    "id": 1574608635,
    "lat": 36.6926063,
    "lon": -6.1558534,
    "timestamp": "2022-08-31T13:47:00Z",
    "version": 3,
    "changeset": 125613779,
    "user": "Patrick Bous",
    "uid": 223763,
    "tags": {
      "amenity": "restaurant",
      "brand": "100 Montaditos",
      "brand:wikidata": "Q8355805",
      "cuisine": "sandwich",
      "name": "100 Montaditos"
    }
  },
  {
    "type": "node",
    "id": 1574608698,
    "lat": 36.6920773,
    "lon": -6.1561858,
    "timestamp": "2016-08-07T21:27:07Z",
    "version": 3,
    "changeset": 41312406,
    "user": "Jose Urri",
    "uid": 4383934,
    "tags": {
      "amenity": "restaurant",
      "internet_access": "wlan",
      "name": "area sur"
    }
  },
  {
    "type": "node",
    "id": 1601503262,
    "lat": 36.3518054,
    "lon": -6.1650924,
    "timestamp": "2020-07-01T09:43:45Z",
    "version": 5,
    "changeset": 87391796,
    "user": "sanchi",
    "uid": 170106,
    "tags": {
      "addr:postcode": "11139",
      "addr:street": "Avenida Octavio Augusto",
      "amenity": "restaurant",
      "name": "Cachito Novo",
      "name:en": "Cachito Novo",
      "name:es": "Cachito Novo",
      "phone": "+34 956495249",
      "website": "https://cachitonovo.com/"
    }
  },
  {
    "type": "node",
    "id": 1623823679,
    "lat": 36.498428,
    "lon": -6.2737256,
    "timestamp": "2017-05-20T16:33:06Z",
    "version": 2,
    "changeset": 48845992,
    "user": "Pedro Pablos",
    "uid": 4162758,
    "tags": {
      "amenity": "restaurant",
      "name": "Cala Beach"
    }
  },
  {
    "type": "node",
    "id": 1623823889,
    "lat": 36.529671,
    "lon": -6.2948186,
    "timestamp": "2012-02-08T13:01:54Z",
    "version": 1,
    "changeset": 10624247,
    "user": "jamesks",
    "uid": 2500,
    "tags": {
      "amenity": "restaurant"
    }
  },
  {
    "type": "node",
    "id": 1623823910,
    "lat": 36.5296968,
    "lon": -6.2948721,
    "timestamp": "2018-07-27T19:24:54Z",
    "version": 2,
    "changeset": 61128902,
    "user": "cronoser",
    "uid": 461005,
    "tags": {
      "amenity": "restaurant",
      "name": "La catedral"
    }
  },
  {
    "type": "node",
    "id": 1623864280,
    "lat": 36.4413314,
    "lon": -6.2067837,
    "timestamp": "2012-02-08T13:52:56Z",
    "version": 1,
    "changeset": 10624735,
    "user": "jamesks",
    "uid": 2500,
    "tags": {
      "amenity": "restaurant"
    }
  },
  {
    "type": "node",
    "id": 1623864435,
    "lat": 36.4414566,
    "lon": -6.20717,
    "timestamp": "2023-08-05T16:28:37Z",
    "version": 2,
    "changeset": 139487478,
    "user": "happymapper",
    "uid": 1807190,
    "tags": {
      "amenity": "restaurant",
      "name": "Titi"
    }
  },
  {
    "type": "node",
    "id": 1632514623,
    "lat": 36.8827011,
    "lon": -5.3949832,
    "timestamp": "2013-06-07T07:10:04Z",
    "version": 2,
    "changeset": 16453615,
    "user": "andreas klug",
    "uid": 287634,
    "tags": {
      "amenity": "restaurant",
      "building": "yes",
      "name": "Mesón La Concha"
    }
  },
  {
    "type": "node",
    "id": 1632514682,
    "lat": 36.8820882,
    "lon": -5.3961651,
    "timestamp": "2013-06-07T07:10:04Z",
    "version": 2,
    "changeset": 16453615,
    "user": "andreas klug",
    "uid": 287634,
    "tags": {
      "amenity": "restaurant",
      "building": "yes",
      "name": "Venta El Frenazo"
    }
  },
  {
    "type": "node",
    "id": 1632539717,
    "lat": 36.8776162,
    "lon": -5.4254126,
    "timestamp": "2018-07-11T22:38:40Z",
    "version": 2,
    "changeset": 60629547,
    "user": "Kico_Diaz",
    "uid": 7363218,
    "tags": {
      "amenity": "restaurant",
      "cuisine": "regional",
      "name": "Venta Restaurante Los Molinos"
    }
  },
  {
    "type": "node",
    "id": 1632539841,
    "lat": 36.8774346,
    "lon": -5.4217906,
    "timestamp": "2012-02-14T11:14:13Z",
    "version": 1,
    "changeset": 10681666,
    "user": "Lübeck",
    "uid": 55462,
    "tags": {
      "amenity": "restaurant",
      "cuisine": "regional",
      "name": "Venta Salas"
    }
  },
  {
    "type": "node",
    "id": 1647366894,
    "lat": 36.4231916,
    "lon": -6.1440171,
    "timestamp": "2015-06-05T22:01:10Z",
    "version": 3,
    "changeset": 31757028,
    "user": "chiclana1990",
    "uid": 570548,
    "tags": {
      "amenity": "restaurant",
      "cuisine": "italian",
      "name": "El Italiano"
    }
  },
  {
    "type": "node",
    "id": 1647366914,
    "lat": 36.4224844,
    "lon": -6.1449305,
    "timestamp": "2012-02-25T18:39:53Z",
    "version": 1,
    "changeset": 10790355,
    "user": "chiclana1990",
    "uid": 570548,
    "tags": {
      "amenity": "restaurant",
      "name": "Restaurante El Santuario"
    }
  },
  {
    "type": "node",
    "id": 1657459427,
    "lat": 36.4184204,
    "lon": -6.1557146,
    "timestamp": "2012-03-03T13:39:28Z",
    "version": 1,
    "changeset": 10857757,
    "user": "chiclana1990",
    "uid": 570548,
    "tags": {
      "amenity": "restaurant",
      "cuisine": "spanish",
      "name": "La Esquina del Jamón"
    }
  },
  {
    "type": "node",
    "id": 1657465551,
    "lat": 36.3688667,
    "lon": -6.1796752,
    "timestamp": "2017-03-03T19:09:17Z",
    "version": 2,
    "changeset": 46556317,
    "user": "chiclana1990",
    "uid": 570548,
    "tags": {
      "amenity": "restaurant",
      "name": "La Cobijá"
    }
  },
  {
    "type": "node",
    "id": 1659117004,
    "lat": 36.4294447,
    "lon": -6.1440397,
    "timestamp": "2012-10-06T20:34:06Z",
    "version": 2,
    "changeset": 13389638,
    "user": "chiclana1990",
    "uid": 570548,
    "tags": {
      "amenity": "restaurant"
    }
  },
  {
    "type": "node",
    "id": 1659117028,
    "lat": 36.4297276,
    "lon": -6.145584,
    "timestamp": "2019-12-30T19:59:27Z",
    "version": 2,
    "changeset": 79029011,
    "user": "OttoR",
    "uid": 4123522,
    "tags": {
      "amenity": "restaurant",
      "cuisine": "spanish",
      "name": "Ar Tapeo"
    }
  },
  {
    "type": "node",
    "id": 1685876270,
    "lat": 36.9404212,
    "lon": -5.9141204,
    "timestamp": "2025-01-14T13:53:06Z",
    "version": 4,
    "changeset": 161346126,
    "user": "Đuro Jiří",
    "uid": 14617702,
    "tags": {
      "amenity": "restaurant",
      "check_date": "2025-01-14",
      "name": "Venta Juan Alonso"
    }
  },
  {
    "type": "node",
    "id": 1698832496,
    "lat": 36.5069546,
    "lon": -6.2789089,
    "timestamp": "2018-11-22T05:21:40Z",
    "version": 4,
    "changeset": 64763192,
    "user": "mpmonis",
    "uid": 9130485,
    "tags": {
      "addr:city": "Cádiz",
      "addr:housenumber": "2",
      "addr:postcode": "11010",
      "addr:street": "Paseo Marítimo",
      "amenity": "restaurant",
      "capacity": "200",
      "cuisine": "regional",
      "delivery": "no",
      "name": "Restaurante Arteserrano",
      "outdoor_seating": "yes",
      "smoking": "outside",
      "takeaway": "yes",
      "website": "http://www.arteserrano.com"
    }
  },
  {
    "type": "node",
    "id": 1704494733,
    "lat": 36.4159057,
    "lon": -6.1319794,
    "timestamp": "2019-12-11T12:23:51Z",
    "version": 4,
    "changeset": 78259844,
    "user": "OttoR",
    "uid": 4123522,
    "tags": {
      "addr:postcode": "11130",
      "addr:street": "Carretera de Medina",
      "amenity": "restaurant",
      "cuisine": "spanish",
      "name": "Parrilla La Pampa",
      "name:en": "Pepe Fusion",
      "name:es": "Pepe Fusion",
      "phone": "+34 620865435"
    }
  },
  {
    "type": "node",
    "id": 1708522371,
    "lat": 36.621259,
    "lon": -5.3381367,
    "timestamp": "2024-02-14T09:32:10Z",
    "version": 6,
    "changeset": 147442342,
    "user": "kapazao_import",
    "uid": 8770019,
    "tags": {
      "amenity": "restaurant",
      "cuisine": "regional",
      "internet_access": "no",
      "name": "Taberna La Puerta de Atrás",
      "note:es": "Terraza exterior; L,M,X,V,S,D a partir de las 7 a.m.; Cierra los jueves",
      "opening_hours": "Mo,Tu,We,Fr,Sa,Su 07:00+"
    }
  },
  {
    "type": "node",
    "id": 1719057541,
    "lat": 36.8554971,
    "lon": -5.3232916,
    "timestamp": "2012-04-16T08:03:10Z",
    "version": 1,
    "changeset": 11318982,
    "user": "UFeldmaus",
    "uid": 41190,
    "tags": {
      "amenity": "restaurant",
      "cuisine": "regional",
      "name": "Méson Los Cunas"
    }
  },
  {
    "type": "node",
    "id": 1742780275,
    "lat": 36.5994235,
    "lon": -6.2381852,
    "timestamp": "2023-10-25T03:50:09Z",
    "version": 2,
    "changeset": 143092266,
    "user": "b-jazz-bot",
    "uid": 9451067,
    "tags": {
      "amenity": "restaurant",
      "cuisine": "regional",
      "name": "El Faro de El Puerto",
      "website": "https://www.elfarodelpuerto.com/"
    }
  },
  {
    "type": "node",
    "id": 1742780276,
    "lat": 36.6033365,
    "lon": -6.2579292,
    "timestamp": "2012-05-06T11:02:45Z",
    "version": 1,
    "changeset": 11516941,
    "user": "jmdg",
    "uid": 52498,
    "tags": {
      "amenity": "restaurant",
      "cuisine": "regional",
      "name": "La Rufana"
    }
  },
  {
    "type": "node",
    "id": 1743756783,
    "lat": 36.5067432,
    "lon": -6.2788433,
    "timestamp": "2025-01-01T16:40:24Z",
    "version": 2,
    "changeset": 160871423,
    "user": "Pablo Pita Leira",
    "uid": 4687711,
    "tags": {
      "amenity": "restaurant",
      "cuisine": "italian",
      "name": "New York Pizza"
    }
  },
  {
    "type": "node",
    "id": 1743756803,
    "lat": 36.5066117,
    "lon": -6.2787575,
    "timestamp": "2025-01-01T16:41:51Z",
    "version": 2,
    "changeset": 160871599,
    "user": "Pablo Pita Leira",
    "uid": 4687711,
    "tags": {
      "amenity": "restaurant",
      "name": "Telepizza"
    }
  },
  {
    "type": "node",
    "id": 1743756814,
    "lat": 36.5229629,
    "lon": -6.2879974,
    "timestamp": "2024-05-29T09:07:11Z",
    "version": 4,
    "changeset": 151977780,
    "user": "Juanantonaya",
    "uid": 150021,
    "tags": {
      "amenity": "restaurant",
      "indoor_seating": "yes",
      "name": "Mare Nostrum",
      "outdoor_seating": "yes",
      "smoking": "no"
    }
  },
  {
    "type": "node",
    "id": 1743761685,
    "lat": 36.5072693,
    "lon": -6.2790687,
    "timestamp": "2018-04-30T11:14:03Z",
    "version": 2,
    "changeset": 58551582,
    "user": "Diana López",
    "uid": 3191945,
    "tags": {
      "amenity": "restaurant",
      "cuisine": "seafood",
      "name": "La Marea"
    }
  },
  {
    "type": "node",
    "id": 1743761687,
    "lat": 36.5070451,
    "lon": -6.2789265,
    "timestamp": "2018-11-22T05:16:08Z",
    "version": 2,
    "changeset": 64763060,
    "user": "mpmonis",
    "uid": 9130485,
    "tags": {
      "amenity": "restaurant",
      "cuisine": "fish_and_chips",
      "name": "Pez Gallo",
      "outdoor_seating": "yes",
      "takeaway": "no"
    }
  },
  {
    "type": "node",
    "id": 1743780122,
    "lat": 36.5019181,
    "lon": -6.2754235,
    "timestamp": "2025-01-03T15:26:42Z",
    "version": 2,
    "changeset": 160954061,
    "user": "Pablo Pita Leira",
    "uid": 4687711,
    "tags": {
      "amenity": "restaurant",
      "cuisine": "spanish",
      "name": "La Pepa"
    }
  },
  {
    "type": "node",
    "id": 1743780128,
    "lat": 36.5012864,
    "lon": -6.2751043,
    "timestamp": "2012-05-06T23:31:00Z",
    "version": 1,
    "changeset": 11523852,
    "user": "rafaelma",
    "uid": 621619,
    "tags": {
      "amenity": "restaurant",
      "cuisine": "chinese",
      "name": "Hong-Kong"
    }
  },
  {
    "type": "node",
    "id": 1743989987,
    "lat": 36.5297113,
    "lon": -6.2915783,
    "timestamp": "2024-05-31T18:36:49Z",
    "version": 3,
    "changeset": 152094015,
    "user": "Juanantonaya",
    "uid": 150021,
    "tags": {
      "amenity": "restaurant",
      "indoor_seating": "yes",
      "name": "Restaurante Atxuri",
      "outdoor_seating": "yes",
      "smoking": "no"
    }
  },
  {
    "type": "node",
    "id": 1744154271,
    "lat": 36.4979119,
    "lon": -6.2730954,
    "timestamp": "2024-07-16T16:32:36Z",
    "version": 4,
    "changeset": 154023858,
    "user": "kapazao",
    "uid": 7543375,
    "tags": {
      "amenity": "restaurant",
      "name": "El Rincón del Sur"
    }
  },
  {
    "type": "node",
    "id": 1744154376,
    "lat": 36.4991769,
    "lon": -6.2738214,
    "timestamp": "2024-07-15T10:57:21Z",
    "version": 2,
    "changeset": 153966189,
    "user": "kapazao",
    "uid": 7543375,
    "tags": {
      "amenity": "restaurant",
      "name": "El Delfín Azul"
    }
  },
  {
    "type": "node",
    "id": 1744154390,
    "lat": 36.4977091,
    "lon": -6.2729801,
    "timestamp": "2024-07-16T16:32:36Z",
    "version": 3,
    "changeset": 154023858,
    "user": "kapazao",
    "uid": 7543375,
    "tags": {
      "amenity": "restaurant",
      "name": "The Golden Monkey"
    }
  },
  {
    "type": "node",
    "id": 1744154394,
    "lat": 36.4980099,
    "lon": -6.2731512,
    "timestamp": "2024-07-16T16:32:36Z",
    "version": 3,
    "changeset": 154023858,
    "user": "kapazao",
    "uid": 7543375,
    "tags": {
      "amenity": "restaurant",
      "cuisine": "burger",
      "name": "La Esquina"
    }
  },
  {
    "type": "node",
    "id": 1744163290,
    "lat": 36.5145452,
    "lon": -6.2838026,
    "timestamp": "2012-05-07T11:25:06Z",
    "version": 1,
    "changeset": 11527762,
    "user": "rafaelma",
    "uid": 621619,
    "tags": {
      "amenity": "restaurant",
      "name": "La Bocateria"
    }
  },
  {
    "type": "node",
    "id": 1744163295,
    "lat": 36.5175962,
    "lon": -6.2857123,
    "timestamp": "2022-11-15T11:51:11Z",
    "version": 5,
    "changeset": 128936654,
    "user": "Javier Osuna S",
    "uid": 17684191,
    "tags": {
      "amenity": "restaurant",
      "name": "Sapo Negro"
    }
  },
  {
    "type": "node",
    "id": 1744163307,
    "lat": 36.5172822,
    "lon": -6.2855998,
    "timestamp": "2022-05-19T07:41:05Z",
    "version": 2,
    "changeset": 121179775,
    "user": "kapazao",
    "uid": 7543375,
    "tags": {
      "amenity": "restaurant",
      "name": "La despensa"
    }
  },
  {
    "type": "node",
    "id": 1744163350,
    "lat": 36.5148519,
    "lon": -6.2839916,
    "timestamp": "2022-11-15T10:29:58Z",
    "version": 4,
    "changeset": 128931757,
    "user": "Javier Osuna S",
    "uid": 17684191,
    "tags": {
      "amenity": "restaurant",
      "cuisine": "regional",
      "name": "La Tapería del Paseo"
    }
  },
  {
    "type": "node",
    "id": 1744717749,
    "lat": 36.6072315,
    "lon": -6.243226,
    "timestamp": "2012-05-07T20:59:37Z",
    "version": 1,
    "changeset": 11533802,
    "user": "jmdg",
    "uid": 52498,
    "tags": {
      "amenity": "restaurant",
      "cuisine": "regional",
      "name": "Bar Jamón"
    }
  },
  {
    "type": "node",
    "id": 1744717754,
    "lat": 36.5990688,
    "lon": -6.2234403,
    "timestamp": "2015-12-07T11:40:21Z",
    "version": 2,
    "changeset": 35799712,
    "user": "wheelmap_visitor",
    "uid": 290680,
    "tags": {
      "amenity": "restaurant",
      "cuisine": "regional",
      "name": "Los Portales",
      "toilets:wheelchair": "no"
    }
  },
  {
    "type": "node",
    "id": 1744717756,
    "lat": 36.5985627,
    "lon": -6.2239217,
    "timestamp": "2023-02-23T21:23:00Z",
    "version": 4,
    "changeset": 132944027,
    "user": "sanchi",
    "uid": 170106,
    "tags": {
      "amenity": "restaurant",
      "cuisine": "regional",
      "name": "Romerijo",
      "phone": "+34 956 54 12 54",
      "toilets:wheelchair": "yes",
      "website": "https://romerijo.com/es/",
      "wheelchair": "yes"
    }
  },
  {
    "type": "node",
    "id": 1744717757,
    "lat": 36.5987698,
    "lon": -6.2237784,
    "timestamp": "2023-01-28T22:52:49Z",
    "version": 4,
    "changeset": 131824882,
    "user": "sanchi",
    "uid": 170106,
    "tags": {
      "addr:housenumber": "1",
      "addr:street": "Plaza de la Herrería",
      "amenity": "restaurant",
      "cuisine": "fish;regional;grill;spanish;seafood;friture",
      "name": "Romerijo",
      "phone": "+34 956541254"
    }
  },
  {
    "type": "node",
    "id": 1747554335,
    "lat": 36.9947312,
    "lon": -5.9303342,
    "timestamp": "2012-05-10T13:16:05Z",
    "version": 1,
    "changeset": 11558763,
    "user": "jacksparrow",
    "uid": 235316,
    "tags": {
      "amenity": "restaurant",
      "name": "Venta El Ranchillo"
    }
  },
  {
    "type": "node",
    "id": 1777432147,
    "lat": 36.5359079,
    "lon": -6.2967412,
    "timestamp": "2015-06-23T06:35:12Z",
    "version": 2,
    "changeset": 32153749,
    "user": "Ludovic Drouard",
    "uid": 1151930,
    "tags": {
      "amenity": "restaurant",
      "name": "Cerveceria La gaditana"
    }
  },
  {
    "type": "node",
    "id": 1777432148,
    "lat": 36.5358784,
    "lon": -6.2967757,
    "timestamp": "2015-06-23T06:35:13Z",
    "version": 2,
    "changeset": 32153749,
    "user": "Ludovic Drouard",
    "uid": 1151930,
    "tags": {
      "amenity": "restaurant",
      "cuisine": "seafood",
      "name": "Marisqueria Aurelio"
    }
  },
  {
    "type": "node",
    "id": 1796890497,
    "lat": 36.2535754,
    "lon": -5.9624378,
    "timestamp": "2025-04-21T14:08:44Z",
    "version": 5,
    "changeset": 165242029,
    "user": "Juanantonaya",
    "uid": 150021,
    "tags": {
      "addr:housenumber": "12",
      "addr:postcode": "11150",
      "addr:street": "Plaza de España",
      "amenity": "restaurant",
      "delivery": "no",
      "indoor_seating": "yes",
      "name": "El Jardin del Califa",
      "outdoor_seating": "yes",
      "phone": "+34 956 451 706",
      "smoking": "no",
      "website": "https://califavejer.com/el-jardin-del-califa"
    }
  },
  {
    "type": "node",
    "id": 1809160114,
    "lat": 36.5069115,
    "lon": -6.2698069,
    "timestamp": "2021-12-09T15:30:58Z",
    "version": 3,
    "changeset": 114749007,
    "user": "kapazao_import",
    "uid": 8770019,
    "tags": {
      "addr:street": "Plaza Campo de la Aviación",
      "amenity": "restaurant",
      "cuisine": "spanish",
      "name": "La Taberna del Aviador",
      "nohousenumber": "yes"
    }
  },
  {
    "type": "node",
    "id": 1826484908,
    "lat": 36.2795287,
    "lon": -6.093057,
    "timestamp": "2012-09-16T11:39:39Z",
    "version": 2,
    "changeset": 13129300,
    "user": "Notch",
    "uid": 164214,
    "tags": {
      "amenity": "restaurant",
      "cuisine": "regional",
      "name": "Lareira"
    }
  },
  {
    "type": "node",
    "id": 1826484909,
    "lat": 36.2752813,
    "lon": -6.0899628,
    "timestamp": "2024-05-15T07:30:46Z",
    "version": 4,
    "changeset": 151344520,
    "user": "kapazao_import",
    "uid": 8770019,
    "tags": {
      "addr:city": "Conil de la Frontera",
      "addr:housenumber": "3",
      "addr:postcode": "11140",
      "addr:street": "Calle Cádiz",
      "amenity": "restaurant",
      "cuisine": "regional",
      "name": "Los Lunares"
    }
  },
  {
    "type": "node",
    "id": 1828096787,
    "lat": 36.1376616,
    "lon": -5.3579236,
    "timestamp": "2017-09-10T06:53:24Z",
    "version": 3,
    "changeset": 51898760,
    "user": "nyuriks",
    "uid": 339581,
    "tags": {
      "amenity": "restaurant",
      "name": "Boat Owners Club",
      "wikidata": "Q36043",
      "wikipedia": "en:Royal Gibraltar Yacht Club"
    }
  },
  {
    "type": "node",
    "id": 1828096789,
    "lat": 36.1446493,
    "lon": -5.3534443,
    "timestamp": "2022-09-11T19:30:05Z",
    "version": 4,
    "changeset": 126062404,
    "user": "flix1",
    "uid": 2136761,
    "tags": {
      "amenity": "restaurant",
      "brand": "Pizza Hut",
      "brand:wikidata": "Q191615",
      "cuisine": "pizza",
      "name": "Pizza Hut",
      "payment:lightning": "no"
    }
  },
  {
    "type": "node",
    "id": 1829321163,
    "lat": 36.275285,
    "lon": -6.0901281,
    "timestamp": "2024-05-15T07:30:46Z",
    "version": 3,
    "changeset": 151344520,
    "user": "kapazao_import",
    "uid": 8770019,
    "tags": {
      "addr:city": "Conil de la Frontera",
      "addr:housenumber": "12",
      "addr:postcode": "11140",
      "addr:street": "Calle Cádiz",
      "amenity": "restaurant",
      "cuisine": "regional",
      "name": "Taberna flamenca el retaleo"
    }
  },
  {
    "type": "node",
    "id": 1829540574,
    "lat": 36.2780234,
    "lon": -6.094181,
    "timestamp": "2014-04-07T06:00:26Z",
    "version": 2,
    "changeset": 21545201,
    "user": "Notch",
    "uid": 164214,
    "tags": {
      "amenity": "restaurant",
      "cuisine": "regional",
      "name": "Husa Conil Park"
    }
  },
  {
    "type": "node",
    "id": 1830242812,
    "lat": 36.1369809,
    "lon": -5.8466439,
    "timestamp": "2014-05-31T11:57:49Z",
    "version": 2,
    "changeset": 22654667,
    "user": "DiegoOSM",
    "uid": 2093638,
    "tags": {
      "amenity": "restaurant",
      "name": "La Plazoleta"
    }
  },
  {
    "type": "node",
    "id": 1830932008,
    "lat": 36.1325545,
    "lon": -5.446322,
    "timestamp": "2012-07-19T13:54:04Z",
    "version": 1,
    "changeset": 12330569,
    "user": "koolfy",
    "uid": 236032,
    "tags": {
      "amenity": "restaurant",
      "name": "Marea Baja"
    }
  },
  {
    "type": "node",
    "id": 1832188388,
    "lat": 36.6196769,
    "lon": -5.3422028,
    "timestamp": "2012-07-20T16:17:58Z",
    "version": 1,
    "changeset": 12382914,
    "user": "genal_es",
    "uid": 301068,
    "tags": {
      "amenity": "restaurant",
      "cuisine": "regional",
      "name": "El Rincón de Andrés"
    }
  },
  {
    "type": "node",
    "id": 1832191594,
    "lat": 36.6195436,
    "lon": -5.3413351,
    "timestamp": "2012-07-20T16:22:30Z",
    "version": 1,
    "changeset": 12383119,
    "user": "genal_es",
    "uid": 301068,
    "tags": {
      "amenity": "restaurant",
      "cuisine": "regional",
      "name": "Bar La Cafetería"
    }
  },
  {
    "type": "node",
    "id": 1834726498,
    "lat": 36.5267761,
    "lon": -6.1913686,
    "timestamp": "2012-07-22T21:36:25Z",
    "version": 1,
    "changeset": 12440721,
    "user": "lindocanarito",
    "uid": 733741,
    "tags": {
      "amenity": "restaurant",
      "name": "El Yaki",
      "source": "Local knowledge & Bing"
    }
  },
  {
    "type": "node",
    "id": 1837085477,
    "lat": 36.365038,
    "lon": -6.1777698,
    "timestamp": "2015-03-20T20:39:25Z",
    "version": 2,
    "changeset": 29623956,
    "user": "13 digits",
    "uid": 35935,
    "tags": {
      "amenity": "restaurant",
      "cuisine": "regional",
      "name": "Restaurante La Sartén"
    }
  },
  {
    "type": "node",
    "id": 1837835296,
    "lat": 36.3703928,
    "lon": -6.1804561,
    "timestamp": "2023-10-16T19:24:08Z",
    "version": 4,
    "changeset": 142680905,
    "user": "b-jazz-bot",
    "uid": 9451067,
    "tags": {
      "addr:city": "Chiclana de la Frontera",
      "addr:housenumber": "10",
      "addr:postcode": "11139",
      "addr:street": "Calle El Bogavante",
      "amenity": "restaurant",
      "cuisine": "regional;meat",
      "name": "El Fogón de Mariana",
      "phone": "+34 856500779",
      "website": "https://fogondemariana.com/"
    }
  },
  {
    "type": "node",
    "id": 1841563645,
    "lat": 36.1337203,
    "lon": -5.3523615,
    "timestamp": "2015-04-06T22:03:39Z",
    "version": 2,
    "changeset": 30027636,
    "user": "CarlosMG",
    "uid": 2163609,
    "tags": {
      "amenity": "restaurant",
      "cuisine": "italian",
      "name": "Mama Mia"
    }
  },
  {
    "type": "node",
    "id": 1843675137,
    "lat": 36.9836127,
    "lon": -5.9191285,
    "timestamp": "2012-07-30T09:41:52Z",
    "version": 1,
    "changeset": 12545482,
    "user": "jacksparrow",
    "uid": 235316,
    "tags": {
      "amenity": "restaurant",
      "name": "Salón de Celebraciones El Paraíso"
    }
  },
  {
    "type": "node",
    "id": 1853319445,
    "lat": 36.8152109,
    "lon": -5.3750928,
    "timestamp": "2012-08-05T19:47:42Z",
    "version": 1,
    "changeset": 12625384,
    "user": "Rickydh",
    "uid": 335661,
    "tags": {
      "amenity": "restaurant"
    }
  },
  {
    "type": "node",
    "id": 1864204728,
    "lat": 36.234364,
    "lon": -6.071913,
    "timestamp": "2012-08-13T12:45:30Z",
    "version": 1,
    "changeset": 12713504,
    "user": "rvilarl",
    "uid": 506787,
    "tags": {
      "amenity": "restaurant",
      "cuisine": "other",
      "name": "El Cortijillo",
      "source": "survey"
    }
  },
  {
    "type": "node",
    "id": 1867428790,
    "lat": 36.3479001,
    "lon": -5.8155857,
    "timestamp": "2019-02-03T11:07:59Z",
    "version": 3,
    "changeset": 66873696,
    "user": "stsbd",
    "uid": 9410962,
    "tags": {
      "amenity": "restaurant",
      "cuisine": "regional",
      "name": "Cortijo Las Grullas",
      "source": "survey;local knowledge"
    }
  },
  {
    "type": "node",
    "id": 1910136309,
    "lat": 36.5592672,
    "lon": -5.6009423,
    "timestamp": "2017-05-23T16:43:33Z",
    "version": 4,
    "changeset": 48922185,
    "user": "Isaac-lebron",
    "uid": 6060100,
    "tags": {
      "amenity": "restaurant",
      "name": "Puerto de Gáliz",
      "opening_hours": "Mo-Su,PH 08:00-19:00"
    }
  },
  {
    "type": "node",
    "id": 1924066133,
    "lat": 36.5202431,
    "lon": -5.3256507,
    "timestamp": "2020-11-29T10:30:41Z",
    "version": 3,
    "changeset": 94978317,
    "user": "Luiyo",
    "uid": 316694,
    "tags": {
      "amenity": "restaurant",
      "cuisine": "regional",
      "name": "Bar Restaurante La Serrania"
    }
  },
  {
    "type": "node",
    "id": 1924077194,
    "lat": 36.518909,
    "lon": -5.3170953,
    "timestamp": "2014-08-12T19:10:45Z",
    "version": 4,
    "changeset": 24708792,
    "user": "genal_es",
    "uid": 301068,
    "tags": {
      "amenity": "restaurant",
      "cuisine": "regional",
      "name": "Bar Paco Pepe"
    }
  },
  {
    "type": "node",
    "id": 1924081120,
    "lat": 36.5181823,
    "lon": -5.3173496,
    "timestamp": "2014-08-24T17:32:23Z",
    "version": 3,
    "changeset": 24984521,
    "user": "genal_es",
    "uid": 301068,
    "tags": {
      "amenity": "restaurant",
      "cuisine": "regional",
      "name": "Taberna El Zorro"
    }
  },
  {
    "type": "node",
    "id": 1925669866,
    "lat": 36.518792,
    "lon": -5.3175264,
    "timestamp": "2014-08-12T19:10:45Z",
    "version": 4,
    "changeset": 24708792,
    "user": "genal_es",
    "uid": 301068,
    "tags": {
      "amenity": "restaurant",
      "cuisine": "regional",
      "name": "Casa Antonia"
    }
  },
  {
    "type": "node",
    "id": 1950609142,
    "lat": 36.6993364,
    "lon": -6.1079153,
    "timestamp": "2012-10-07T12:18:55Z",
    "version": 2,
    "changeset": 13397098,
    "user": "Miguel-Angel",
    "uid": 955630,
    "tags": {
      "amenity": "restaurant",
      "name": "La Garrucha"
    }
  },
  {
    "type": "node",
    "id": 1951072736,
    "lat": 36.4296828,
    "lon": -6.1425772,
    "timestamp": "2012-10-07T16:40:34Z",
    "version": 1,
    "changeset": 13399138,
    "user": "chiclana1990",
    "uid": 570548,
    "tags": {
      "amenity": "restaurant",
      "name": "Venta Agustín"
    }
  },
  {
    "type": "node",
    "id": 1964402167,
    "lat": 36.4186477,
    "lon": -6.1561189,
    "timestamp": "2012-10-14T12:02:27Z",
    "version": 1,
    "changeset": 13491556,
    "user": "chiclana1990",
    "uid": 570548,
    "tags": {
      "amenity": "restaurant",
      "name": "Manguita"
    }
  },
  {
    "type": "node",
    "id": 1968170651,
    "lat": 36.0661685,
    "lon": -5.6813924,
    "timestamp": "2015-06-10T12:35:22Z",
    "version": 2,
    "changeset": 31868845,
    "user": "tbo47",
    "uid": 1556219,
    "tags": {
      "amenity": "restaurant",
      "name": "Valdevaqueros"
    }
  },
  {
    "type": "node",
    "id": 1968199441,
    "lat": 36.0696912,
    "lon": -5.6826311,
    "timestamp": "2012-10-16T09:59:03Z",
    "version": 1,
    "changeset": 13516313,
    "user": "holger_1",
    "uid": 50884,
    "tags": {
      "amenity": "restaurant"
    }
  },
  {
    "type": "node",
    "id": 1968252460,
    "lat": 36.0693297,
    "lon": -5.6895727,
    "timestamp": "2017-04-24T14:11:25Z",
    "version": 3,
    "changeset": 48092627,
    "user": "gereums",
    "uid": 4807311,
    "tags": {
      "amenity": "restaurant",
      "name": "Volare"
    }
  },
  {
    "type": "node",
    "id": 1968271401,
    "lat": 36.2595113,
    "lon": -5.9615755,
    "timestamp": "2023-01-22T14:25:16Z",
    "version": 3,
    "changeset": 131568642,
    "user": "Đuro Jiří",
    "uid": 14617702,
    "tags": {
      "amenity": "restaurant",
      "indoor_seating": "yes",
      "name": "La Barca de Vejer",
      "name:es": "La Barca de Vejer",
      "outdoor_seating": "yes"
    }
  },
  {
    "type": "node",
    "id": 1968283385,
    "lat": 36.2252712,
    "lon": -6.0653131,
    "timestamp": "2014-04-03T13:48:37Z",
    "version": 2,
    "changeset": 21477165,
    "user": "Notch",
    "uid": 164214,
    "tags": {
      "amenity": "restaurant",
      "name": "Restaurante Casa Francisco"
    }
  },
  {
    "type": "node",
    "id": 2018752823,
    "lat": 36.019103,
    "lon": -5.6133386,
    "timestamp": "2023-01-23T14:26:04Z",
    "version": 4,
    "changeset": 131608105,
    "user": "Đuro Jiří",
    "uid": 14617702,
    "tags": {
      "amenity": "restaurant",
      "indoor_seating": "yes",
      "name": "Surla",
      "outdoor_seating": "yes",
      "wheelchair": "yes"
    }
  },
  {
    "type": "node",
    "id": 2018752826,
    "lat": 36.0193769,
    "lon": -5.6121717,
    "timestamp": "2025-01-04T21:57:42Z",
    "version": 2,
    "changeset": 161003240,
    "user": "Đuro Jiří",
    "uid": 14617702,
    "tags": {
      "amenity": "restaurant",
      "name": "Souk"
    }
  },
  {
    "type": "node",
    "id": 2034433647,
    "lat": 36.1405943,
    "lon": -5.3523226,
    "timestamp": "2016-10-14T20:51:17Z",
    "version": 2,
    "changeset": 42906380,
    "user": "Juan Sánchez Jiménez",
    "uid": 4725159,
    "tags": {
      "addr:housenumber": "44",
      "addr:street": "Govenor's Street",
      "amenity": "restaurant",
      "name": "Carne a la piedra"
    }
  },
  {
    "type": "node",
    "id": 2047192002,
    "lat": 36.1449989,
    "lon": -5.3523563,
    "timestamp": "2022-09-11T19:30:05Z",
    "version": 4,
    "changeset": 126062404,
    "user": "flix1",
    "uid": 2136761,
    "tags": {
      "addr:housenumber": "8",
      "addr:street": "Grands Casemates Square",
      "amenity": "restaurant",
      "name": "The Tunnel",
      "payment:lightning": "no"
    }
  },
  {
    "type": "node",
    "id": 2086258530,
    "lat": 36.7586884,
    "lon": -5.3646438,
    "timestamp": "2017-12-23T23:41:49Z",
    "version": 3,
    "changeset": 54875539,
    "user": "ulmtuelp",
    "uid": 120153,
    "tags": {
      "addr:city": "Grazalema",
      "addr:country": "ES",
      "addr:housenumber": "54",
      "addr:postcode": "11610",
      "addr:street": "Plaza de los Asomaderos",
      "amenity": "restaurant",
      "cuisine": "regional",
      "name": "Mesón El Simancón",
      "source": "survey",
      "survey:date": "2012-12-27",
      "website": "http://mesonsimancon.com/"
    }
  },
  {
    "type": "node",
    "id": 2087473509,
    "lat": 36.3402534,
    "lon": -6.1480391,
    "timestamp": "2014-04-25T13:41:20Z",
    "version": 2,
    "changeset": 21931985,
    "user": "flo79",
    "uid": 590160,
    "tags": {
      "amenity": "restaurant",
      "name": "Show de Tapas"
    }
  },
  {
    "type": "node",
    "id": 2093847079,
    "lat": 36.4202077,
    "lon": -6.1489712,
    "timestamp": "2014-12-14T18:48:55Z",
    "version": 2,
    "changeset": 27465482,
    "user": "xavi1604",
    "uid": 2520229,
    "tags": {
      "amenity": "restaurant",
      "name": "Tapería La Flamenca"
    }
  },
  {
    "type": "node",
    "id": 2139094511,
    "lat": 36.0099494,
    "lon": -5.60625,
    "timestamp": "2025-01-06T13:16:59Z",
    "version": 14,
    "changeset": 161057406,
    "user": "Đuro Jiří",
    "uid": 14617702,
    "tags": {
      "addr:housenumber": "15",
      "addr:street": "Avenida de las Fuerzas Armadas",
      "air_conditioning": "yes",
      "amenity": "restaurant",
      "brewery": "Cruzcampo",
      "check_date": "2024-12-30",
      "check_date:opening_hours": "2024-12-30",
      "cuisine": "fish;grill;spanish;seafood;mediterranean;tapas;friture",
      "indoor_seating": "yes",
      "name": "El ancla",
      "opening_hours:signed": "no",
      "outdoor_seating": "parklet",
      "phone": "+34 956680913",
      "wheelchair": "yes"
    }
  },
  {
    "type": "node",
    "id": 2139419188,
    "lat": 36.0378494,
    "lon": -5.6199277,
    "timestamp": "2025-01-06T15:28:19Z",
    "version": 3,
    "changeset": 161063060,
    "user": "Đuro Jiří",
    "uid": 14617702,
    "tags": {
      "amenity": "restaurant",
      "check_date": "2025-01-06",
      "cuisine": "spanish",
      "name": "Mesón Pozuelo"
    }
  },
  {
    "type": "node",
    "id": 2142730583,
    "lat": 36.0414618,
    "lon": -5.6259907,
    "timestamp": "2013-02-05T16:08:55Z",
    "version": 1,
    "changeset": 14923355,
    "user": "poniol",
    "uid": 248386,
    "tags": {
      "amenity": "restaurant",
      "cuisine": "spanish",
      "name": "Venta del Tito"
    }
  },
  {
    "type": "node",
    "id": 2142735302,
    "lat": 36.0428606,
    "lon": -5.6257547,
    "timestamp": "2013-02-05T16:15:01Z",
    "version": 1,
    "changeset": 14923355,
    "user": "poniol",
    "uid": 248386,
    "tags": {
      "amenity": "restaurant",
      "name": "El Juncal"
    }
  },
  {
    "type": "node",
    "id": 2259971796,
    "lat": 36.5762634,
    "lon": -6.2112108,
    "timestamp": "2024-03-31T15:50:43Z",
    "version": 3,
    "changeset": 149396820,
    "user": "NACLE",
    "uid": 378284,
    "tags": {
      "abandoned": "yes",
      "amenity": "restaurant",
      "cuisine": "spanish",
      "name": "Venta el Macka"
    }
  },
  {
    "type": "node",
    "id": 2311257832,
    "lat": 36.2031999,
    "lon": -6.0347368,
    "timestamp": "2025-04-23T10:18:48Z",
    "version": 2,
    "changeset": 165325389,
    "user": "StreetSailor",
    "uid": 1950076,
    "tags": {
      "amenity": "restaurant",
      "check_date": "2025-04-23",
      "cuisine": "italian",
      "name": "Alhambra",
      "source": "survey"
    }
  },
  {
    "type": "node",
    "id": 2311257883,
    "lat": 36.2079149,
    "lon": -6.0397044,
    "timestamp": "2024-02-14T11:48:12Z",
    "version": 6,
    "changeset": 147447403,
    "user": "kapazao_import",
    "uid": 8770019,
    "tags": {
      "addr:city": "Zahora",
      "addr:housenumber": "360",
      "addr:postcode": "11159",
      "addr:street": "Carril de Mangueta",
      "amenity": "restaurant",
      "cuisine": "regional",
      "name": "Saboy Café Bar Asador Restaurante",
      "note": "Abierto todo el año Cocina de Mercado Cocina Indonesia Asador Barbacoa",
      "opening_hours": "Mo-Th 13:00-0:00; Fr-Su 09:00-03:00",
      "phone": "+34956437138"
    }
  },
  {
    "type": "node",
    "id": 2311318802,
    "lat": 36.2536329,
    "lon": -5.9629411,
    "timestamp": "2025-04-21T14:09:33Z",
    "version": 5,
    "changeset": 165242029,
    "user": "Juanantonaya",
    "uid": 150021,
    "tags": {
      "amenity": "restaurant",
      "indoor_seating": "yes",
      "name": "Taberna Garimba",
      "outdoor_seating": "yes",
      "smoking": "outside"
    }
  },
  {
    "type": "node",
    "id": 2311331191,
    "lat": 36.0118834,
    "lon": -5.6038417,
    "timestamp": "2024-02-14T11:48:12Z",
    "version": 3,
    "changeset": 147447403,
    "user": "kapazao_import",
    "uid": 8770019,
    "tags": {
      "addr:city": "Tarifa",
      "addr:housenumber": "3",
      "addr:postcode": "11380",
      "addr:street": "Calle Santa Teresa",
      "amenity": "restaurant",
      "cuisine": "tapas",
      "name": "Terra Mia",
      "opening_hours": "Mo-Tu, Th-Sa 12:30-24:00; Su 12:30-21:00",
      "outdoor_seating": "yes",
      "source": "survey"
    }
  },
  {
    "type": "node",
    "id": 2312710384,
    "lat": 36.2546481,
    "lon": -5.968384,
    "timestamp": "2021-09-12T22:23:42Z",
    "version": 4,
    "changeset": 111114156,
    "user": "Carlos_N",
    "uid": 3242739,
    "tags": {
      "amenity": "restaurant",
      "cuisine": "pizza",
      "name": "Pizza DaPino"
    }
  },
  {
    "type": "node",
    "id": 2335839657,
    "lat": 36.5976045,
    "lon": -6.224468,
    "timestamp": "2013-06-07T18:38:25Z",
    "version": 1,
    "changeset": 16460008,
    "user": "ActAirNeer",
    "uid": 457944,
    "tags": {
      "amenity": "restaurant",
      "name": "El Sitio"
    }
  },
  {
    "type": "node",
    "id": 2335839664,
    "lat": 36.5988577,
    "lon": -6.2245002,
    "timestamp": "2013-06-07T18:38:25Z",
    "version": 1,
    "changeset": 16460008,
    "user": "ActAirNeer",
    "uid": 457944,
    "tags": {
      "amenity": "restaurant",
      "name": "Meson Asador"
    }
  },
  {
    "type": "node",
    "id": 2335839673,
    "lat": 36.5987005,
    "lon": -6.2244868,
    "timestamp": "2019-08-26T10:50:34Z",
    "version": 5,
    "changeset": 73745380,
    "user": "sanchi",
    "uid": 170106,
    "tags": {
      "addr:housenumber": "5",
      "addr:street": "Calle Misericordia",
      "amenity": "restaurant",
      "cuisine": "spanish;regional;mediterranean;grill",
      "name": "La Bodeguilla del Bar Jamón",
      "phone": "+34 956850322",
      "wheelchair": "limited"
    }
  },
  {
    "type": "node",
    "id": 2335839684,
    "lat": 36.5973526,
    "lon": -6.2243422,
    "timestamp": "2014-09-05T02:50:16Z",
    "version": 2,
    "changeset": 25239755,
    "user": "Jorusen",
    "uid": 1712104,
    "tags": {
      "amenity": "restaurant",
      "name": "El Rey de Copas"
    }
  },
  {
    "type": "node",
    "id": 2343120420,
    "lat": 36.3955037,
    "lon": -6.2075343,
    "timestamp": "2013-06-13T11:29:27Z",
    "version": 2,
    "changeset": 16536472,
    "user": "flo79",
    "uid": 590160,
    "tags": {
      "amenity": "restaurant",
      "name": "Club Nautico"
    }
  },
  {
    "type": "node",
    "id": 2343120422,
    "lat": 36.3962813,
    "lon": -6.2063151,
    "timestamp": "2013-06-13T11:29:27Z",
    "version": 2,
    "changeset": 16536472,
    "user": "flo79",
    "uid": 590160,
    "tags": {
      "amenity": "restaurant",
      "name": "A.P. Cano Chanarro"
    }
  },
  {
    "type": "node",
    "id": 2350622563,
    "lat": 36.9769751,
    "lon": -5.9458114,
    "timestamp": "2016-07-26T12:34:17Z",
    "version": 2,
    "changeset": 41036620,
    "user": "jacksparrow",
    "uid": 235316,
    "tags": {
      "amenity": "restaurant",
      "name": "Hermanos Benítez"
    }
  },
  {
    "type": "node",
    "id": 2401943122,
    "lat": 36.117126,
    "lon": -5.8309701,
    "timestamp": "2013-07-30T21:56:07Z",
    "version": 1,
    "changeset": 17159065,
    "user": "Vince Darley",
    "uid": 21681,
    "tags": {
      "amenity": "restaurant"
    }
  },
  {
    "type": "node",
    "id": 2406660997,
    "lat": 36.3707238,
    "lon": -6.1808257,
    "timestamp": "2016-06-26T12:57:29Z",
    "version": 2,
    "changeset": 40300333,
    "user": "cio_sergio",
    "uid": 3903157,
    "tags": {
      "addr:city": "Chiclana de la Frontera",
      "addr:postcode": "11139",
      "addr:street": "Carretera de la Barrosa",
      "amenity": "restaurant",
      "cuisine": "mexican",
      "name": "Los tres sombreros"
    }
  },
  {
    "type": "node",
    "id": 2406732440,
    "lat": 36.5986177,
    "lon": -6.2246174,
    "timestamp": "2015-12-07T11:40:42Z",
    "version": 3,
    "changeset": 35799712,
    "user": "wheelmap_visitor",
    "uid": 290680,
    "tags": {
      "amenity": "restaurant",
      "name": "El Betis",
      "toilets:wheelchair": "yes",
      "wheelchair": "yes"
    }
  },
  {
    "type": "node",
    "id": 2447594584,
    "lat": 36.5806186,
    "lon": -6.2612005,
    "timestamp": "2013-09-05T21:24:34Z",
    "version": 1,
    "changeset": 17694740,
    "user": "jmdg",
    "uid": 52498,
    "tags": {
      "amenity": "restaurant",
      "name": "Casa Pepe"
    }
  },
  {
    "type": "node",
    "id": 2447594586,
    "lat": 36.5858468,
    "lon": -6.2436597,
    "timestamp": "2013-09-05T21:24:34Z",
    "version": 1,
    "changeset": 17694740,
    "user": "jmdg",
    "uid": 52498,
    "tags": {
      "amenity": "restaurant",
      "cuisine": "regional",
      "name": "El Castillito"
    }
  },
  {
    "type": "node",
    "id": 2447594587,
    "lat": 36.5804493,
    "lon": -6.2610747,
    "timestamp": "2013-09-05T21:24:34Z",
    "version": 1,
    "changeset": 17694740,
    "user": "jmdg",
    "uid": 52498,
    "tags": {
      "amenity": "restaurant",
      "cuisine": "pizza",
      "name": "La Blanca Paloma"
    }
  },
  {
    "type": "node",
    "id": 2447594588,
    "lat": 36.5819611,
    "lon": -6.2556643,
    "timestamp": "2013-09-05T21:24:34Z",
    "version": 1,
    "changeset": 17694740,
    "user": "jmdg",
    "uid": 52498,
    "tags": {
      "amenity": "restaurant",
      "name": "Puerto Sherry"
    }
  },
  {
    "type": "node",
    "id": 2447594592,
    "lat": 36.578444,
    "lon": -6.2578354,
    "timestamp": "2023-07-17T10:48:09Z",
    "version": 4,
    "changeset": 138616129,
    "user": "duke_leto",
    "uid": 1814943,
    "tags": {
      "addr:city": "El Puerto de Santa María",
      "addr:street": "Paseo de la Bahía",
      "addr:unit": "3",
      "amenity": "restaurant",
      "email": "crabbyscoastfood@gmail.com",
      "name": "Crabby's Coastfood",
      "opening_hours": "Mo-Su 13:30-23:30",
      "phone": "+34 644 480 556",
      "website": "https://crabbys.es/"
    }
  },
  {
    "type": "node",
    "id": 2448492525,
    "lat": 36.6000373,
    "lon": -6.2466973,
    "timestamp": "2013-09-06T20:54:50Z",
    "version": 1,
    "changeset": 17709862,
    "user": "jmdg",
    "uid": 52498,
    "tags": {
      "amenity": "restaurant",
      "cuisine": "regional",
      "name": "Aquarela"
    }
  },
  {
    "type": "node",
    "id": 2460285741,
    "lat": 36.042749,
    "lon": -5.6273925,
    "timestamp": "2024-09-01T18:57:14Z",
    "version": 2,
    "changeset": 156068484,
    "user": "usuario03c1",
    "uid": 10140389,
    "tags": {
      "addr:postcode": "11380",
      "amenity": "restaurant",
      "name": "Pachamama",
      "outdoor_seating": "no"
    }
  },
  {
    "type": "node",
    "id": 2510220443,
    "lat": 36.6110964,
    "lon": -6.237578,
    "timestamp": "2013-10-27T11:37:42Z",
    "version": 2,
    "changeset": 18564492,
    "user": "Muler",
    "uid": 1787277,
    "tags": {
      "amenity": "restaurant",
      "cuisine": "italian",
      "name": "Pizzeria Blanca Paloma"
    }
  },
  {
    "type": "node",
    "id": 2510262356,
    "lat": 36.6126233,
    "lon": -6.2308941,
    "timestamp": "2013-10-27T12:26:48Z",
    "version": 1,
    "changeset": 18565189,
    "user": "Muler",
    "uid": 1787277,
    "tags": {
      "amenity": "restaurant",
      "name": "El Rincon del Chirri"
    }
  },
  {
    "type": "node",
    "id": 2510273818,
    "lat": 36.610946,
    "lon": -6.2391308,
    "timestamp": "2013-10-27T12:46:10Z",
    "version": 1,
    "changeset": 18565482,
    "user": "Muler",
    "uid": 1787277,
    "tags": {
      "amenity": "restaurant",
      "name": "Venta La Feria"
    }
  },
  {
    "type": "node",
    "id": 2569898375,
    "lat": 36.2537093,
    "lon": -5.9628439,
    "timestamp": "2025-04-21T14:09:28Z",
    "version": 6,
    "changeset": 165242029,
    "user": "Juanantonaya",
    "uid": 150021,
    "tags": {
      "addr:city": "Vejer de la Frontera",
      "addr:housenumber": "31",
      "addr:postcode": "11150",
      "addr:street": "Plaza de España",
      "amenity": "restaurant",
      "cuisine": "international;regional",
      "indoor_seating": "yes",
      "name": "Restaurante Trafalgar",
      "note": "El Restaurante Trafalgar en Vejer de la Frontera (Cádiz) está especializado en la cocina regional de Cádiz (pescadito frito, atún rojo de almadraba, lomos de sardina, rabo de toro, ortiguillas de mar, cazón, chocos, chipirones) y Cocina Internacional.",
      "outdoor_seating": "yes",
      "phone": "+34 956 447 638",
      "smoking": "outside",
      "website": "http://www.restaurantetrafalgar.com/"
    }
  },
  {
    "type": "node",
    "id": 2574158077,
    "lat": 36.7591368,
    "lon": -5.5051684,
    "timestamp": "2019-08-21T10:13:57Z",
    "version": 3,
    "changeset": 73573014,
    "user": "sanchi",
    "uid": 170106,
    "tags": {
      "amenity": "restaurant",
      "cuisine": "regional",
      "name": "Mesón \"La Tapita\""
    }
  },
  {
    "type": "node",
    "id": 2613275182,
    "lat": 36.3963348,
    "lon": -5.8944914,
    "timestamp": "2025-01-12T12:04:02Z",
    "version": 8,
    "changeset": 161269990,
    "user": "Đuro Jiří",
    "uid": 14617702,
    "tags": {
      "addr:milestone": "Km. 10",
      "addr:postcode": "11179",
      "addr:street": "carretera Medina-Benalup",
      "air_conditioning": "yes",
      "amenity": "restaurant",
      "indoor_seating": "yes",
      "name": "Venta La Cabrala",
      "opening_hours": "Mo-Su 07:30-21:00",
      "outdoor_seating": "yes",
      "phone": "+34 956423206"
    }
  },
  {
    "type": "node",
    "id": 2625736526,
    "lat": 36.5192452,
    "lon": -5.3182402,
    "timestamp": "2019-08-17T08:37:18Z",
    "version": 4,
    "changeset": 73437483,
    "user": "sanchi",
    "uid": 170106,
    "tags": {
      "amenity": "restaurant",
      "contact:phone": "+34 637040039",
      "name": "La Esquinita"
    }
  },
  {
    "type": "node",
    "id": 2675577584,
    "lat": 36.5320922,
    "lon": -6.2004053,
    "timestamp": "2022-11-13T12:53:40Z",
    "version": 2,
    "changeset": 128845952,
    "user": "Casquito",
    "uid": 17528447,
    "tags": {
      "amenity": "restaurant",
      "name": "La Segunda del Lulu"
    }
  },
  {
    "type": "node",
    "id": 2732464682,
    "lat": 36.6116262,
    "lon": -6.2808681,
    "timestamp": "2024-08-22T16:59:54Z",
    "version": 6,
    "changeset": 155616735,
    "user": "Ferchio9",
    "uid": 5207903,
    "tags": {
      "addr:city": "El Puerto de Santa María",
      "addr:housenumber": "1",
      "addr:postcode": "11500",
      "addr:street": "Calle de la Calabaza",
      "amenity": "restaurant",
      "capacity": "10",
      "cuisine": "japanese",
      "name": "WA YUKI",
      "note": "Outdoor seating They also serve rotisserie chicken, burgers, salad, empanadas and more.",
      "opening_hours": "Mo-Fr 10:30-16:00,19:00-24:00; Sa,Su 10:30-24:00",
      "phone": "+34 956 48 17 98",
      "wheelchair": "yes"
    }
  },
  {
    "type": "node",
    "id": 2736470964,
    "lat": 36.1323334,
    "lon": -5.449456,
    "timestamp": "2020-06-24T00:25:50Z",
    "version": 2,
    "changeset": 87054677,
    "user": "CarlosMG",
    "uid": 2163609,
    "tags": {
      "addr:city": "Algeciras",
      "addr:street": "Sevilla",
      "amenity": "restaurant",
      "brand": "100 Montaditos",
      "brand:wikidata": "Q8355805",
      "brand:wikipedia": "en:Cervecería 100 Montaditos",
      "cuisine": "sandwich",
      "name": "100 Montaditos"
    }
  },
  {
    "type": "node",
    "id": 2739099648,
    "lat": 36.1334075,
    "lon": -5.4479378,
    "timestamp": "2025-02-26T18:59:12Z",
    "version": 4,
    "changeset": 162984073,
    "user": "TalaTiger",
    "uid": 13593643,
    "tags": {
      "amenity": "restaurant",
      "check_date:opening_hours": "2025-02-26",
      "name": "Los Surbansitos",
      "opening_hours:signed": "no"
    }
  },
  {
    "type": "node",
    "id": 2739099653,
    "lat": 36.1332558,
    "lon": -5.4478305,
    "timestamp": "2025-02-26T18:55:31Z",
    "version": 5,
    "changeset": 162984073,
    "user": "TalaTiger",
    "uid": 13593643,
    "tags": {
      "addr:city": "Algeciras",
      "amenity": "restaurant",
      "check_date:opening_hours": "2025-02-26",
      "name": "The Beast",
      "opening_hours:signed": "no"
    }
  },
  {
    "type": "node",
    "id": 2739153723,
    "lat": 36.1331902,
    "lon": -5.4479211,
    "timestamp": "2025-03-24T01:16:56Z",
    "version": 3,
    "changeset": 164010740,
    "user": "cronoser",
    "uid": 461005,
    "tags": {
      "amenity": "restaurant",
      "check_date:opening_hours": "2025-02-26",
      "cuisine": "italian",
      "name": "La Venecia",
      "opening_hours:signed": "no"
    }
  },
  {
    "type": "node",
    "id": 2739153740,
    "lat": 36.1330722,
    "lon": -5.4477752,
    "timestamp": "2025-03-24T01:16:56Z",
    "version": 5,
    "changeset": 164010740,
    "user": "cronoser",
    "uid": 461005,
    "tags": {
      "amenity": "restaurant",
      "name": "Iruña Mare",
      "opening_hours": "Tu-Sa 13:00-16:00,20:00-24:00"
    }
  },
  {
    "type": "node",
    "id": 2744321915,
    "lat": 36.1345386,
    "lon": -5.4506995,
    "timestamp": "2023-10-23T19:48:11Z",
    "version": 2,
    "changeset": 143033502,
    "user": "b-jazz-bot",
    "uid": 9451067,
    "tags": {
      "amenity": "restaurant",
      "cuisine": "pizza",
      "name": "Pizzeria Piccolina",
      "website": "https://www.pizzeriapiccolina.com/"
    }
  },
  {
    "type": "node",
    "id": 2744321918,
    "lat": 36.1353358,
    "lon": -5.4500115,
    "timestamp": "2020-06-24T00:25:50Z",
    "version": 2,
    "changeset": 87054677,
    "user": "CarlosMG",
    "uid": 2163609,
    "tags": {
      "addr:city": "Algeciras",
      "amenity": "restaurant",
      "name": "Parque"
    }
  },
  {
    "type": "node",
    "id": 2744350122,
    "lat": 36.1345678,
    "lon": -5.4501792,
    "timestamp": "2014-03-26T09:25:20Z",
    "version": 2,
    "changeset": 21320947,
    "user": "alkayata",
    "uid": 571978,
    "tags": {
      "amenity": "restaurant",
      "cuisine": "chinese"
    }
  },
  {
    "type": "node",
    "id": 2760107493,
    "lat": 36.276053,
    "lon": -6.0912228,
    "timestamp": "2024-05-15T07:30:46Z",
    "version": 3,
    "changeset": 151344520,
    "user": "kapazao_import",
    "uid": 8770019,
    "tags": {
      "addr:city": "Conil de la Frontera",
      "addr:housenumber": "29",
      "addr:postcode": "11140",
      "addr:street": "Calle Cádiz",
      "amenity": "restaurant",
      "check_date": "2024-04-19",
      "cuisine": "regional",
      "name": "Marisquería La Pepa",
      "phone": "+34 651 62 73 79"
    }
  },
  {
    "type": "node",
    "id": 2760113725,
    "lat": 36.2754975,
    "lon": -6.0892532,
    "timestamp": "2014-04-02T06:17:12Z",
    "version": 1,
    "changeset": 21451264,
    "user": "Notch",
    "uid": 164214,
    "tags": {
      "addr:city": "Conil de la Frontera",
      "addr:country": "ES",
      "addr:housenumber": "13",
      "addr:postcode": "11140",
      "addr:street": "Calle General Cabino Aranda",
      "amenity": "restaurant",
      "name": "Dona Lola"
    }
  },
  {
    "type": "node",
    "id": 2760113728,
    "lat": 36.2759959,
    "lon": -6.0892613,
    "timestamp": "2014-04-02T06:17:13Z",
    "version": 1,
    "changeset": 21451264,
    "user": "Notch",
    "uid": 164214,
    "tags": {
      "amenity": "restaurant",
      "cuisine": "italian",
      "name": "Pizzeria Coppola Conil"
    }
  },
  {
    "type": "node",
    "id": 2760250855,
    "lat": 36.2746503,
    "lon": -6.089032,
    "timestamp": "2014-04-02T09:10:52Z",
    "version": 1,
    "changeset": 21453638,
    "user": "Notch",
    "uid": 164214,
    "tags": {
      "amenity": "restaurant",
      "cuisine": "regional",
      "name": "Bar-Terraza El Gamba"
    }
  },
  {
    "type": "node",
    "id": 2760250856,
    "lat": 36.2745215,
    "lon": -6.0887679,
    "timestamp": "2024-05-15T07:30:46Z",
    "version": 4,
    "changeset": 151344520,
    "user": "kapazao_import",
    "uid": 8770019,
    "tags": {
      "addr:city": "Plaza Santa Catalina",
      "addr:housenumber": "2",
      "addr:postcode": "11140",
      "addr:street": "Calle Cádiz",
      "amenity": "restaurant",
      "cuisine": "regional",
      "name": "La Antigua",
      "note": "former Cafe Habana"
    }
  },
  {
    "type": "node",
    "id": 2760250858,
    "lat": 36.2751033,
    "lon": -6.0895902,
    "timestamp": "2024-05-15T07:30:46Z",
    "version": 3,
    "changeset": 151344520,
    "user": "kapazao_import",
    "uid": 8770019,
    "tags": {
      "addr:city": "Conil de la Frontera",
      "addr:housenumber": "1",
      "addr:postcode": "11140",
      "addr:street": "Calle Cádiz",
      "amenity": "restaurant",
      "cuisine": "regional",
      "name": "Terraza Medina"
    }
  },
  {
    "type": "node",
    "id": 2769450615,
    "lat": 36.750714,
    "lon": -5.8166498,
    "timestamp": "2014-04-05T12:29:13Z",
    "version": 1,
    "changeset": 21513111,
    "user": "abelardos",
    "uid": 2016919,
    "tags": {
      "amenity": "restaurant",
      "name": "El Paquetito"
    }
  },
  {
    "type": "node",
    "id": 2769736516,
    "lat": 36.2788953,
    "lon": -6.0879805,
    "timestamp": "2014-04-05T14:15:32Z",
    "version": 1,
    "changeset": 21514777,
    "user": "Rickydh",
    "uid": 335661,
    "tags": {
      "amenity": "restaurant",
      "cuisine": "italian",
      "name": "Trattoria Pizzeria Da Pietro"
    }
  },
  {
    "type": "node",
    "id": 2783441411,
    "lat": 36.1378785,
    "lon": -5.3533219,
    "timestamp": "2023-10-23T19:46:10Z",
    "version": 2,
    "changeset": 143033395,
    "user": "b-jazz-bot",
    "uid": 9451067,
    "tags": {
      "amenity": "restaurant",
      "internet_access": "yes",
      "internet_access:fee": "yes",
      "name": "Jury's - Cafe and Wine Bar",
      "opening_hours": "07:00-22:30",
      "phone": "+3520067898",
      "smoking": "no",
      "website": "https://www.jurysgibraltar.com/",
      "wheelchair": "yes"
    }
  },
  {
    "type": "node",
    "id": 2791753740,
    "lat": 36.4171098,
    "lon": -6.1485057,
    "timestamp": "2022-04-13T20:48:41Z",
    "version": 2,
    "changeset": 119685477,
    "user": "CarlosMG",
    "uid": 2163609,
    "tags": {
      "amenity": "restaurant",
      "cuisine": "pizza",
      "name": "Pizzería Da Vinci"
    }
  },
  {
    "type": "node",
    "id": 2824927928,
    "lat": 36.1309719,
    "lon": -5.4463966,
    "timestamp": "2023-02-06T19:39:25Z",
    "version": 4,
    "changeset": 132172915,
    "user": "mor",
    "uid": 220932,
    "tags": {
      "amenity": "restaurant",
      "email": "info@restaurantecarboneria.com",
      "name": "La Carbonería",
      "phone": "+34 956 663 738",
      "website": "http://www.restaurantelacarboneria.com/"
    }
  },
  {
    "type": "node",
    "id": 2827585623,
    "lat": 36.6823535,
    "lon": -6.1383214,
    "timestamp": "2015-01-16T13:25:13Z",
    "version": 2,
    "changeset": 28186766,
    "user": "Ale Renedo",
    "uid": 2221122,
    "tags": {
      "amenity": "restaurant",
      "name": "El Almacen"
    }
  },
  {
    "type": "node",
    "id": 2845672423,
    "lat": 36.3614144,
    "lon": -6.1727942,
    "timestamp": "2014-05-09T10:59:02Z",
    "version": 1,
    "changeset": 22228204,
    "user": "flo79",
    "uid": 590160,
    "tags": {
      "amenity": "restaurant"
    }
  },
  {
    "type": "node",
    "id": 2883444052,
    "lat": 36.1367347,
    "lon": -5.8486607,
    "timestamp": "2019-08-26T10:50:34Z",
    "version": 5,
    "changeset": 73745380,
    "user": "sanchi",
    "uid": 170106,
    "tags": {
      "amenity": "restaurant",
      "cuisine": "regional",
      "name": "El Corral",
      "phone": "+34 956 45 74 49"
    }
  },
  {
    "type": "node",
    "id": 2883801601,
    "lat": 36.0682946,
    "lon": -5.5304579,
    "timestamp": "2024-04-23T10:26:12Z",
    "version": 4,
    "changeset": 150387509,
    "user": "kapazao_import",
    "uid": 8770019,
    "tags": {
      "amenity": "restaurant",
      "cuisine": "regional",
      "name": "Mesón de Sancho"
    }
  },
  {
    "type": "node",
    "id": 2883805501,
    "lat": 36.5798346,
    "lon": -6.2241318,
    "timestamp": "2022-10-28T08:06:52Z",
    "version": 2,
    "changeset": 128160222,
    "user": "Johnbo",
    "uid": 915796,
    "tags": {
      "addr:city": "El Puerto de Santa María",
      "addr:housenumber": "36",
      "addr:postcode": "11500",
      "addr:street": "Avenida de la Paz",
      "amenity": "restaurant",
      "contact:facebook": "https://www.facebook.com/elnuevochurrasco",
      "cuisine": "regional",
      "name": "El Nuevo Churrasco",
      "outdoor_seating": "yes",
      "phone": "+34 956863019",
      "website": "https://el-nuevo-churrasco-el-puerto-de-santa-maria.eatbu.com/"
    }
  },
  {
    "type": "node",
    "id": 2883916301,
    "lat": 36.4218322,
    "lon": -5.4379295,
    "timestamp": "2020-09-26T13:16:05Z",
    "version": 2,
    "changeset": 91551291,
    "user": "Alfred_Gulz",
    "uid": 745753,
    "tags": {
      "amenity": "restaurant",
      "cuisine": "regional",
      "name": "Campoy",
      "phone": "+34 956641060"
    }
  },
  {
    "type": "node",
    "id": 2883917001,
    "lat": 36.66832,
    "lon": -5.47861,
    "timestamp": "2019-08-04T12:03:27Z",
    "version": 2,
    "changeset": 72988222,
    "user": "Kico_Diaz",
    "uid": 7363218,
    "tags": {
      "amenity": "restaurant",
      "cuisine": "regional",
      "name": "Vina Rifa",
      "name:es": "Venta Vina Rifa"
    }
  },
  {
    "type": "node",
    "id": 2885350879,
    "lat": 36.1351141,
    "lon": -5.8448712,
    "timestamp": "2014-05-28T14:14:28Z",
    "version": 1,
    "changeset": 22601305,
    "user": "DiegoOSM",
    "uid": 2093638,
    "tags": {
      "amenity": "restaurant",
      "cuisine": "italian",
      "name": "Pizzeria Fillol"
    }
  },
  {
    "type": "node",
    "id": 2890774053,
    "lat": 36.1365151,
    "lon": -5.8473394,
    "timestamp": "2025-01-10T20:16:08Z",
    "version": 3,
    "changeset": 161219011,
    "user": "rgbimport",
    "uid": 8090385,
    "tags": {
      "amenity": "restaurant",
      "cuisine": "italian",
      "name": "L'Angulo"
    }
  },
  {
    "type": "node",
    "id": 2890774055,
    "lat": 36.1365352,
    "lon": -5.8464875,
    "timestamp": "2017-10-15T13:28:39Z",
    "version": 3,
    "changeset": 52955215,
    "user": "mor",
    "uid": 220932,
    "tags": {
      "amenity": "restaurant",
      "cuisine": "regional",
      "name": "La Esquina de Catalina",
      "outdoor_seating": "yes"
    }
  },
  {
    "type": "node",
    "id": 2891288279,
    "lat": 36.1366728,
    "lon": -5.8459102,
    "timestamp": "2025-01-05T11:35:44Z",
    "version": 3,
    "changeset": 161016726,
    "user": "rgbimport",
    "uid": 8090385,
    "tags": {
      "amenity": "restaurant",
      "name": "Juanito"
    }
  },
  {
    "type": "node",
    "id": 2891309284,
    "lat": 36.1370353,
    "lon": -5.8457829,
    "timestamp": "2016-06-23T15:45:47Z",
    "version": 2,
    "changeset": 40237179,
    "user": "walo",
    "uid": 149606,
    "tags": {
      "amenity": "restaurant",
      "name": "Almadraba"
    }
  },
  {
    "type": "node",
    "id": 2891309285,
    "lat": 36.1374025,
    "lon": -5.8471093,
    "timestamp": "2014-05-31T11:57:48Z",
    "version": 1,
    "changeset": 22654667,
    "user": "DiegoOSM",
    "uid": 2093638,
    "tags": {
      "amenity": "restaurant",
      "cuisine": "italian",
      "name": "Cristobal"
    }
  },
  {
    "type": "node",
    "id": 2891309286,
    "lat": 36.1368761,
    "lon": -5.8467812,
    "timestamp": "2014-05-31T11:57:48Z",
    "version": 1,
    "changeset": 22654667,
    "user": "DiegoOSM",
    "uid": 2093638,
    "tags": {
      "amenity": "restaurant",
      "name": "El Carmen"
    }
  },
  {
    "type": "node",
    "id": 2891309288,
    "lat": 36.1368065,
    "lon": -5.8471827,
    "timestamp": "2014-05-31T11:57:48Z",
    "version": 1,
    "changeset": 22654667,
    "user": "DiegoOSM",
    "uid": 2093638,
    "tags": {
      "amenity": "restaurant",
      "name": "La Botica"
    }
  },
  {
    "type": "node",
    "id": 2891309289,
    "lat": 36.1365719,
    "lon": -5.84457,
    "timestamp": "2014-05-31T11:57:48Z",
    "version": 1,
    "changeset": 22654667,
    "user": "DiegoOSM",
    "uid": 2093638,
    "tags": {
      "amenity": "restaurant",
      "name": "Ramonpipi"
    }
  },
  {
    "type": "node",
    "id": 2891309290,
    "lat": 36.1368298,
    "lon": -5.8472673,
    "timestamp": "2014-05-31T11:57:48Z",
    "version": 1,
    "changeset": 22654667,
    "user": "DiegoOSM",
    "uid": 2093638,
    "tags": {
      "amenity": "restaurant",
      "name": "Zoco"
    }
  },
  {
    "type": "node",
    "id": 2891330235,
    "lat": 36.1362252,
    "lon": -5.8469983,
    "timestamp": "2025-01-11T01:01:26Z",
    "version": 5,
    "changeset": 161224686,
    "user": "rgbimport",
    "uid": 8090385,
    "tags": {
      "amenity": "restaurant",
      "name": "Casa José María"
    }
  },
  {
    "type": "node",
    "id": 2891640513,
    "lat": 36.1366252,
    "lon": -5.8479703,
    "timestamp": "2025-01-05T13:23:10Z",
    "version": 3,
    "changeset": 161020242,
    "user": "rgbimport",
    "uid": 8090385,
    "tags": {
      "amenity": "restaurant",
      "cuisine": "regional",
      "name": "El Vapor",
      "outdoor_seating": "yes"
    }
  },
  {
    "type": "node",
    "id": 2893250923,
    "lat": 36.1475654,
    "lon": -5.7034604,
    "timestamp": "2025-03-17T21:37:23Z",
    "version": 5,
    "changeset": 163751316,
    "user": "soyandaluz",
    "uid": 18654338,
    "tags": {
      "addr:housenumber": "3",
      "amenity": "restaurant",
      "name": "Venta El Rastrillo",
      "phone": "+34 665221634"
    }
  },
  {
    "type": "node",
    "id": 2930729175,
    "lat": 36.2806898,
    "lon": -6.0987317,
    "timestamp": "2022-06-24T20:13:05Z",
    "version": 5,
    "changeset": 122817332,
    "user": "Note Control",
    "uid": 10953870,
    "tags": {
      "addr:city": "Conil de la Frontera",
      "addr:postcode": "11140",
      "addr:street": "Camino de la Fontanilla",
      "amenity": "restaurant",
      "cuisine": "seafood",
      "name": "Restaurante La Fontanilla",
      "phone": "+34 956 441 130",
      "toilets:wheelchair": "yes",
      "website": "https://lafontanilla.com",
      "wheelchair": "yes"
    }
  },
  {
    "type": "node",
    "id": 2940209385,
    "lat": 36.274596,
    "lon": -6.0835088,
    "timestamp": "2014-06-30T08:52:39Z",
    "version": 1,
    "changeset": 23320583,
    "user": "odce72",
    "uid": 1244396,
    "tags": {
      "amenity": "restaurant",
      "name": "Casa Mercedes"
    }
  },
  {
    "type": "node",
    "id": 2982460654,
    "lat": 36.2273211,
    "lon": -6.0666228,
    "timestamp": "2014-07-27T10:12:36Z",
    "version": 1,
    "changeset": 24381419,
    "user": "Klaus88",
    "uid": 704335,
    "tags": {
      "amenity": "restaurant",
      "name": "La Ilusion"
    }
  },
  {
    "type": "node",
    "id": 2990418402,
    "lat": 36.4654203,
    "lon": -6.1983665,
    "timestamp": "2019-08-28T11:29:46Z",
    "version": 3,
    "changeset": 73833150,
    "user": "sanchi",
    "uid": 170106,
    "tags": {
      "addr:city": "San Fernando",
      "addr:housenumber": "4",
      "addr:postcode": "11100",
      "addr:street": "Calle de Cayetano del Toro",
      "amenity": "restaurant",
      "cuisine": "regional",
      "name": "El Tapeíto",
      "note": "Bar de tapas",
      "phone": "+34 956 066 841",
      "smoking": "no",
      "website": "https://www.guiacadiz.com/item/bar-el-tapeito",
      "wheelchair": "yes"
    }
  },
  {
    "type": "node",
    "id": 2993150542,
    "lat": 36.8545598,
    "lon": -5.3250651,
    "timestamp": "2014-08-02T23:47:04Z",
    "version": 1,
    "changeset": 24507129,
    "user": "Klaus88",
    "uid": 704335,
    "tags": {
      "amenity": "restaurant",
      "cuisine": "regional"
    }
  },
  {
    "type": "node",
    "id": 2993150545,
    "lat": 36.8552435,
    "lon": -5.323595,
    "timestamp": "2014-08-02T23:47:04Z",
    "version": 1,
    "changeset": 24507129,
    "user": "Klaus88",
    "uid": 704335,
    "tags": {
      "amenity": "restaurant",
      "cuisine": "regional"
    }
  },
  {
    "type": "node",
    "id": 2993150546,
    "lat": 36.8552458,
    "lon": -5.3237487,
    "timestamp": "2014-08-02T23:47:05Z",
    "version": 1,
    "changeset": 24507129,
    "user": "Klaus88",
    "uid": 704335,
    "tags": {
      "amenity": "restaurant",
      "cuisine": "regional"
    }
  },
  {
    "type": "node",
    "id": 3010359391,
    "lat": 36.519278,
    "lon": -5.3169813,
    "timestamp": "2024-06-25T11:35:05Z",
    "version": 3,
    "changeset": 153152923,
    "user": "b-jazz-bot",
    "uid": 9451067,
    "tags": {
      "addr:city": "Gaucín",
      "addr:housenumber": "9",
      "addr:postcode": "29480",
      "addr:street": "Calle Los Bancos",
      "amenity": "restaurant",
      "capacity": "20",
      "cuisine": "regional",
      "name": "Platero & Co",
      "phone": "+34 667 493 887",
      "takeaway": "no",
      "website": "https://www.platero-gaucin.com/"
    }
  },
  {
    "type": "node",
    "id": 3012209025,
    "lat": 36.069496,
    "lon": -5.6804091,
    "timestamp": "2014-08-12T12:02:24Z",
    "version": 1,
    "changeset": 24700040,
    "user": "tomboihr",
    "uid": 2223093,
    "tags": {
      "amenity": "restaurant"
    }
  },
  {
    "type": "node",
    "id": 3012949699,
    "lat": 36.5207589,
    "lon": -5.3159877,
    "timestamp": "2014-08-20T17:37:06Z",
    "version": 2,
    "changeset": 24891137,
    "user": "genal_es",
    "uid": 301068,
    "tags": {
      "amenity": "restaurant",
      "cuisine": "regional",
      "name": "Bar El Portesuelo"
    }
  },
  {
    "type": "node",
    "id": 3026674739,
    "lat": 36.5177971,
    "lon": -6.2861428,
    "timestamp": "2019-08-28T11:29:46Z",
    "version": 3,
    "changeset": 73833150,
    "user": "sanchi",
    "uid": 170106,
    "tags": {
      "addr:street": "Calle Amilcar Barca",
      "amenity": "restaurant",
      "cuisine": "fish;regional;grill;seafood;mediterranean;friture;spanish;tapas",
      "name": "Pikachos",
      "phone": "+34 616833620"
    }
  },
  {
    "type": "node",
    "id": 3030141000,
    "lat": 36.5193903,
    "lon": -5.3178891,
    "timestamp": "2014-08-20T17:36:40Z",
    "version": 1,
    "changeset": 24891137,
    "user": "genal_es",
    "uid": 301068,
    "tags": {
      "amenity": "restaurant",
      "cuisine": "regional",
      "name": "Bar Pajuelo"
    }
  },
  {
    "type": "node",
    "id": 3036544188,
    "lat": 36.5190489,
    "lon": -5.3169696,
    "timestamp": "2021-12-14T09:05:51Z",
    "version": 3,
    "changeset": 114914024,
    "user": "Hugoren Martinako",
    "uid": 3392826,
    "tags": {
      "amenity": "restaurant",
      "contact:facebook": "https://www.facebook.com/Laraizgaucin/?ref=py_c",
      "cuisine": "regional",
      "name": "La Raiz",
      "phone": "+34640043390"
    }
  },
  {
    "type": "node",
    "id": 3046444590,
    "lat": 36.537315,
    "lon": -5.3894128,
    "timestamp": "2022-05-26T18:31:05Z",
    "version": 3,
    "changeset": 121540619,
    "user": "HighlandMark",
    "uid": 2111486,
    "tags": {
      "addr:street": "Calle Lepanto",
      "amenity": "restaurant",
      "cuisine": "ecológica",
      "email": "ahora@casaruralahora.com",
      "name": "Casa Rural Ahora",
      "website": "http://www.casaruralahora.com"
    }
  },
  {
    "type": "node",
    "id": 3056055681,
    "lat": 36.5191264,
    "lon": -5.3232095,
    "timestamp": "2014-09-02T18:07:47Z",
    "version": 1,
    "changeset": 25187899,
    "user": "genal_es",
    "uid": 301068,
    "tags": {
      "amenity": "restaurant",
      "cuisine": "regional",
      "name": "Bar La Cruz"
    }
  },
  {
    "type": "node",
    "id": 3056130687,
    "lat": 36.5193994,
    "lon": -5.3223624,
    "timestamp": "2014-09-02T18:31:38Z",
    "version": 1,
    "changeset": 25188428,
    "user": "genal_es",
    "uid": 301068,
    "tags": {
      "amenity": "restaurant",
      "cuisine": "regional",
      "name": "El Atico"
    }
  },
  {
    "type": "node",
    "id": 3058227244,
    "lat": 36.5893144,
    "lon": -6.231262,
    "timestamp": "2014-09-04T00:25:08Z",
    "version": 1,
    "changeset": 25217170,
    "user": "Jorusen",
    "uid": 1712104,
    "tags": {
      "amenity": "restaurant"
    }
  },
  {
    "type": "node",
    "id": 3072229156,
    "lat": 36.4851916,
    "lon": -6.201268,
    "timestamp": "2016-07-15T16:24:22Z",
    "version": 3,
    "changeset": 40764029,
    "user": "javiveiro",
    "uid": 2781162,
    "tags": {
      "amenity": "restaurant",
      "name": "Cantina de Bartolo",
      "name:es": "cantina del TITI bartolo"
    }
  },
  {
    "type": "node",
    "id": 3158041950,
    "lat": 36.0142063,
    "lon": -5.6040851,
    "timestamp": "2023-03-12T11:37:28Z",
    "version": 9,
    "changeset": 133582852,
    "user": "rgbimport",
    "uid": 8090385,
    "tags": {
      "addr:city": "Tarifa",
      "addr:housenumber": "3",
      "addr:postcode": "11380",
      "addr:street": "Calle Silos",
      "amenity": "restaurant",
      "cuisine": "mediterranean;spanish",
      "diet:vegetarian": "yes",
      "name": "La Favela",
      "name:de": "La Favela",
      "name:en": "La Favela",
      "name:es": "La Favela",
      "opening_hours": "Th-Mo 18:00-23:45"
    }
  },
  {
    "type": "node",
    "id": 3196842884,
    "lat": 36.5999301,
    "lon": -6.2230844,
    "timestamp": "2017-11-08T20:32:21Z",
    "version": 3,
    "changeset": 53621742,
    "user": "Inesch",
    "uid": 6954261,
    "tags": {
      "amenity": "restaurant",
      "name": "Puerto Escondido",
      "phone": "+34956851870",
      "stars": "2",
      "website": "http://restaurantepuertoescondido.com"
    }
  },
  {
    "type": "node",
    "id": 3277677184,
    "lat": 36.7029698,
    "lon": -5.4223926,
    "timestamp": "2020-05-08T10:38:58Z",
    "version": 6,
    "changeset": 84887658,
    "user": "Kico_Diaz",
    "uid": 7363218,
    "tags": {
      "addr:city": "Benaocaz",
      "addr:country": "ES",
      "addr:housenumber": "5",
      "addr:postcode": "11612",
      "addr:street": "Plaza San Antón",
      "amenity": "restaurant",
      "name": "El Refugio Hotel-Restaurante",
      "name:en": "El Refugio Hotel and Restaurant",
      "name:es": "El Refugio y Restaurante",
      "phone": "+34 956 125564",
      "tourism": "guest_house"
    }
  },
  {
    "type": "node",
    "id": 3282746141,
    "lat": 36.7505246,
    "lon": -6.0688213,
    "timestamp": "2015-01-11T19:13:16Z",
    "version": 1,
    "changeset": 28070859,
    "user": "marcos martin requejo",
    "uid": 2567706,
    "tags": {
      "amenity": "restaurant",
      "cuisine": "regional",
      "name": "Venta la Parra"
    }
  },
  {
    "type": "node",
    "id": 3292336844,
    "lat": 36.6823459,
    "lon": -6.1384863,
    "timestamp": "2015-01-16T13:25:12Z",
    "version": 1,
    "changeset": 28186766,
    "user": "Ale Renedo",
    "uid": 2221122,
    "tags": {
      "amenity": "restaurant",
      "name": "Reino de León",
      "website": "http://reinodeleongastrobar.com/"
    }
  },
  {
    "type": "node",
    "id": 3409527241,
    "lat": 36.3676256,
    "lon": -6.1783657,
    "timestamp": "2016-06-19T11:03:14Z",
    "version": 3,
    "changeset": 40133366,
    "user": "walo",
    "uid": 149606,
    "tags": {
      "addr:city": "Chiclana de la Frontera",
      "addr:postcode": "11139",
      "addr:street": "Carretera de la Barrosa",
      "amenity": "restaurant",
      "cuisine": "regional",
      "name": "Restaurante Noli"
    }
  },
  {
    "type": "node",
    "id": 3416655772,
    "lat": 36.3054649,
    "lon": -6.1290457,
    "timestamp": "2015-03-24T21:47:44Z",
    "version": 1,
    "changeset": 29715243,
    "user": "13 digits",
    "uid": 35935,
    "tags": {
      "amenity": "restaurant",
      "name": "Cabo Roche"
    }
  },
  {
    "type": "node",
    "id": 3417776293,
    "lat": 36.4569313,
    "lon": -5.9279716,
    "timestamp": "2023-01-22T14:24:39Z",
    "version": 4,
    "changeset": 131568642,
    "user": "Đuro Jiří",
    "uid": 14617702,
    "tags": {
      "amenity": "restaurant",
      "cuisine": "local",
      "indoor_seating": "yes",
      "name": "Casa Ortega",
      "outdoor_seating": "yes"
    }
  },
  {
    "type": "node",
    "id": 3417779793,
    "lat": 36.4566186,
    "lon": -5.9280985,
    "timestamp": "2023-01-22T14:24:44Z",
    "version": 4,
    "changeset": 131568642,
    "user": "Đuro Jiří",
    "uid": 14617702,
    "tags": {
      "amenity": "restaurant",
      "cuisine": "spanish",
      "indoor_seating": "yes",
      "name": "Cádiz",
      "opening_hours": "Mo-Su 00:00-01:00,07:00-24:00",
      "outdoor_seating": "yes"
    }
  },
  {
    "type": "node",
    "id": 3423934093,
    "lat": 36.3426529,
    "lon": -5.81004,
    "timestamp": "2019-02-03T14:08:28Z",
    "version": 2,
    "changeset": 66877089,
    "user": "stsbd",
    "uid": 9410962,
    "tags": {
      "amenity": "restaurant",
      "name": "La Fábrica"
    }
  },
  {
    "type": "node",
    "id": 3423934096,
    "lat": 36.3436698,
    "lon": -5.8095101,
    "timestamp": "2020-10-31T23:42:39Z",
    "version": 2,
    "changeset": 93355433,
    "user": "Iván_",
    "uid": 1773299,
    "tags": {
      "amenity": "restaurant",
      "cuisine": "spanish",
      "name": "Casa Flores",
      "opening_hours": "Mo-Su 08:00-24:00"
    }
  },
  {
    "type": "node",
    "id": 3435769247,
    "lat": 36.1476501,
    "lon": -5.3538164,
    "timestamp": "2023-10-23T19:48:19Z",
    "version": 3,
    "changeset": 143033506,
    "user": "b-jazz-bot",
    "uid": 9451067,
    "tags": {
      "addr:housenumber": "21B",
      "addr:street": "Ocean Village Promenade",
      "amenity": "restaurant",
      "name": "Las Iguanas",
      "old_name": "The Cuban",
      "website": "https://www.iguanas.gi/"
    }
  },
  {
    "type": "node",
    "id": 3435769248,
    "lat": 36.1470244,
    "lon": -5.3541845,
    "timestamp": "2021-07-25T22:28:56Z",
    "version": 4,
    "changeset": 108582397,
    "user": "corrector_91",
    "uid": 3418742,
    "tags": {
      "amenity": "restaurant",
      "cuisine": "asian",
      "name": "Thi vietnamese",
      "old_name": "Shanghai Gardens",
      "website": "https://thi-vietnamese.business.site/?utm_source=gmb&utm_medium=referral"
    }
  },
  {
    "type": "node",
    "id": 3435769249,
    "lat": 36.1473986,
    "lon": -5.3540255,
    "timestamp": "2021-02-22T17:35:14Z",
    "version": 3,
    "changeset": 99763030,
    "user": "Linfindel",
    "uid": 12507004,
    "tags": {
      "amenity": "restaurant",
      "brand": "PizzaExpress",
      "brand:wikidata": "Q662845",
      "brand:wikipedia": "en:PizzaExpress",
      "cuisine": "pizza",
      "name": "PizzaExpress"
    }
  },
  {
    "type": "node",
    "id": 3435769250,
    "lat": 36.1471062,
    "lon": -5.3542106,
    "timestamp": "2015-04-03T21:32:14Z",
    "version": 2,
    "changeset": 29961595,
    "user": "18573",
    "uid": 1888603,
    "tags": {
      "amenity": "restaurant",
      "name": "Ivy Sports Grill and Bar"
    }
  },
  {
    "type": "node",
    "id": 3435808600,
    "lat": 36.1477885,
    "lon": -5.3539746,
    "timestamp": "2015-04-03T21:32:13Z",
    "version": 1,
    "changeset": 29961595,
    "user": "18573",
    "uid": 1888603,
    "tags": {
      "amenity": "restaurant",
      "name": "Bridge Bar & Grill"
    }
  },
  {
    "type": "node",
    "id": 3435808605,
    "lat": 36.1484624,
    "lon": -5.3537051,
    "timestamp": "2021-07-23T22:17:38Z",
    "version": 3,
    "changeset": 108514964,
    "user": "corrector_91",
    "uid": 3418742,
    "tags": {
      "addr:housename": "Deck 3 Sunborn Gibraltar Yacht Hotel",
      "addr:street": "Ocean Village",
      "amenity": "restaurant",
      "level": "3",
      "name": "La Sala Restaurant & Bar",
      "opening_hours": "Su-Th 16:00-01:00; Fr-Sa 16:00-02:00",
      "phone": "+350 200 16500",
      "website": "https://www.sunborngibraltar.com/dining/la-sala-restaurant/"
    }
  },
  {
    "type": "node",
    "id": 3435808607,
    "lat": 36.1472513,
    "lon": -5.3540385,
    "timestamp": "2021-07-29T14:14:02Z",
    "version": 4,
    "changeset": 108830897,
    "user": "b-jazz-bot",
    "uid": 9451067,
    "tags": {
      "amenity": "restaurant",
      "cuisine": "indian",
      "name": "Little Bay Bar and Indian Tapas",
      "old_name": "Laziz",
      "website": "https://www.littlebay.gi/"
    }
  },