[
  {
    "type": "node",
    "id": 455700390,
    "lat": 37.125716,
    "lon": -7.6478297,
    "timestamp": "2017-04-18T17:28:08Z",
    "version": 4,
    "changeset": 47912880,
    "user": "jpcp",
    "uid": 5479164,
    "tags": {
      "amenity": "restaurant",
      "cuisine": "seafood",
      "name": "Restaurante Gilao",
      "name:pt": "Restaurante Gilao"
    }
  },
  {
    "type": "node",
    "id": 458797274,
    "lat": 37.0154217,
    "lon": -7.9355437,
    "timestamp": "2024-11-27T11:40:07Z",
    "version": 9,
    "changeset": 159655153,
    "user": "Bolt033",
    "uid": 14087454,
    "tags": {
      "addr:street": "Praça Dom Francisco Gomes",
      "amenity": "restaurant",
      "cuisine": "fish;sandwich;coffee_shop",
      "internet_access": "wlan",
      "name": "O Coreto",
      "phone": "+351 910 505 524",
      "website": "https://ocoreto.pt/",
      "wheelchair": "limited"
    }
  },
  {
    "type": "node",
    "id": 475550982,
    "lat": 37.1655107,
    "lon": -7.5204099,
    "timestamp": "2022-09-15T21:23:28Z",
    "version": 5,
    "changeset": 126240868,
    "user": "gonmts",
    "uid": 15660738,
    "tags": {
      "amenity": "restaurant",
      "cuisine": "regional;fish;coffee_shop",
      "name": "Rio's",
      "opening_hours": "Mo, We-Su 09:00-22:00"
    }
  },
  {
    "type": "node",
    "id": 475550985,
    "lat": 37.1676182,
    "lon": -7.5221881,
    "timestamp": "2021-10-11T18:02:30Z",
    "version": 5,
    "changeset": 112385967,
    "user": "insbdp00",
    "uid": 1856039,
    "tags": {
      "addr:city": "Manta Rota",
      "addr:street": "Estrada da Manta Rota",
      "amenity": "restaurant",
      "check_date:opening_hours": "2021-10-11",
      "cuisine": "regional",
      "name": "A Proa",
      "opening_hours": "Tu-Su,PH 10:00-02:00"
    }
  },
  {
    "type": "node",
    "id": 475551031,
    "lat": 37.1681764,
    "lon": -7.5226107,
    "timestamp": "2020-05-10T17:48:42Z",
    "version": 3,
    "changeset": 84981121,
    "user": "insbdp00",
    "uid": 1856039,
    "tags": {
      "amenity": "restaurant",
      "cuisine": "regional",
      "name": "Manta-Rota",
      "opening_hours": "Tu-Su,PH 10:00-15:00,18:00-22:00"
    }
  },
  {
    "type": "node",
    "id": 499485199,
    "lat": 37.0754104,
    "lon": -8.1183514,
    "timestamp": "2009-09-17T19:41:06Z",
    "version": 1,
    "changeset": 2515483,
    "user": "osmgspot",
    "uid": 143002,
    "tags": {
      "amenity": "restaurant",
      "name": "Petunia"
    }
  },
  {
    "type": "node",
    "id": 608620328,
    "lat": 37.0757644,
    "lon": -8.2961992,
    "timestamp": "2014-10-25T14:47:47Z",
    "version": 7,
    "changeset": 26322172,
    "user": "Tungmar",
    "uid": 427807,
    "tags": {
      "amenity": "restaurant",
      "diet:vegetarian": "no",
      "layer": "1",
      "name": "Vista Mar",
      "opening_hours": "12:00-14:00,18:00-21:00; Mo-Tu off"
    }
  },
  {
    "type": "node",
    "id": 652378932,
    "lat": 37.0803828,
    "lon": -8.2903748,
    "timestamp": "2017-11-17T14:42:25Z",
    "version": 5,
    "changeset": 53876985,
    "user": "parukhin",
    "uid": 519501,
    "tags": {
      "amenity": "restaurant",
      "name": "Dom Diniz",
      "opening_hours": "12:00-14:30,18:30-23:00"
    }
  },
  {
    "type": "node",
    "id": 652726003,
    "lat": 37.0792723,
    "lon": -8.2988593,
    "timestamp": "2014-01-05T16:39:05Z",
    "version": 5,
    "changeset": 19826745,
    "user": "ypid",
    "uid": 1486839,
    "tags": {
      "amenity": "restaurant",
      "name": "Pôr do Sol",
      "opening_hours": "10:30-15:00,18:00-24:00; Mo off"
    }
  },
  {
    "type": "node",
    "id": 653475025,
    "lat": 37.076229,
    "lon": -8.2773829,
    "timestamp": "2025-02-15T15:50:56Z",
    "version": 4,
    "changeset": 162541064,
    "user": "wheelmap_visitor",
    "uid": 290680,
    "tags": {
      "amenity": "restaurant",
      "name": "A Sardinha",
      "wheelchair": "no"
    }
  },
  {
    "type": "node",
    "id": 653880787,
    "lat": 37.0796697,
    "lon": -8.2917578,
    "timestamp": "2023-10-15T02:46:00Z",
    "version": 8,
    "changeset": 142598814,
    "user": "b-jazz-bot",
    "uid": 9451067,
    "tags": {
      "amenity": "restaurant",
      "email": "mail@o-marinheiro.com",
      "name": "O Marinheiro",
      "opening_hours": "Mo-Sa 18:30-24:00; Su off",
      "phone": "+351289592350",
      "website": "https://www.o-marinheiro.com/"
    }
  },
  {
    "type": "node",
    "id": 653880795,
    "lat": 37.0808989,
    "lon": -8.2850324,
    "timestamp": "2013-04-04T09:36:22Z",
    "version": 8,
    "changeset": 15605092,
    "user": "dcp",
    "uid": 44221,
    "tags": {
      "amenity": "restaurant",
      "cuisine": "regional",
      "email": "bolsadetemperos@gmail.com",
      "name": "Seasons",
      "opening_hours": "08:00-24:00",
      "operator": "Luciana Marques",
      "phone": "+351 915239751"
    }
  },
  {
    "type": "node",
    "id": 653880801,
    "lat": 37.0807578,
    "lon": -8.2819961,
    "timestamp": "2010-02-28T06:46:34Z",
    "version": 2,
    "changeset": 3994933,
    "user": "dcp",
    "uid": 44221,
    "tags": {
      "amenity": "restaurant",
      "cuisine": "chinese",
      "name": "Grande Mundo"
    }
  },
  {
    "type": "node",
    "id": 653880804,
    "lat": 37.080698,
    "lon": -8.2826215,
    "timestamp": "2011-03-10T16:07:09Z",
    "version": 4,
    "changeset": 7515378,
    "user": "dcp",
    "uid": 44221,
    "tags": {
      "amenity": "restaurant",
      "cuisine": "regional",
      "name": "Margem Sul",
      "opening_hours": "17:30-23:00"
    }
  },
  {
    "type": "node",
    "id": 656450986,
    "lat": 37.1065446,
    "lon": -8.2795781,
    "timestamp": "2010-12-22T18:14:41Z",
    "version": 3,
    "changeset": 6738173,
    "user": "dcp",
    "uid": 44221,
    "tags": {
      "amenity": "restaurant",
      "name": "O Marmeleiro"
    }
  },
  {
    "type": "node",
    "id": 656451060,
    "lat": 37.1270681,
    "lon": -8.2950982,
    "timestamp": "2013-11-05T21:07:39Z",
    "version": 4,
    "changeset": 18737198,
    "user": "chipsterxx",
    "uid": 412095,
    "tags": {
      "amenity": "restaurant",
      "name": "O Aurélio"
    }
  },
  {
    "type": "node",
    "id": 656451095,
    "lat": 37.127206,
    "lon": -8.2937263,
    "timestamp": "2013-11-05T21:07:39Z",
    "version": 4,
    "changeset": 18737198,
    "user": "chipsterxx",
    "uid": 412095,
    "tags": {
      "amenity": "restaurant",
      "name": "O Marreiro"
    }
  },
  {
    "type": "node",
    "id": 656508775,
    "lat": 37.0814398,
    "lon": -8.2986378,
    "timestamp": "2020-12-11T04:00:13Z",
    "version": 4,
    "changeset": 95652519,
    "user": "The Brasserie",
    "uid": 12317752,
    "tags": {
      "amenity": "restaurant",
      "cuisine": "international",
      "name": "The Brasserie",
      "opening_hours": "Th-Mo 17:00-22:00",
      "phone": "+351 289 149 302",
      "website": "https://www.thebrasserie.pt"
    }
  },
  {
    "type": "node",
    "id": 656508816,
    "lat": 37.0825915,
    "lon": -8.2972619,
    "timestamp": "2011-01-01T07:47:12Z",
    "version": 3,
    "changeset": 6825575,
    "user": "dcp",
    "uid": 44221,
    "tags": {
      "amenity": "restaurant",
      "name": "Jompra"
    }
  },
  {
    "type": "node",
    "id": 656508822,
    "lat": 37.0832772,
    "lon": -8.2968602,
    "timestamp": "2011-01-01T07:47:28Z",
    "version": 3,
    "changeset": 6825575,
    "user": "dcp",
    "uid": 44221,
    "tags": {
      "amenity": "restaurant",
      "name": "Alimentare"
    }
  },
  {
    "type": "node",
    "id": 658878042,
    "lat": 37.0755989,
    "lon": -8.2831444,
    "timestamp": "2019-02-05T14:07:05Z",
    "version": 5,
    "changeset": 66933067,
    "user": "Alexmol",
    "uid": 347293,
    "tags": {
      "amenity": "restaurant",
      "email": "audualexandre@sapo.pt",
      "name": "Praia Grande",
      "opening_hours": "12:00-24:00",
      "phone": "+351 289 592617"
    }
  },
  {
    "type": "node",
    "id": 658879505,
    "lat": 37.0849923,
    "lon": -8.2662156,
    "timestamp": "2013-10-10T19:01:21Z",
    "version": 3,
    "changeset": 18286043,
    "user": "chipsterxx",
    "uid": 412095,
    "tags": {
      "amenity": "restaurant",
      "name": "O País"
    }
  },
  {
    "type": "node",
    "id": 659111414,
    "lat": 37.0833329,
    "lon": -8.2891197,
    "timestamp": "2010-12-30T16:39:13Z",
    "version": 2,
    "changeset": 6811375,
    "user": "dcp",
    "uid": 44221,
    "tags": {
      "amenity": "restaurant",
      "name": "Boulevard"
    }
  },
  {
    "type": "node",
    "id": 659192367,
    "lat": 37.0833683,
    "lon": -8.2847462,
    "timestamp": "2010-03-02T13:19:22Z",
    "version": 1,
    "changeset": 4016745,
    "user": "dcp",
    "uid": 44221,
    "tags": {
      "amenity": "restaurant",
      "name": "Sunshine"
    }
  },
  {
    "type": "node",
    "id": 659192803,
    "lat": 37.0874712,
    "lon": -8.2920818,
    "timestamp": "2025-02-06T14:10:08Z",
    "version": 5,
    "changeset": 162210167,
    "user": "Đuro Jiří",
    "uid": 14617702,
    "tags": {
      "air_conditioning": "yes",
      "amenity": "restaurant",
      "check_date": "2025-02-06",
      "indoor_seating": "yes",
      "name": "Solar das Oliveiras",
      "opening_hours": "18:00-24:00",
      "outdoor_seating": "yes"
    }
  },
  {
    "type": "node",
    "id": 659913521,
    "lat": 37.0865257,
    "lon": -8.2778074,
    "timestamp": "2010-12-28T19:28:12Z",
    "version": 2,
    "changeset": 6791567,
    "user": "dcp",
    "uid": 44221,
    "tags": {
      "amenity": "restaurant",
      "name": "Luau",
      "opening_hours": "Mo-Sa 12:00-24:00"
    }
  },
  {
    "type": "node",
    "id": 660461422,
    "lat": 37.0897288,
    "lon": -8.2949686,
    "timestamp": "2025-02-06T14:10:21Z",
    "version": 3,
    "changeset": 162210161,
    "user": "Đuro Jiří",
    "uid": 14617702,
    "tags": {
      "amenity": "restaurant",
      "cuisine": "pizza"
    }
  },
  {
    "type": "node",
    "id": 660461470,
    "lat": 37.0898572,
    "lon": -8.2945583,
    "timestamp": "2025-02-06T14:10:21Z",
    "version": 4,
    "changeset": 162210163,
    "user": "Đuro Jiří",
    "uid": 14617702,
    "tags": {
      "amenity": "restaurant",
      "check_date": "2025-02-06",
      "indoor_seating": "yes",
      "name": "O Barco",
      "outdoor_seating": "yes"
    }
  },
  {
    "type": "node",
    "id": 662437736,
    "lat": 37.125012,
    "lon": -8.2995261,
    "timestamp": "2018-02-10T15:17:57Z",
    "version": 2,
    "changeset": 56242757,
    "user": "Little Brother",
    "uid": 1694420,
    "tags": {
      "addr:housenumber": "12",
      "addr:street": "Rua das Escolas",
      "amenity": "restaurant",
      "cuisine": "regional",
      "name": "Palladium",
      "note": "Chicken Piri-Piri"
    }
  },
  {
    "type": "node",
    "id": 662437752,
    "lat": 37.126076,
    "lon": -8.2993766,
    "timestamp": "2010-03-07T18:29:01Z",
    "version": 1,
    "changeset": 4064555,
    "user": "dcp",
    "uid": 44221,
    "tags": {
      "amenity": "restaurant",
      "name": "Casa Bitoque"
    }
  },
  {
    "type": "node",
    "id": 662437765,
    "lat": 37.1263496,
    "lon": -8.299264,
    "timestamp": "2023-11-12T19:18:27Z",
    "version": 2,
    "changeset": 143945332,
    "user": "blue_lord",
    "uid": 159206,
    "tags": {
      "amenity": "restaurant",
      "cuisine": "chicken",
      "name": "Ramires"
    }
  },
  {
    "type": "node",
    "id": 662437766,
    "lat": 37.1263331,
    "lon": -8.2989981,
    "timestamp": "2010-03-07T18:29:06Z",
    "version": 1,
    "changeset": 4064555,
    "user": "dcp",
    "uid": 44221,
    "tags": {
      "amenity": "restaurant",
      "name": "Ideal"
    }
  },
  {
    "type": "node",
    "id": 665728218,
    "lat": 37.6361512,
    "lon": -7.6644439,
    "timestamp": "2012-10-09T20:44:10Z",
    "version": 2,
    "changeset": 13433022,
    "user": "dudone",
    "uid": 607648,
    "tags": {
      "amenity": "restaurant",
      "name": "Alsafir"
    }
  },
  {
    "type": "node",
    "id": 665728533,
    "lat": 37.6385982,
    "lon": -7.6627559,
    "timestamp": "2010-03-14T16:57:35Z",
    "version": 2,
    "changeset": 4126785,
    "user": "dcp",
    "uid": 44221,
    "tags": {
      "amenity": "restaurant",
      "name": "Migas"
    }
  },
  {
    "type": "node",
    "id": 666995552,
    "lat": 37.2355745,
    "lon": -8.1777357,
    "timestamp": "2010-03-15T18:37:42Z",
    "version": 1,
    "changeset": 4136990,
    "user": "dcp",
    "uid": 44221,
    "tags": {
      "amenity": "restaurant",
      "name": "O Louis"
    }
  },
  {
    "type": "node",
    "id": 928558269,
    "lat": 37.3346337,
    "lon": -7.4905049,
    "timestamp": "2010-09-27T21:00:05Z",
    "version": 1,
    "changeset": 5895737,
    "user": "Alexmol",
    "uid": 347293,
    "tags": {
      "amenity": "restaurant",
      "name": "A Camponesa"
    }
  },
  {
    "type": "node",
    "id": 929407107,
    "lat": 37.1146525,
    "lon": -7.6685488,
    "timestamp": "2025-02-02T13:44:03Z",
    "version": 5,
    "changeset": 162044330,
    "user": "Đuro Jiří",
    "uid": 14617702,
    "tags": {
      "air_conditioning": "yes",
      "amenity": "restaurant",
      "check_date": "2025-02-02",
      "indoor_seating": "yes",
      "name": "O Forno",
      "outdoor_seating": "yes"
    }
  },
  {
    "type": "node",
    "id": 930281642,
    "lat": 37.332583,
    "lon": -7.4870919,
    "timestamp": "2016-05-05T06:43:30Z",
    "version": 3,
    "changeset": 39113069,
    "user": "5R-MFT",
    "uid": 3417876,
    "tags": {
      "amenity": "restaurant",
      "name": "Casa Merca"
    }
  },
  {
    "type": "node",
    "id": 933891283,
    "lat": 37.0916127,
    "lon": -7.7050784,
    "timestamp": "2025-02-02T15:15:28Z",
    "version": 4,
    "changeset": 162049277,
    "user": "Đuro Jiří",
    "uid": 14617702,
    "tags": {
      "amenity": "restaurant",
      "check_date": "2025-02-02",
      "name": "Chic Zé"
    }
  },
  {
    "type": "node",
    "id": 937023463,
    "lat": 37.2157896,
    "lon": -7.3970616,
    "timestamp": "2017-09-23T19:40:50Z",
    "version": 2,
    "changeset": 52312761,
    "user": "mor",
    "uid": 220932,
    "tags": {
      "amenity": "restaurant",
      "name": "Bar Estadio"
    }
  },
  {
    "type": "node",
    "id": 948503857,
    "lat": 37.0319925,
    "lon": -7.94911,
    "timestamp": "2022-03-25T00:05:22Z",
    "version": 3,
    "changeset": 118887479,
    "user": "jacularis",
    "uid": 13477536,
    "tags": {
      "amenity": "restaurant",
      "name": "Pontense",
      "wheelchair": "limited"
    }
  },
  {
    "type": "node",
    "id": 1002135058,
    "lat": 37.0779739,
    "lon": -8.1220522,
    "timestamp": "2014-12-04T16:04:51Z",
    "version": 2,
    "changeset": 27238141,
    "user": "Moi Franck",
    "uid": 2388194,
    "tags": {
      "amenity": "restaurant",
      "name": "Akvavit",
      "wheelchair": "yes"
    }
  },
  {
    "type": "node",
    "id": 1034400596,
    "lat": 37.0719118,
    "lon": -7.7166965,
    "timestamp": "2025-04-19T17:19:45Z",
    "version": 10,
    "changeset": 165163845,
    "user": "Reino Baptista",
    "uid": 2820801,
    "tags": {
      "air_conditioning": "yes",
      "alt_name": "Fialho",
      "amenity": "restaurant",
      "check_date": "2025-02-02",
      "cuisine": "regional;seafood",
      "indoor_seating": "yes",
      "name": "Os Fialhos",
      "opening_hours": "Tu-Su 12:00-15:00,19:00-22:00",
      "outdoor_seating": "yes",
      "phone": "281 961 222",
      "smoking": "outside",
      "wheelchair": "yes"
    }
  },
  {
    "type": "node",
    "id": 1195458032,
    "lat": 37.084993,
    "lon": -8.2660697,
    "timestamp": "2017-09-23T18:23:27Z",
    "version": 6,
    "changeset": 52311010,
    "user": "zermes",
    "uid": 2678365,
    "tags": {
      "amenity": "restaurant",
      "cuisine": "italian",
      "name": "6º Parágrafo"
    }
  },
  {
    "type": "node",
    "id": 1195458238,
    "lat": 37.0853964,
    "lon": -8.2558963,
    "timestamp": "2021-11-29T12:58:18Z",
    "version": 4,
    "changeset": 114338570,
    "user": "wheelmap_visitor",
    "uid": 290680,
    "tags": {
      "amenity": "restaurant",
      "name": "O Penedo",
      "opening_hours": "Mo-Sa 11:00-22:00; Su off",
      "wheelchair": "no"
    }
  },
  {
    "type": "node",
    "id": 1218142395,
    "lat": 37.2403285,
    "lon": -7.93717,
    "timestamp": "2022-04-24T16:58:24Z",
    "version": 3,
    "changeset": 120132289,
    "user": "mtmail",
    "uid": 8339,
    "tags": {
      "addr:city": "Barranco do Velho",
      "addr:postcode": "8100-159",
      "amenity": "restaurant",
      "cuisine": "regional",
      "name": "A Tia Bia",
      "outdoor_seating": "yes",
      "phone": "289 846 425",
      "source": "Survey dcp 25March2011",
      "tourism": "hotel",
      "website": "https://www.atiabia.com/"
    }
  },
  {
    "type": "node",
    "id": 1219435941,
    "lat": 37.2380908,
    "lon": -8.1725589,
    "timestamp": "2011-03-26T18:38:25Z",
    "version": 1,
    "changeset": 7678717,
    "user": "dcp",
    "uid": 44221,
    "tags": {
      "amenity": "restaurant",
      "name": "Fonte Pequena"
    }
  },
  {
    "type": "node",
    "id": 1219713410,
    "lat": 37.1292019,
    "lon": -8.2767366,
    "timestamp": "2018-07-14T01:50:11Z",
    "version": 2,
    "changeset": 60703244,
    "user": "topolusitania",
    "uid": 380552,
    "tags": {
      "amenity": "restaurant",
      "name": "Café Rocha"
    }
  },
  {
    "type": "node",
    "id": 1224611809,
    "lat": 37.2565599,
    "lon": -8.2860605,
    "timestamp": "2015-12-13T22:31:22Z",
    "version": 2,
    "changeset": 35934989,
    "user": "Hein Bouwmeester",
    "uid": 327924,
    "tags": {
      "amenity": "restaurant",
      "name": "Academico",
      "source": "Survey dcp 29March2011"
    }
  },
  {
    "type": "node",
    "id": 1254377401,
    "lat": 37.2330741,
    "lon": -8.1324827,
    "timestamp": "2022-02-06T19:31:57Z",
    "version": 2,
    "changeset": 117092094,
    "user": "Haisuli",
    "uid": 525254,
    "tags": {
      "amenity": "restaurant",
      "cuisine": "burger",
      "name": "Restaurante Hamburgo"
    }
  },
  {
    "type": "node",
    "id": 1260346874,
    "lat": 37.1629346,
    "lon": -8.2604795,
    "timestamp": "2018-02-21T19:30:53Z",
    "version": 2,
    "changeset": 56559898,
    "user": "Pedro Cantinho",
    "uid": 7652371,
    "tags": {
      "amenity": "restaurant",
      "name": "Restaurante Zig Zag"
    }
  },
  {
    "type": "node",
    "id": 1260346904,
    "lat": 37.1668568,
    "lon": -8.2576524,
    "timestamp": "2011-04-26T00:16:53Z",
    "version": 1,
    "changeset": 7970138,
    "user": "JPF_pt",
    "uid": 350918,
    "tags": {
      "amenity": "restaurant"
    }
  },
  {
    "type": "node",
    "id": 1260346907,
    "lat": 37.1646514,
    "lon": -8.256711,
    "timestamp": "2022-11-17T21:02:39Z",
    "version": 4,
    "changeset": 129059965,
    "user": "JPF_pt",
    "uid": 350918,
    "tags": {
      "addr:city": "Tunes",
      "addr:housenumber": "3",
      "addr:postcode": "8365-235",
      "addr:street": "Largo 1º de Dezembro",
      "amenity": "restaurant",
      "cuisine": "regional;coffee_shop;sandwich",
      "internet_access": "wlan",
      "internet_access:fee": "customers",
      "name": "Casa de Pasto O Largo"
    }
  },
  {
    "type": "node",
    "id": 1260363550,
    "lat": 37.1607526,
    "lon": -8.2615879,
    "timestamp": "2020-08-27T14:57:13Z",
    "version": 3,
    "changeset": 90034025,
    "user": "luisforte",
    "uid": 3305165,
    "tags": {
      "amenity": "restaurant",
      "delivery": "no",
      "name": "Restaurante Oliveira",
      "outdoor_seating": "yes",
      "smoking": "outside",
      "takeaway": "yes"
    }
  },
  {
    "type": "node",
    "id": 1268656106,
    "lat": 37.0170882,
    "lon": -7.9335187,
    "timestamp": "2024-10-07T22:07:52Z",
    "version": 4,
    "changeset": 157600734,
    "user": "o_andras",
    "uid": 13641767,
    "tags": {
      "amenity": "restaurant",
      "check_date": "2024-10-05",
      "cuisine": "regional",
      "name": "Sol e Jardiim",
      "outdoor_seating": "yes",
      "wheelchair": "yes"
    }
  },
  {
    "type": "node",
    "id": 1298529540,
    "lat": 37.0161502,
    "lon": -7.9307651,
    "timestamp": "2023-10-15T02:40:06Z",
    "version": 4,
    "changeset": 142598611,
    "user": "b-jazz-bot",
    "uid": 9451067,
    "tags": {
      "addr:housenumber": "9",
      "addr:postcode": "8000-404",
      "addr:street": "Rua do Pé da Cruz",
      "amenity": "restaurant",
      "cuisine": "chinese;japanese",
      "internet_access": "wlan",
      "name": "Sushimundo",
      "opening_hours": "Mo-Fr 12:00-15:00, 19:00-23:00; Sa-Su 12:00-15:00, 19:00-23:30",
      "phone": "+351 289 829 288",
      "website": "https://www.sushimundo.com/",
      "wheelchair": "limited"
    }
  },
  {
    "type": "node",
    "id": 1298529543,
    "lat": 37.0160045,
    "lon": -7.9303976,
    "timestamp": "2021-11-30T11:10:30Z",
    "version": 3,
    "changeset": 114378820,
    "user": "wheelmap_visitor",
    "uid": 290680,
    "tags": {
      "amenity": "restaurant",
      "name": "Velha Casa",
      "wheelchair": "limited"
    }
  },
  {
    "type": "node",
    "id": 1298529547,
    "lat": 37.0156881,
    "lon": -7.9299893,
    "timestamp": "2025-03-22T19:53:37Z",
    "version": 4,
    "changeset": 163962428,
    "user": "Alexandrcfif",
    "uid": 103003,
    "tags": {
      "amenity": "restaurant",
      "indoor_seating": "yes",
      "outdoor_seating": "yes",
      "wheelchair": "limited"
    }
  },
  {
    "type": "node",
    "id": 1312711619,
    "lat": 37.3886698,
    "lon": -8.2765679,
    "timestamp": "2020-10-04T11:55:40Z",
    "version": 2,
    "changeset": 91930005,
    "user": "Alexmol",
    "uid": 347293,
    "tags": {
      "amenity": "restaurant",
      "cuisine": "regional",
      "name": "O pôr do sol",
      "outdoor_seating": "yes"
    }
  },
  {
    "type": "node",
    "id": 1336124545,
    "lat": 37.0900057,
    "lon": -8.168106,
    "timestamp": "2023-03-11T16:21:56Z",
    "version": 2,
    "changeset": 133559479,
    "user": "JCT03",
    "uid": 17791812,
    "tags": {
      "amenity": "restaurant",
      "cuisine": "chinese",
      "name": "Restaurante Chinês Pine View"
    }
  },
  {
    "type": "node",
    "id": 1346428339,
    "lat": 37.1816502,
    "lon": -7.4535445,
    "timestamp": "2018-06-19T01:57:18Z",
    "version": 3,
    "changeset": 59961650,
    "user": "topolusitania",
    "uid": 380552,
    "tags": {
      "amenity": "restaurant",
      "cuisine": "regional",
      "name": "O Tapas"
    }
  },
  {
    "type": "node",
    "id": 1372790417,
    "lat": 37.0190747,
    "lon": -7.933495,
    "timestamp": "2021-11-30T11:21:49Z",
    "version": 3,
    "changeset": 114378820,
    "user": "wheelmap_visitor",
    "uid": 290680,
    "tags": {
      "amenity": "restaurant",
      "name": "Taska",
      "wheelchair": "limited"
    }
  },
  {
    "type": "node",
    "id": 1389342306,
    "lat": 37.2575527,
    "lon": -7.4204451,
    "timestamp": "2023-10-15T02:45:15Z",
    "version": 3,
    "changeset": 142598774,
    "user": "b-jazz-bot",
    "uid": 9451067,
    "tags": {
      "amenity": "restaurant",
      "cuisine": "indian",
      "internet_access": "wlan",
      "internet_access:fee": "no",
      "name": "Jag's Bar",
      "opening_hours": "10:00+",
      "phone": "(0034)959 053 617",
      "website": "https://www.jagsbistro.com/",
      "wheelchair": "yes"
    }
  },
  {
    "type": "node",
    "id": 1429416298,
    "lat": 37.1069365,
    "lon": -8.2307489,
    "timestamp": "2011-09-10T23:07:31Z",
    "version": 1,
    "changeset": 9265837,
    "user": "gsantos",
    "uid": 519883,
    "tags": {
      "amenity": "restaurant",
      "name": "Restaurante Martins"
    }
  },
  {
    "type": "node",
    "id": 1429416300,
    "lat": 37.1153324,
    "lon": -8.2304549,
    "timestamp": "2011-09-10T23:07:31Z",
    "version": 1,
    "changeset": 9265837,
    "user": "gsantos",
    "uid": 519883,
    "tags": {
      "amenity": "restaurant",
      "name": "Manjar"
    }
  },
  {
    "type": "node",
    "id": 1429416363,
    "lat": 37.1083547,
    "lon": -8.2308052,
    "timestamp": "2017-07-22T10:08:07Z",
    "version": 6,
    "changeset": 50478279,
    "user": "Little Brother",
    "uid": 1694420,
    "tags": {
      "amenity": "restaurant",
      "capacity": "50",
      "cuisine": "international,regional,fish,meat",
      "name": "Restaurant Lá Em Casa Grill",
      "opening_hours": "Mo-Su 11:00-24:00",
      "smoking": "isolated",
      "takeaway": "yes",
      "website": "https://www.facebook.com/pages/L%C3%A1-em-Casa-Grill/353262294861953?fref=nf"
    }
  },
  {
    "type": "node",
    "id": 1429416384,
    "lat": 37.1047653,
    "lon": -8.2313685,
    "timestamp": "2012-09-13T14:36:58Z",
    "version": 2,
    "changeset": 13096020,
    "user": "chipsterxx",
    "uid": 412095,
    "tags": {
      "amenity": "restaurant",
      "name": "Café Lima"
    }
  },
  {
    "type": "node",
    "id": 1429416480,
    "lat": 37.109313,
    "lon": -8.2304029,
    "timestamp": "2011-09-10T23:07:36Z",
    "version": 1,
    "changeset": 9265837,
    "user": "gsantos",
    "uid": 519883,
    "tags": {
      "amenity": "restaurant",
      "name": "Poente"
    }
  },
  {
    "type": "node",
    "id": 1429429320,
    "lat": 37.0912875,
    "lon": -8.2426472,
    "timestamp": "2011-09-10T23:33:15Z",
    "version": 1,
    "changeset": 9265837,
    "user": "gsantos",
    "uid": 519883,
    "tags": {
      "amenity": "restaurant",
      "cuisine": "italian",
      "name": "Isa's Pizzas"
    }
  },
  {
    "type": "node",
    "id": 1429429360,
    "lat": 37.0921304,
    "lon": -8.2408984,
    "timestamp": "2011-09-10T23:33:17Z",
    "version": 1,
    "changeset": 9265837,
    "user": "gsantos",
    "uid": 519883,
    "tags": {
      "amenity": "restaurant",
      "cuisine": "chicken",
      "name": "O Jorge"
    }
  },
  {
    "type": "node",
    "id": 1433965988,
    "lat": 37.0422052,
    "lon": -7.9708252,
    "timestamp": "2011-09-16T00:01:33Z",
    "version": 1,
    "changeset": 9312670,
    "user": "gsantos",
    "uid": 519883,
    "tags": {
      "amenity": "restaurant",
      "name": "Sandocábula"
    }
  },
  {
    "type": "node",
    "id": 1433965991,
    "lat": 37.0427226,
    "lon": -7.9698279,
    "timestamp": "2021-11-26T15:51:20Z",
    "version": 3,
    "changeset": 114241653,
    "user": "wheelmap_visitor",
    "uid": 290680,
    "tags": {
      "amenity": "restaurant",
      "cuisine": "italian",
      "name": "Alô Pizza",
      "wheelchair": "limited"
    }
  },
  {
    "type": "node",
    "id": 1433966002,
    "lat": 37.0434405,
    "lon": -7.971552,
    "timestamp": "2011-09-16T00:01:34Z",
    "version": 1,
    "changeset": 9312670,
    "user": "gsantos",
    "uid": 519883,
    "tags": {
      "amenity": "restaurant",
      "name": "Cantina"
    }
  },
  {
    "type": "node",
    "id": 1433966024,
    "lat": 37.0455514,
    "lon": -7.9735047,
    "timestamp": "2011-09-16T00:01:35Z",
    "version": 1,
    "changeset": 9312670,
    "user": "gsantos",
    "uid": 519883,
    "tags": {
      "alt_name": "Álvaro",
      "amenity": "restaurant",
      "name": "Snack-Bar da Associação Académica"
    }
  },
  {
    "type": "node",
    "id": 1433966034,
    "lat": 37.0426663,
    "lon": -7.9704138,
    "timestamp": "2021-05-15T15:32:19Z",
    "version": 3,
    "changeset": 104738823,
    "user": "Ruben Martins",
    "uid": 1702779,
    "tags": {
      "amenity": "restaurant",
      "cuisine": "regional",
      "name": "Bistro Caffe Snack Bar",
      "smoking": "separated"
    }
  },
  {
    "type": "node",
    "id": 1437801780,
    "lat": 37.1380312,
    "lon": -8.0228731,
    "timestamp": "2021-11-25T14:46:21Z",
    "version": 2,
    "changeset": 114203931,
    "user": "wheelmap_visitor",
    "uid": 290680,
    "tags": {
      "amenity": "restaurant",
      "cuisine": "regional",
      "name": "O Pescador",
      "wheelchair": "limited"
    }
  },
  {
    "type": "node",
    "id": 1437839442,
    "lat": 37.2360357,
    "lon": -8.1767583,
    "timestamp": "2011-09-19T21:57:16Z",
    "version": 1,
    "changeset": 9347218,
    "user": "geospot_mike",
    "uid": 232498,
    "tags": {
      "amenity": "restaurant",
      "cuisine": "regional"
    }
  },
  {
    "type": "node",
    "id": 1454380027,
    "lat": 37.0932808,
    "lon": -8.2685854,
    "timestamp": "2011-10-03T22:29:59Z",
    "version": 1,
    "changeset": 9465441,
    "user": "gsantos",
    "uid": 519883,
    "tags": {
      "amenity": "restaurant",
      "name": "Snack-Bar Vieira"
    }
  },
  {
    "type": "node",
    "id": 1520336113,
    "lat": 37.1278958,
    "lon": -7.6485848,
    "timestamp": "2011-11-27T22:08:34Z",
    "version": 1,
    "changeset": 9972644,
    "user": "Pedrosilva",
    "uid": 319110,
    "tags": {
      "amenity": "restaurant",
      "cuisine": "regional",
      "name": "Bica"
    }
  },
  {
    "type": "node",
    "id": 1590246677,
    "lat": 37.007155,
    "lon": -7.9937649,
    "timestamp": "2025-02-17T12:20:04Z",
    "version": 3,
    "changeset": 162609288,
    "user": "Bibissmonteiro",
    "uid": 22481749,
    "tags": {
      "addr:city": "Faro",
      "addr:housenumber": "6",
      "addr:postcode": "8005-520",
      "addr:street": "Avenida Nascente",
      "amenity": "restaurant",
      "name": "Sal'mare Beach Club",
      "opening_hours": "Mo-Su 09:30-0:00",
      "phone": "+351 938 965 725",
      "website": "https://www.facebook.com/SalmareBeachClub",
      "wheelchair": "yes"
    }
  },
  {
    "type": "node",
    "id": 1590246681,
    "lat": 37.0060475,
    "lon": -7.9921234,
    "timestamp": "2021-11-30T12:38:15Z",
    "version": 3,
    "changeset": 114378820,
    "user": "wheelmap_visitor",
    "uid": 290680,
    "tags": {
      "amenity": "restaurant",
      "wheelchair": "no"
    }
  },
  {
    "type": "node",
    "id": 1652859496,
    "lat": 37.0169585,
    "lon": -7.933209,
    "timestamp": "2021-05-09T14:43:59Z",
    "version": 2,
    "changeset": 104399291,
    "user": "lalolan",
    "uid": 11113526,
    "tags": {
      "amenity": "restaurant",
      "name": "Restaurant Dois Irmãos",
      "wheelchair": "yes"
    }
  },
  {
    "type": "node",
    "id": 1652859510,
    "lat": 37.0744881,
    "lon": -8.120584,
    "timestamp": "2016-06-15T11:23:42Z",
    "version": 2,
    "changeset": 40036543,
    "user": "apires",
    "uid": 11117,
    "tags": {
      "amenity": "restaurant",
      "name": "Restaurant Peppers Steakhouse",
      "wheelchair": "yes"
    }
  },
  {
    "type": "node",
    "id": 1672204277,
    "lat": 37.1360227,
    "lon": -7.5971991,
    "timestamp": "2017-11-25T20:15:41Z",
    "version": 4,
    "changeset": 54079275,
    "user": "zermes",
    "uid": 2678365,
    "tags": {
      "amenity": "restaurant",
      "name": "Clube Recreativo Cabanense Restaurante",
      "source": "survey"
    }
  },
  {
    "type": "node",
    "id": 1711127800,
    "lat": 37.1365784,
    "lon": -7.5965023,
    "timestamp": "2014-06-16T14:13:58Z",
    "version": 2,
    "changeset": 22965479,
    "user": "topolusitania",
    "uid": 380552,
    "tags": {
      "amenity": "restaurant",
      "cuisine": "regional",
      "name": "Restaurante Pedro"
    }
  },
  {
    "type": "node",
    "id": 1719159152,
    "lat": 37.0977449,
    "lon": -8.2066443,
    "timestamp": "2014-08-05T23:29:15Z",
    "version": 2,
    "changeset": 24566267,
    "user": "orhygine",
    "uid": 148173,
    "tags": {
      "amenity": "restaurant"
    }
  },
  {
    "type": "node",
    "id": 1719159153,
    "lat": 37.0930552,
    "lon": -8.2074924,
    "timestamp": "2012-04-16T11:02:12Z",
    "version": 2,
    "changeset": 11320625,
    "user": "Balaia Golf Village",
    "uid": 660611,
    "tags": {
      "amenity": "restaurant",
      "name": "A Varanda Restaurant"
    }
  },
  {
    "type": "node",
    "id": 1746928118,
    "lat": 37.6504667,
    "lon": -8.2249537,
    "timestamp": "2012-06-04T13:59:01Z",
    "version": 2,
    "changeset": 11792853,
    "user": "wheelmap_visitor",
    "uid": 290680,
    "tags": {
      "amenity": "restaurant",
      "name": "Churrasqueira Raposo",
      "wheelchair": "no"
    }
  },
  {
    "type": "node",
    "id": 1819616515,
    "lat": 37.0978145,
    "lon": -8.2284775,
    "timestamp": "2012-07-10T00:42:38Z",
    "version": 1,
    "changeset": 12168357,
    "user": "mikeypinhas",
    "uid": 620891,
    "tags": {
      "amenity": "restaurant",
      "name": "American Diner 1"
    }
  },
  {
    "type": "node",
    "id": 1819617757,
    "lat": 37.0913976,
    "lon": -8.2219713,
    "timestamp": "2012-07-10T00:47:18Z",
    "version": 1,
    "changeset": 12168370,
    "user": "mikeypinhas",
    "uid": 620891,
    "tags": {
      "amenity": "restaurant",
      "name": "American Diner 2"
    }
  },
  {
    "type": "node",
    "id": 1839362228,
    "lat": 37.1276794,
    "lon": -7.6500702,
    "timestamp": "2017-09-24T21:13:34Z",
    "version": 2,
    "changeset": 52339562,
    "user": "zermes",
    "uid": 2678365,
    "tags": {
      "amenity": "restaurant",
      "cuisine": "regional",
      "internet_access": "no",
      "name": "Casa Simão",
      "opening_hours": "Mo-Su 10:30-23:00",
      "smoking": "no"
    }
  },
  {
    "type": "node",
    "id": 1839894234,
    "lat": 37.1271472,
    "lon": -7.6478589,
    "timestamp": "2012-07-27T14:38:56Z",
    "version": 1,
    "changeset": 12512385,
    "user": "Pedrosilva",
    "uid": 319110,
    "tags": {
      "amenity": "restaurant",
      "cuisine": "italian",
      "name": "Fenicia"
    }
  },
  {
    "type": "node",
    "id": 1867692839,
    "lat": 37.032423,
    "lon": -7.9596585,
    "timestamp": "2021-11-26T15:18:27Z",
    "version": 2,
    "changeset": 114241653,
    "user": "wheelmap_visitor",
    "uid": 290680,
    "tags": {
      "amenity": "restaurant",
      "wheelchair": "limited"
    }
  },
  {
    "type": "node",
    "id": 1867692846,
    "lat": 37.0299906,
    "lon": -7.9663318,
    "timestamp": "2021-11-26T15:45:13Z",
    "version": 2,
    "changeset": 114241653,
    "user": "wheelmap_visitor",
    "uid": 290680,
    "tags": {
      "amenity": "restaurant",
      "wheelchair": "yes"
    }
  },
  {
    "type": "node",
    "id": 1867692849,
    "lat": 37.0335536,
    "lon": -7.9648942,
    "timestamp": "2021-11-26T15:46:03Z",
    "version": 2,
    "changeset": 114241653,
    "user": "wheelmap_visitor",
    "uid": 290680,
    "tags": {
      "amenity": "restaurant",
      "wheelchair": "limited"
    }
  },
  {
    "type": "node",
    "id": 1867692856,
    "lat": 37.0254538,
    "lon": -7.96314,
    "timestamp": "2025-03-22T17:11:17Z",
    "version": 5,
    "changeset": 163956968,
    "user": "Alexandrcfif",
    "uid": 103003,
    "tags": {
      "amenity": "restaurant",
      "indoor_seating": "yes",
      "name": "Restaurant Os Manos",
      "outdoor_seating": "yes",
      "wheelchair": "no"
    }
  },
  {
    "type": "node",
    "id": 1880286073,
    "lat": 37.0903547,
    "lon": -8.1906034,
    "timestamp": "2022-11-02T00:09:29Z",
    "version": 4,
    "changeset": 128367294,
    "user": "businessesMan",
    "uid": 12999434,
    "tags": {
      "addr:unit": "Loja A – Fase 2",
      "amenity": "restaurant",
      "contact:facebook": "https://www.facebook.com/fratelli.net/",
      "contact:instagram": "https://www.instagram.com/fratelli_pizzeria_popolare/",
      "cuisine": "italian",
      "email": "general@fratelli.pt",
      "name": "Pizzeria Fratelli",
      "opening_hours": "Tu-Su 16:00-24:00",
      "phone": "+351 289 502 217",
      "website": "https://fratelli.pt/pop/"
    }
  },
  {
    "type": "node",
    "id": 1944902060,
    "lat": 37.67095,
    "lon": -7.5009184,
    "timestamp": "2021-07-24T15:49:23Z",
    "version": 3,
    "changeset": 108537583,
    "user": "luisforte",
    "uid": 3305165,
    "tags": {
      "amenity": "restaurant",
      "cuisine": "regional",
      "name": "São Domingos",
      "opening_hours": "Tu-Su 00:00-24:00"
    }
  },
  {
    "type": "node",
    "id": 1945946913,
    "lat": 37.0559927,
    "lon": -7.7452033,
    "timestamp": "2023-08-16T21:07:50Z",
    "version": 4,
    "changeset": 139985103,
    "user": "ruedigerblock",
    "uid": 2277751,
    "tags": {
      "amenity": "restaurant",
      "diet:vegetarian": "yes",
      "level": "0",
      "name": "Escandinávia Green Spirit",
      "outdoor_seating": "yes",
      "smoking": "outside",
      "takeaway": "yes",
      "toilets": "yes",
      "toilets:access": "customers",
      "wheelchair": "yes"
    }
  },
  {
    "type": "node",
    "id": 1945946917,
    "lat": 37.0552544,
    "lon": -7.7446427,
    "timestamp": "2021-11-26T15:53:02Z",
    "version": 3,
    "changeset": 114241653,
    "user": "wheelmap_visitor",
    "uid": 290680,
    "tags": {
      "amenity": "restaurant",
      "name": "Café dos Mestres",
      "wheelchair": "limited"
    }
  },
  {
    "type": "node",
    "id": 1945946920,
    "lat": 37.053418,
    "lon": -7.7466868,
    "timestamp": "2021-11-26T15:59:30Z",
    "version": 2,
    "changeset": 114241653,
    "user": "wheelmap_visitor",
    "uid": 290680,
    "tags": {
      "amenity": "restaurant",
      "wheelchair": "limited"
    }
  },
  {
    "type": "node",
    "id": 1945946922,
    "lat": 37.0536277,
    "lon": -7.7462523,
    "timestamp": "2021-11-26T15:57:37Z",
    "version": 2,
    "changeset": 114241653,
    "user": "wheelmap_visitor",
    "uid": 290680,
    "tags": {
      "amenity": "restaurant",
      "wheelchair": "limited"
    }
  },
  {
    "type": "node",
    "id": 1945946923,
    "lat": 37.0535462,
    "lon": -7.7464079,
    "timestamp": "2021-11-26T15:57:48Z",
    "version": 2,
    "changeset": 114241653,
    "user": "wheelmap_visitor",
    "uid": 290680,
    "tags": {
      "amenity": "restaurant",
      "wheelchair": "limited"
    }
  },
  {
    "type": "node",
    "id": 1946141427,
    "lat": 37.0548346,
    "lon": -7.7504894,
    "timestamp": "2012-10-04T15:22:36Z",
    "version": 1,
    "changeset": 13362047,
    "user": "RichardAth",
    "uid": 940912,
    "tags": {
      "amenity": "restaurant",
      "cuisine": "pizza"
    }
  },
  {
    "type": "node",
    "id": 1946146096,
    "lat": 37.0578795,
    "lon": -7.7485551,
    "timestamp": "2023-09-24T21:12:24Z",
    "version": 6,
    "changeset": 141700455,
    "user": "osm915",
    "uid": 3245367,
    "tags": {
      "amenity": "restaurant",
      "diet:vegetarian": "no",
      "name": "Crispim",
      "outdoor_seating": "yes",
      "phone": "+351 289 793244",
      "wheelchair": "limited"
    }
  },
  {
    "type": "node",
    "id": 1953339826,
    "lat": 37.055421,
    "lon": -7.7463981,
    "timestamp": "2019-10-17T18:12:25Z",
    "version": 4,
    "changeset": 75857179,
    "user": "PKla",
    "uid": 200382,
    "tags": {
      "amenity": "restaurant",
      "diet:vegetarian": "no",
      "name": "Restaurante Fuzeta"
    }
  },
  {
    "type": "node",
    "id": 1972833789,
    "lat": 37.1536392,
    "lon": -7.8683482,
    "timestamp": "2017-04-10T20:54:43Z",
    "version": 2,
    "changeset": 47638604,
    "user": "jpcp",
    "uid": 5479164,
    "tags": {
      "amenity": "restaurant",
      "name": "Restaurante Horta",
      "name:pt": "Restaurante Horta"
    }
  },
  {
    "type": "node",
    "id": 1972903721,
    "lat": 37.1250565,
    "lon": -7.6463108,
    "timestamp": "2022-09-26T12:29:19Z",
    "version": 3,
    "changeset": 126654228,
    "user": "seering4",
    "uid": 451372,
    "tags": {
      "amenity": "restaurant",
      "name": "Mares"
    }
  },
  {
    "type": "node",
    "id": 1982585550,
    "lat": 37.0936198,
    "lon": -7.6969673,
    "timestamp": "2025-02-02T14:40:24Z",
    "version": 3,
    "changeset": 162049278,
    "user": "Đuro Jiří",
    "uid": 14617702,
    "tags": {
      "amenity": "restaurant",
      "check_date": "2025-02-02",
      "cuisine": "regional",
      "indoor_seating": "yes",
      "name": "O Forno",
      "outdoor_seating": "yes"
    }
  },
  {
    "type": "node",
    "id": 1982585551,
    "lat": 37.1212824,
    "lon": -7.7165186,
    "timestamp": "2019-03-24T18:36:45Z",
    "version": 2,
    "changeset": 68480576,
    "user": "Alexmol",
    "uid": 347293,
    "tags": {
      "amenity": "restaurant",
      "cuisine": "regional",
      "name": "Os Arcos",
      "opening_hours": "Mo-Su 12:00-15:00,19:00-22:00"
    }
  },
  {
    "type": "node",
    "id": 1983356437,
    "lat": 37.0843229,
    "lon": -7.7877539,
    "timestamp": "2012-10-25T18:48:53Z",
    "version": 1,
    "changeset": 13630651,
    "user": "Alexmol",
    "uid": 347293,
    "tags": {
      "amenity": "restaurant",
      "name": "Colibri"
    }
  },
  {
    "type": "node",
    "id": 1983356459,
    "lat": 37.1396015,
    "lon": -7.7089038,
    "timestamp": "2012-10-25T18:48:53Z",
    "version": 1,
    "changeset": 13630651,
    "user": "Alexmol",
    "uid": 347293,
    "tags": {
      "amenity": "restaurant",
      "cuisine": "regional",
      "name": "Luís do Prego"
    }
  },
  {
    "type": "node",
    "id": 1983356467,
    "lat": 37.0869918,
    "lon": -7.7832716,
    "timestamp": "2018-12-14T10:56:34Z",
    "version": 3,
    "changeset": 65468794,
    "user": "Alexmol",
    "uid": 347293,
    "tags": {
      "amenity": "restaurant",
      "cuisine": "regional",
      "name": "Snack Bar A Caravela",
      "outdoor_seating": "yes"
    }
  },
  {
    "type": "node",
    "id": 1994052673,
    "lat": 37.0548218,
    "lon": -7.7447955,
    "timestamp": "2024-09-12T11:43:45Z",
    "version": 9,
    "changeset": 156524302,
    "user": "glomph",
    "uid": 334781,
    "tags": {
      "amenity": "restaurant",
      "cuisine": "regional;portuguese;fish;seafood",
      "name": "Restaurante Maresia",
      "wheelchair": "limited"
    }
  },
  {
    "type": "node",
    "id": 2024672513,
    "lat": 37.055302,
    "lon": -7.7467429,
    "timestamp": "2019-10-17T18:17:03Z",
    "version": 4,
    "changeset": 75857179,
    "user": "PKla",
    "uid": 200382,
    "tags": {
      "amenity": "restaurant",
      "diet:vegetarian": "no",
      "name": "Ti Anica da Fuzeta"
    }
  },
  {
    "type": "node",
    "id": 2024672514,
    "lat": 37.0553425,
    "lon": -7.7466268,
    "timestamp": "2019-10-17T18:18:14Z",
    "version": 4,
    "changeset": 75857179,
    "user": "PKla",
    "uid": 200382,
    "tags": {
      "amenity": "restaurant",
      "diet:vegetarian": "no",
      "name": "Iguarias da vila"
    }
  },
  {
    "type": "node",
    "id": 2070582342,
    "lat": 37.0938237,
    "lon": -8.1892052,
    "timestamp": "2012-12-23T23:15:08Z",
    "version": 2,
    "changeset": 14384369,
    "user": "jimhenry",
    "uid": 1140906,
    "tags": {
      "amenity": "restaurant",
      "cuisine": "regional",
      "name": "Tavertino's"
    }
  },
  {
    "type": "node",
    "id": 2070607623,
    "lat": 37.097527,
    "lon": -8.173753,
    "timestamp": "2019-04-02T06:59:58Z",
    "version": 3,
    "changeset": 68779497,
    "user": "b-jazz-bot",
    "uid": 9451067,
    "tags": {
      "addr:postcode": "8200-252",
      "amenity": "restaurant",
      "cuisine": "regional",
      "name": "A Lagosteira",
      "website": "https://www.alagosteira.com/"
    }
  },
  {
    "type": "node",
    "id": 2070639923,
    "lat": 37.0912266,
    "lon": -8.2223462,
    "timestamp": "2018-07-05T18:42:14Z",
    "version": 2,
    "changeset": 60444829,
    "user": "Zevier",
    "uid": 8491595,
    "tags": {
      "addr:housename": "Edif. Oura Azul",
      "addr:postcode": "8200-269",
      "addr:street": "Estrada de Santa Eulalia",
      "amenity": "restaurant",
      "cuisine": "fish",
      "name": "Ze do Peixe Assado"
    }
  },
  {
    "type": "node",
    "id": 2070657463,
    "lat": 37.1227678,
    "lon": -8.1899799,
    "timestamp": "2020-08-05T17:21:13Z",
    "version": 3,
    "changeset": 88994015,
    "user": "luisforte",
    "uid": 3305165,
    "tags": {
      "addr:postcode": "8100-087",
      "addr:street": "EN 125 Pata Cima",
      "amenity": "restaurant",
      "cuisine": "regional",
      "name": "Antiquários Dos Leitões"
    }
  },
  {
    "type": "node",
    "id": 2070874900,
    "lat": 37.0931346,
    "lon": -8.2231381,
    "timestamp": "2012-12-16T23:13:57Z",
    "version": 1,
    "changeset": 14300199,
    "user": "jimhenry",
    "uid": 1140906,
    "tags": {
      "addr:housename": "Apartamentos Domino Santa Eulalia",
      "addr:postcode": "8200",
      "addr:street": "Estrada de Santa Eulalia",
      "amenity": "restaurant",
      "cuisine": "regional",
      "name": "Restaurante Eduardo's"
    }
  },
  {
    "type": "node",
    "id": 2070940871,
    "lat": 37.1380247,
    "lon": -8.0249076,
    "timestamp": "2021-11-25T14:45:07Z",
    "version": 2,
    "changeset": 114203931,
    "user": "wheelmap_visitor",
    "uid": 290680,
    "tags": {
      "addr:housename": "Restaurante Atelier do Bacalhau",
      "addr:housenumber": "27",
      "addr:postcode": "8100-687",
      "addr:street": "Rua Sao Paulo",
      "amenity": "restaurant",
      "cuisine": "fish",
      "name": "Restaurante Atelier do Bacalhau",
      "wheelchair": "yes"
    }
  },
  {
    "type": "node",
    "id": 2080587574,
    "lat": 37.0936073,
    "lon": -8.1972744,
    "timestamp": "2022-10-30T21:38:20Z",
    "version": 4,
    "changeset": 128264779,
    "user": "businessesMan",
    "uid": 12999434,
    "tags": {
      "amenity": "restaurant",
      "cuisine": "italian",
      "name": "Aroma Di Mare"
    }
  },
  {
    "type": "node",
    "id": 2092826772,
    "lat": 37.0838301,
    "lon": -8.083451,
    "timestamp": "2021-04-08T15:18:21Z",
    "version": 2,
    "changeset": 102575214,
    "user": "Ruben Martins",
    "uid": 1702779,
    "tags": {
      "amenity": "restaurant",
      "cuisine": "international",
      "name": "Paisagem"
    }
  },
  {
    "type": "node",
    "id": 2163823724,
    "lat": 37.4711714,
    "lon": -7.4718336,
    "timestamp": "2013-02-20T13:07:41Z",
    "version": 1,
    "changeset": 15100127,
    "user": "<don>",
    "uid": 45059,
    "tags": {
      "amenity": "restaurant",
      "name": "Carmano"
    }
  },
  {
    "type": "node",
    "id": 2163824190,
    "lat": 37.4710805,
    "lon": -7.4726671,
    "timestamp": "2025-02-18T02:30:49Z",
    "version": 3,
    "changeset": 162642144,
    "user": "PwnyTail",
    "uid": 10648338,
    "tags": {
      "amenity": "restaurant",
      "name": "Villa Velha",
      "opening_hours": "Tu-Su 12:00-14:30, 19:00-21:00"
    }
  },
  {
    "type": "node",
    "id": 2164274518,
    "lat": 37.3336969,
    "lon": -7.8178384,
    "timestamp": "2013-02-20T19:28:07Z",
    "version": 1,
    "changeset": 15103996,
    "user": "<don>",
    "uid": 45059,
    "tags": {
      "amenity": "restaurant",
      "cuisine": "regional",
      "name": "Retiro dos Cacadores"
    }
  },
  {
    "type": "node",
    "id": 2164616859,
    "lat": 37.1525353,
    "lon": -7.8823793,
    "timestamp": "2023-07-19T22:14:38Z",
    "version": 4,
    "changeset": 138737154,
    "user": "Alex_Mapper",
    "uid": 8242461,
    "tags": {
      "addr:housenumber": "128",
      "addr:postcode": "8150-142",
      "addr:street": "Rua Doutor José Dias Sancho",
      "amenity": "restaurant",
      "cuisine": "chinese",
      "name": "Jin Yuan",
      "opening_hours": "Mo-Su 12:00-15:00,18:00-24:00; Tu off",
      "phone": "+351 289 047 241"
    }
  },
  {
    "type": "node",
    "id": 2164616860,
    "lat": 37.1525121,
    "lon": -7.8820611,
    "timestamp": "2021-04-20T13:13:57Z",
    "version": 3,
    "changeset": 103274117,
    "user": "lalolan",
    "uid": 11113526,
    "tags": {
      "amenity": "restaurant",
      "cuisine": "chicken",
      "name": "Luís dos Frangos",
      "opening_hours": "Tu-Su 12:00-15:00,19:00-22:30"
    }
  },
  {
    "type": "node",
    "id": 2164616861,
    "lat": 37.1526051,
    "lon": -7.883074,
    "timestamp": "2021-05-09T18:15:02Z",
    "version": 3,
    "changeset": 104406386,
    "user": "lalolan",
    "uid": 11113526,
    "tags": {
      "addr:city": "São Brás de Alportel",
      "addr:housenumber": "118",
      "addr:street": "Rua Doutor José Dias Sancho",
      "amenity": "restaurant",
      "cuisine": "indian",
      "name": "Maharaja Patiala",
      "opening_hours": "11:30-15:00,17:30-24:00",
      "phone": "+351 289 842 474"
    }
  },
  {
    "type": "node",
    "id": 2164616864,
    "lat": 37.0287752,
    "lon": -7.9450694,
    "timestamp": "2022-12-03T04:52:03Z",
    "version": 4,
    "changeset": 129665749,
    "user": "DiogoBaptista98",
    "uid": 1193685,
    "tags": {
      "amenity": "restaurant",
      "brand": "Pizza Hut",
      "brand:wikidata": "Q191615",
      "brand:wikipedia": "en:Pizza Hut",
      "cuisine": "pizza",
      "name": "Pizza Hut",
      "wheelchair": "yes"
    }
  },
  {
    "type": "node",
    "id": 2164616953,
    "lat": 37.1522599,
    "lon": -7.8883966,
    "timestamp": "2021-04-20T13:13:56Z",
    "version": 4,
    "changeset": 103274117,
    "user": "lalolan",
    "uid": 11113526,
    "tags": {
      "amenity": "restaurant",
      "cuisine": "pizza",
      "name": "Forneria do Largo",
      "opening_hours": "12:00-15:00,19:00-22:00",
      "outdoor_seating": "yes"
    }
  },
  {
    "type": "node",
    "id": 2189204507,
    "lat": 37.5354749,
    "lon": -8.184604,
    "timestamp": "2013-03-07T02:34:54Z",
    "version": 1,
    "changeset": 15277610,
    "user": "topolusitania",
    "uid": 380552,
    "tags": {
      "amenity": "restaurant"
    }
  },
  {
    "type": "node",
    "id": 2189204648,
    "lat": 37.5368463,
    "lon": -8.183285,
    "timestamp": "2022-03-24T12:01:16Z",
    "version": 2,
    "changeset": 118861704,
    "user": "topolusitania",
    "uid": 380552,
    "tags": {
      "amenity": "restaurant"
    }
  },
  {
    "type": "node",
    "id": 2201887558,
    "lat": 37.0850411,
    "lon": -8.2670994,
    "timestamp": "2013-03-14T17:07:17Z",
    "version": 1,
    "changeset": 15364635,
    "user": "dcp",
    "uid": 44221,
    "tags": {
      "amenity": "restaurant",
      "name": "Belize"
    }
  },
  {
    "type": "node",
    "id": 2201887560,
    "lat": 37.0850565,
    "lon": -8.2679061,
    "timestamp": "2020-04-25T23:19:00Z",
    "version": 2,
    "changeset": 84124429,
    "user": "Vyger",
    "uid": 9314899,
    "tags": {
      "amenity": "restaurant"
    }
  },
  {
    "type": "node",
    "id": 2212077921,
    "lat": 37.0925616,
    "lon": -8.2640652,
    "timestamp": "2013-03-20T22:38:34Z",
    "version": 1,
    "changeset": 15437542,
    "user": "Gwyneth Llewelyn",
    "uid": 394744,
    "tags": {
      "amenity": "restaurant",
      "cuisine": "italian",
      "name": "Mama Mia"
    }
  },
  {
    "type": "node",
    "id": 2216765267,
    "lat": 37.9236995,
    "lon": -8.2437194,
    "timestamp": "2023-11-28T13:51:22Z",
    "version": 2,
    "changeset": 144550127,
    "user": "som-tam",
    "uid": 362391,
    "tags": {
      "amenity": "restaurant",
      "name": "Colibri via Verde"
    }
  },
  {
    "type": "node",
    "id": 2216765545,
    "lat": 37.9235197,
    "lon": -8.2416756,
    "timestamp": "2013-03-23T15:50:49Z",
    "version": 1,
    "changeset": 15467621,
    "user": "Filohipo",
    "uid": 74212,
    "tags": {
      "amenity": "restaurant"
    }
  },
  {
    "type": "node",
    "id": 2218808424,
    "lat": 37.1255314,
    "lon": -7.6479142,
    "timestamp": "2013-03-24T16:38:54Z",
    "version": 1,
    "changeset": 15481463,
    "user": "gpesquero",
    "uid": 3584,
    "tags": {
      "amenity": "restaurant",
      "name": "Praça Velha",
      "source": "survey"
    }
  },
  {
    "type": "node",
    "id": 2278254710,
    "lat": 37.9374246,
    "lon": -7.5921797,
    "timestamp": "2019-02-24T01:17:00Z",
    "version": 3,
    "changeset": 67506835,
    "user": "hvalentim",
    "uid": 705092,
    "tags": {
      "amenity": "restaurant",
      "name": "Arrozinho de Feijão"
    }
  },
  {
    "type": "node",
    "id": 2278452442,
    "lat": 37.9410745,
    "lon": -7.5965913,
    "timestamp": "2019-02-24T01:25:36Z",
    "version": 2,
    "changeset": 67506906,
    "user": "hvalentim",
    "uid": 705092,
    "tags": {
      "amenity": "restaurant",
      "name": "Cervejaria Lebrinha"
    }
  },
  {
    "type": "node",
    "id": 2294610159,
    "lat": 37.8338655,
    "lon": -8.2439597,
    "timestamp": "2013-05-07T11:31:55Z",
    "version": 1,
    "changeset": 16009234,
    "user": "ssantos",
    "uid": 1423717,
    "tags": {
      "amenity": "restaurant",
      "name": "O Bangula"
    }
  },
  {
    "type": "node",
    "id": 2302502147,
    "lat": 37.0857069,
    "lon": -7.9894454,
    "timestamp": "2024-10-12T15:05:48Z",
    "version": 3,
    "changeset": 157800186,
    "user": "Claudius Henrichs",
    "uid": 18069,
    "tags": {
      "addr:city": "Almancil",
      "addr:housename": "Sítio do Esteval",
      "addr:housenumber": "738-A",
      "addr:postcode": "8135-017",
      "addr:street": "Esteval",
      "amenity": "restaurant",
      "cuisine": "portuguese;burger;pizza",
      "name": "19 Caffè",
      "phone": "+351 289 991029",
      "website": "http://www.facebook.com/19caffe.esteval",
      "wheelchair": "yes"
    }
  },
  {
    "type": "node",
    "id": 2312163990,
    "lat": 37.1071914,
    "lon": -8.2126391,
    "timestamp": "2025-02-05T15:04:51Z",
    "version": 5,
    "changeset": 162169339,
    "user": "Đuro Jiří",
    "uid": 14617702,
    "tags": {
      "air_conditioning": "yes",
      "amenity": "restaurant",
      "check_date": "2025-02-05",
      "cuisine": "regional",
      "indoor_seating": "yes",
      "name": "O Victor",
      "outdoor_seating": "yes"
    }
  },
  {
    "type": "node",
    "id": 2374576820,
    "lat": 37.0593532,
    "lon": -8.0840451,
    "timestamp": "2019-03-22T05:17:22Z",
    "version": 4,
    "changeset": 68397221,
    "user": "b-jazz-bot",
    "uid": 9451067,
    "tags": {
      "amenity": "restaurant",
      "email": "bookings@bjsoceanside.com",
      "name": "BJs Oceanside",
      "phone": "+351910698479",
      "website": "https://www.bjsoceanside.com/",
      "wheelchair": "no"
    }
  },
  {
    "type": "node",
    "id": 2402265598,
    "lat": 37.1157055,
    "lon": -8.2322166,
    "timestamp": "2013-07-31T10:21:13Z",
    "version": 1,
    "changeset": 17163834,
    "user": "dcp",
    "uid": 44221,
    "tags": {
      "amenity": "restaurant"
    }
  },
  {
    "type": "node",
    "id": 2427807307,
    "lat": 37.1275801,
    "lon": -7.6484609,
    "timestamp": "2013-08-22T09:09:50Z",
    "version": 1,
    "changeset": 17452226,
    "user": "rvilarl",
    "uid": 506787,
    "tags": {
      "amenity": "restaurant",
      "cuisine": "french",
      "name": "Rive Gauche"
    }
  },
  {
    "type": "node",
    "id": 2428874331,
    "lat": 37.1278782,
    "lon": -7.6488447,
    "timestamp": "2013-08-23T07:36:34Z",
    "version": 1,
    "changeset": 17465926,
    "user": "rvilarl",
    "uid": 506787,
    "tags": {
      "amenity": "restaurant",
      "name": "Petisqueria Belmar"
    }
  },
  {
    "type": "node",
    "id": 2431564681,
    "lat": 37.101795,
    "lon": -7.6576552,
    "timestamp": "2017-09-20T21:45:31Z",
    "version": 4,
    "changeset": 52224708,
    "user": "zermes",
    "uid": 2678365,
    "tags": {
      "alt_name": "Tasquinha Casa do Povo",
      "amenity": "restaurant",
      "cuisine": "regional",
      "name": "A Casa do Polvo"
    }
  },
  {
    "type": "node",
    "id": 2435637561,
    "lat": 37.0691044,
    "lon": -8.107422,
    "timestamp": "2019-02-05T09:54:04Z",
    "version": 4,
    "changeset": 66926446,
    "user": "Alexmol",
    "uid": 347293,
    "tags": {
      "amenity": "restaurant",
      "cuisine": "fish",
      "name": "A Gaiata",
      "outdoor_seating": "yes",
      "phone": "+351 289 316617",
      "wheelchair": "no"
    }
  },
  {
    "type": "node",
    "id": 2435642399,
    "lat": 37.0690702,
    "lon": -8.1072503,
    "timestamp": "2013-09-01T02:26:37Z",
    "version": 2,
    "changeset": 17612569,
    "user": "Walking Stone",
    "uid": 275668,
    "tags": {
      "amenity": "restaurant",
      "cuisine": "regional",
      "name": "A Caravela",
      "outdoor_seating": "yes"
    }
  },
  {
    "type": "node",
    "id": 2435651824,
    "lat": 37.069244,
    "lon": -8.106925,
    "timestamp": "2013-08-28T19:22:51Z",
    "version": 1,
    "changeset": 17560542,
    "user": "Walking Stone",
    "uid": 275668,
    "tags": {
      "amenity": "restaurant",
      "cuisine": "pizza",
      "name": "Pizzaria Alibi",
      "outdoor_seating": "yes"
    }
  },
  {
    "type": "node",
    "id": 2435660388,
    "lat": 37.070135,
    "lon": -8.107225,
    "timestamp": "2024-04-29T19:41:55Z",
    "version": 6,
    "changeset": 150679094,
    "user": "lonvia",
    "uid": 26726,
    "tags": {
      "addr:city": "Quarteira",
      "addr:housenumber": "96",
      "addr:postcode": "8125",
      "addr:street": "Rua Vasco da Gama",
      "amenity": "restaurant",
      "cuisine": "portuguese",
      "delivery": "no",
      "internet_access": "wlan",
      "name": "Tasca do António",
      "opening_hours": "10:00-24:00",
      "outdoor_seating": "yes",
      "phone": "+351 289 040 932",
      "smoking": "yes",
      "wheelchair": "yes"
    }
  },
  {
    "type": "node",
    "id": 2435667169,
    "lat": 37.0701327,
    "lon": -8.1068877,
    "timestamp": "2013-09-01T02:37:14Z",
    "version": 2,
    "changeset": 17612636,
    "user": "Walking Stone",
    "uid": 275668,
    "tags": {
      "amenity": "restaurant",
      "cuisine": "portuguese",
      "name": "Snack Bar Meia Laranja",
      "outdoor_seating": "yes",
      "wheelchair": "yes"
    }
  },
  {
    "type": "node",
    "id": 2435676520,
    "lat": 37.070508,
    "lon": -8.107169,
    "timestamp": "2013-08-28T19:33:49Z",
    "version": 1,
    "changeset": 17560738,
    "user": "Walking Stone",
    "uid": 275668,
    "tags": {
      "amenity": "restaurant",
      "cuisine": "seafood",
      "name": "Restaurante Marisqueira Central",
      "outdoor_seating": "yes"
    }
  },
  {
    "type": "node",
    "id": 2435688116,
    "lat": 37.071196,
    "lon": -8.106784,
    "timestamp": "2013-08-28T19:38:22Z",
    "version": 1,
    "changeset": 17560813,
    "user": "Walking Stone",
    "uid": 275668,
    "tags": {
      "amenity": "restaurant",
      "cuisine": "pizza",
      "name": "Pizzaria Senhor Frog's",
      "outdoor_seating": "yes",
      "takeaway": "yes",
      "wheelchair": "limited"
    }
  },
  {
    "type": "node",
    "id": 2438929139,
    "lat": 37.07681,
    "lon": -8.11492,
    "timestamp": "2013-08-30T10:32:45Z",
    "version": 1,
    "changeset": 17586455,
    "user": "Walking Stone",
    "uid": 275668,
    "tags": {
      "amenity": "restaurant",
      "cuisine": "chicken",
      "name": "Restaurante Sr. Frango"
    }
  },
  {
    "type": "node",
    "id": 2438931029,
    "lat": 37.070758,
    "lon": -8.107894,
    "timestamp": "2013-08-30T10:34:12Z",
    "version": 1,
    "changeset": 17586482,
    "user": "Walking Stone",
    "uid": 275668,
    "tags": {
      "amenity": "restaurant",
      "cuisine": "chinese",
      "name": "Restaurante Jin Du",
      "outdoor_seating": "no",
      "takeaway": "yes"
    }
  },
  {
    "type": "node",
    "id": 2438936890,
    "lat": 37.06982,
    "lon": -8.108085,
    "timestamp": "2013-08-30T10:42:18Z",
    "version": 1,
    "changeset": 17586621,
    "user": "Walking Stone",
    "uid": 275668,
    "tags": {
      "amenity": "restaurant",
      "cuisine": "seafood",
      "name": "Restaurante o Búzio"
    }
  },
  {
    "type": "node",
    "id": 2448174363,
    "lat": 37.1317815,
    "lon": -7.8882412,
    "timestamp": "2013-09-06T15:12:16Z",
    "version": 1,
    "changeset": 17704811,
    "user": "PCardoso",
    "uid": 1736150,
    "tags": {
      "amenity": "restaurant",
      "cuisine": "regional",
      "name": "Adega Nunes"
    }
  },
  {
    "type": "node",
    "id": 2461809887,
    "lat": 37.0914156,
    "lon": -8.2218199,
    "timestamp": "2025-02-14T00:41:19Z",
    "version": 2,
    "changeset": 162485593,
    "user": "dmfr",
    "uid": 15324596,
    "tags": {
      "addr:city": "Albufeira",
      "addr:housename": "Edificio Pórtico",
      "addr:housenumber": "loja H",
      "addr:postcode": "8200-269",
      "addr:street": "Estrada de Santa Eulália",
      "amenity": "restaurant",
      "cuisine": "burger;kebab;pizza",
      "name": "Oura Supermarket"
    }
  },
  {
    "type": "node",
    "id": 2489311442,
    "lat": 37.0900405,
    "lon": -8.1687654,
    "timestamp": "2017-02-02T12:59:29Z",
    "version": 2,
    "changeset": 45746741,
    "user": "TurboMIEEC",
    "uid": 4827600,
    "tags": {
      "amenity": "restaurant",
      "name": "Flor do Mar"
    }
  },
  {
    "type": "node",
    "id": 2489311466,
    "lat": 37.0904098,
    "lon": -8.1684997,
    "timestamp": "2023-03-11T16:21:56Z",
    "version": 2,
    "changeset": 133559479,
    "user": "JCT03",
    "uid": 17791812,
    "tags": {
      "amenity": "restaurant",
      "name": "Frango Real"
    }
  },
  {
    "type": "node",
    "id": 2612039387,
    "lat": 37.1945531,
    "lon": -7.4159971,
    "timestamp": "2014-06-26T13:48:01Z",
    "version": 3,
    "changeset": 23185457,
    "user": "Joseph_Moon",
    "uid": 1864530,
    "tags": {
      "addr:city": "Vila Real de Santo António",
      "addr:housename": "Manjar do Marquês",
      "addr:housenumber": "9",
      "addr:postcode": "8900",
      "addr:street": "Praça Marquês de Pombal",
      "amenity": "restaurant",
      "capacity": "30",
      "name": "Manjar do Marquês",
      "source": "SGU"
    }
  },
  {
    "type": "node",
    "id": 2612039394,
    "lat": 37.1947332,
    "lon": -7.4160412,
    "timestamp": "2025-03-21T19:07:20Z",
    "version": 7,
    "changeset": 163921026,
    "user": "topolusitania",
    "uid": 380552,
    "tags": {
      "addr:city": "Vila Real de Santo António",
      "addr:housename": "Cantinho do Marquês",
      "addr:housenumber": "7",
      "addr:postcode": "8900",
      "addr:street": "Rua Teófilo Braga",
      "amenity": "restaurant",
      "internet_access": "wlan",
      "name": "Cantinho do Marquês",
      "source": "SGU"
    }
  },
  {
    "type": "node",
    "id": 2612039410,
    "lat": 37.1944831,
    "lon": -7.4159773,
    "timestamp": "2014-06-26T13:48:01Z",
    "version": 3,
    "changeset": 23185457,
    "user": "Joseph_Moon",
    "uid": 1864530,
    "tags": {
      "addr:city": "Vila Real de Santo António",
      "addr:housename": "Monumental",
      "addr:housenumber": "7",
      "addr:postcode": "8900",
      "addr:street": "Praça Marquês de Pombal",
      "amenity": "restaurant",
      "capacity": "30",
      "name": "Snack Bar Monumental",
      "source": "SGU"
    }
  },
  {
    "type": "node",
    "id": 2612432197,
    "lat": 37.1944187,
    "lon": -7.4168823,
    "timestamp": "2017-11-25T20:15:45Z",
    "version": 3,
    "changeset": 54079275,
    "user": "zermes",
    "uid": 2678365,
    "tags": {
      "addr:housenumber": "92",
      "addr:postcode": "8900",
      "addr:street": "Rua Dom Pedro V",
      "amenity": "restaurant",
      "cuisine": "regional",
      "name": "Casa das Sopas",
      "source": "SGU",
      "takeaway": "yes"
    }
  },
  {
    "type": "node",
    "id": 2612432199,
    "lat": 37.1943789,
    "lon": -7.4148131,
    "timestamp": "2018-07-10T09:13:02Z",
    "version": 3,
    "changeset": 60567835,
    "user": "Joseph_Moon",
    "uid": 1864530,
    "tags": {
      "addr:housenumber": "7",
      "addr:postcode": "8900",
      "addr:street": "Rua 5 de Outubro",
      "amenity": "restaurant",
      "name": "Joaquim Gomes",
      "source": "SGU"
    }
  },
  {
    "type": "node",
    "id": 2612432202,
    "lat": 37.1943612,
    "lon": -7.4168648,
    "timestamp": "2014-07-17T15:32:29Z",
    "version": 2,
    "changeset": 24203679,
    "user": "Joseph_Moon",
    "uid": 1864530,
    "tags": {
      "addr:housenumber": "90",
      "addr:postcode": "8900",
      "addr:street": "Rua D. Pedro V",
      "amenity": "restaurant",
      "cuisine": "seafood",
      "name": "A Casa do Bacalhau",
      "source": "SGU"
    }
  },
  {
    "type": "node",
    "id": 2612432204,
    "lat": 37.194591,
    "lon": -7.4162457,
    "timestamp": "2014-07-18T13:02:57Z",
    "version": 2,
    "changeset": 24220497,
    "user": "Joseph_Moon",
    "uid": 1864530,
    "tags": {
      "addr:city": "Vila Real de Santo António",
      "addr:housenumber": "70",
      "addr:postcode": "8900",
      "addr:street": "Rua Dr. Sousa Martins",
      "amenity": "restaurant",
      "name": "Snack Bar 2000",
      "smoking": "outside",
      "source": "SGU"
    }
  },
  {
    "type": "node",
    "id": 2612432207,
    "lat": 37.1943873,
    "lon": -7.4166461,
    "timestamp": "2014-07-17T17:03:57Z",
    "version": 2,
    "changeset": 24205285,
    "user": "Joseph_Moon",
    "uid": 1864530,
    "tags": {
      "addr:city": "Vila Real de Santo António",
      "addr:housenumber": "77",
      "addr:postcode": "8900",
      "addr:street": "Rua Almirante Cândido dos Reis",
      "amenity": "restaurant",
      "capacity": "50",
      "cuisine": "regional",
      "name": "Churrascaria Arninha",
      "smoking": "outside",
      "source": "SGU"
    }
  },
  {
    "type": "node",
    "id": 2612432208,
    "lat": 37.1939093,
    "lon": -7.4148685,
    "timestamp": "2015-08-28T07:12:49Z",
    "version": 6,
    "changeset": 33636689,
    "user": "sanchi",
    "uid": 170106,
    "tags": {
      "addr:city": "Vila Real de Santo António",
      "addr:housename": "Restaurante Pisa II",
      "addr:housenumber": "56",
      "addr:postcode": "8900",
      "addr:street": "Rua Jornal do Algrave",
      "amenity": "restaurant",
      "capacity": "40",
      "cuisine": "regional",
      "name": "Restaurante Pisa II",
      "source": "SGU"
    }
  },
  {
    "type": "node",
    "id": 2616082332,
    "lat": 37.1935769,
    "lon": -7.4175211,
    "timestamp": "2015-10-07T14:40:46Z",
    "version": 4,
    "changeset": 34492374,
    "user": "Joseph_Moon",
    "uid": 1864530,
    "tags": {
      "addr:city": "Vila Real de Santo António",
      "addr:housename": "Kebaab",
      "addr:housenumber": "109-B",
      "addr:postcode": "8900",
      "addr:street": "Rua Jacinto José de Andrade",
      "amenity": "restaurant",
      "capacity": "40",
      "cuisine": "indian",
      "name": "Kebaab",
      "source": "SGU"
    }
  },
  {
    "type": "node",
    "id": 2616282528,
    "lat": 37.1932748,
    "lon": -7.4140431,
    "timestamp": "2014-06-02T15:05:40Z",
    "version": 2,
    "changeset": 22695868,
    "user": "Joseph_Moon",
    "uid": 1864530,
    "tags": {
      "addr:city": "Vila Real de Santo António",
      "addr:housename": "OS Arcos",
      "addr:housenumber": "71",
      "addr:postcode": "8900",
      "addr:street": "Avenida da República",
      "amenity": "restaurant",
      "capacity": "100",
      "cuisine": "regional",
      "name": "Os Arcos",
      "source": "SGU"
    }
  },
  {
    "type": "node",
    "id": 2616282530,
    "lat": 37.1936067,
    "lon": -7.4141539,
    "timestamp": "2019-09-21T05:07:24Z",
    "version": 3,
    "changeset": 74739769,
    "user": "Luiyo",
    "uid": 316694,
    "tags": {
      "addr:city": "Vila Real de Santo António",
      "addr:housename": "O Pescador",
      "addr:housenumber": "85",
      "addr:postcode": "8900",
      "addr:street": "Avenida da República",
      "amenity": "restaurant",
      "capacity": "70",
      "cuisine": "regional",
      "name": "O Pescador",
      "phone": "+351 281 543 473",
      "source": "SGU"
    }
  },
  {
    "type": "node",
    "id": 2616282532,
    "lat": 37.1938339,
    "lon": -7.4142384,
    "timestamp": "2018-06-01T15:49:00Z",
    "version": 3,
    "changeset": 59465497,
    "user": "topolusitania",
    "uid": 380552,
    "tags": {
      "addr:city": "Vila Real de Santo António",
      "addr:housename": "Sem Espinhas Guadiana",
      "addr:housenumber": "99",
      "addr:postcode": "8900",
      "addr:street": "Avenida da República",
      "amenity": "restaurant",
      "capacity": "75",
      "cuisine": "regional",
      "name": "Sem Espinhas",
      "source": "SGU"
    }
  },
  {
    "type": "node",
    "id": 2616282536,
    "lat": 37.1941069,
    "lon": -7.4142974,
    "timestamp": "2014-06-02T15:50:08Z",
    "version": 2,
    "changeset": 22696831,
    "user": "Joseph_Moon",
    "uid": 1864530,
    "tags": {
      "addr:city": "Vila Real de Santo António",
      "addr:housename": "Restaurante Jardim",
      "addr:housenumber": "113",
      "addr:postcode": "8900",
      "addr:street": "Avenida da República",
      "amenity": "restaurant",
      "capacity": "50",
      "cuisine": "regional",
      "name": "Restaurante Jardim",
      "source": "SGU"
    }
  },
  {
    "type": "node",
    "id": 2616282540,
    "lat": 37.1943052,
    "lon": -7.4143657,
    "timestamp": "2014-06-02T15:53:03Z",
    "version": 2,
    "changeset": 22696901,
    "user": "Joseph_Moon",
    "uid": 1864530,
    "tags": {
      "addr:city": "Vila Real de Santo António",
      "addr:housename": "Pizzaria Honoratos",
      "addr:housenumber": "125",
      "addr:postcode": "8900",
      "addr:street": "Avenida da República",
      "amenity": "restaurant",
      "capacity": "70",
      "cuisine": "pizza,Regional",
      "name": "Pizzaria Honoratos",
      "source": "SGU"
    }
  },
  {
    "type": "node",
    "id": 2616346453,
    "lat": 37.1952947,
    "lon": -7.4147129,
    "timestamp": "2014-06-03T11:32:24Z",
    "version": 2,
    "changeset": 22712830,
    "user": "Joseph_Moon",
    "uid": 1864530,
    "tags": {
      "addr:city": "Vila Real de Santo António",
      "addr:housename": "Caves do Guadiana",
      "addr:housenumber": "163",
      "addr:postcode": "8900",
      "addr:street": "Avenida da República",
      "amenity": "restaurant",
      "capacity": "50",
      "cuisine": "regional",
      "name": "Caves do Guadiana",
      "source": "SGU"
    }
  },
  {
    "type": "node",
    "id": 2629644117,
    "lat": 37.1964989,
    "lon": -7.414692,
    "timestamp": "2017-07-12T15:12:48Z",
    "version": 2,
    "changeset": 50233306,
    "user": "osm-qa",
    "uid": 5670960,
    "tags": {
      "addr:city": "Vila Real de Santo António",
      "addr:housename": "Caçarola",
      "addr:housenumber": "S/N",
      "addr:postcode": "8900",
      "addr:street": "Avenida da República",
      "amenity": "restaurant",
      "capacity": "40",
      "cuisine": "regional",
      "name": "A Caçarola"
    }
  },
  {
    "type": "node",
    "id": 2631084274,
    "lat": 37.1934633,
    "lon": -7.4173595,
    "timestamp": "2018-07-09T13:05:54Z",
    "version": 2,
    "changeset": 60539773,
    "user": "Joseph_Moon",
    "uid": 1864530,
    "tags": {
      "addr:city": "Vila Real de Santo António",
      "addr:housename": "Nil Tapas Pizza e Pasta",
      "addr:housenumber": "96-A",
      "addr:postcode": "8900",
      "addr:street": "Rua Jacinto José de Andrade",
      "amenity": "restaurant",
      "capacity": "30",
      "cuisine": "international",
      "name": "Nil Tapas Pizza e Pasta",
      "source": "SGU"
    }
  },
  {
    "type": "node",
    "id": 2631290021,
    "lat": 37.195286,
    "lon": -7.4150789,
    "timestamp": "2014-06-05T09:24:31Z",
    "version": 2,
    "changeset": 22751663,
    "user": "Joseph_Moon",
    "uid": 1864530,
    "tags": {
      "addr:city": "Vila Real de Santo António",
      "addr:housenumber": "71",
      "addr:postcode": "8900",
      "addr:street": "Rua da Princesa",
      "amenity": "restaurant",
      "cuisine": "regional",
      "name": "Restaurante Rally",
      "source": "SGU"
    }
  },
  {
    "type": "node",
    "id": 2646548012,
    "lat": 37.0262641,
    "lon": -7.8448183,
    "timestamp": "2014-02-04T09:39:31Z",
    "version": 4,
    "changeset": 20368418,
    "user": "Terramoto",
    "uid": 1912536,
    "tags": {
      "amenity": "restaurant",
      "cuisine": "regional",
      "internet_access": "yes",
      "name": "A taska"
    }
  },
  {
    "type": "node",
    "id": 2781838584,
    "lat": 37.1251578,
    "lon": -7.6503209,
    "timestamp": "2014-04-10T17:14:09Z",
    "version": 1,
    "changeset": 21611419,
    "user": "topolusitania",
    "uid": 380552,
    "tags": {
      "amenity": "restaurant",
      "name": "Alvaro de Campos"
    }
  },
  {
    "type": "node",
    "id": 2794550943,
    "lat": 37.1251028,
    "lon": -7.6463188,
    "timestamp": "2014-04-17T09:29:13Z",
    "version": 2,
    "changeset": 21745747,
    "user": "aerx11",
    "uid": 136446,
    "tags": {
      "amenity": "restaurant",
      "name": "Hotel Residencial Marés",
      "phone": "+351 281 325 815",
      "tourism": "hotel",
      "website": "http://residencialmares.com/"
    }
  },
  {
    "type": "node",
    "id": 2870351936,
    "lat": 37.5127872,
    "lon": -8.059485,
    "timestamp": "2018-08-24T15:03:47Z",
    "version": 3,
    "changeset": 61961947,
    "user": "Lycan Izayoi",
    "uid": 8730387,
    "tags": {
      "amenity": "restaurant",
      "name": "Restaurante Serafim"
    }
  },
  {
    "type": "node",
    "id": 2883809203,
    "lat": 37.1985696,
    "lon": -7.318385,
    "timestamp": "2022-04-15T01:24:04Z",
    "version": 2,
    "changeset": 119733366,
    "user": "Johnbo",
    "uid": 915796,
    "tags": {
      "addr:city": "Isla Cristina",
      "addr:housenumber": "70",
      "addr:postcode": "21410",
      "addr:street": "Calle Extremadura",
      "amenity": "restaurant",
      "cuisine": "regional",
      "name": "La Isla"
    }
  },
  {
    "type": "node",
    "id": 2883811102,
    "lat": 37.2150302,
    "lon": -7.4088918,
    "timestamp": "2022-04-12T09:50:45Z",
    "version": 2,
    "changeset": 119613434,
    "user": "Johnbo",
    "uid": 915796,
    "tags": {
      "addr:city": "Ayamonte",
      "addr:housenumber": "14",
      "addr:postcode": "21400",
      "addr:street": "Calle José Pérez Barroso",
      "amenity": "restaurant",
      "cuisine": "regional",
      "name": "Mesón Plumas",
      "old_name": "Mesón La Vitola - Cas Chiqui Barberi",
      "website": "https://mesonplumas.negocio.site/"
    }
  },
  {
    "type": "node",
    "id": 2883816501,
    "lat": 37.2203682,
    "lon": -7.4077852,
    "timestamp": "2022-04-11T11:21:11Z",
    "version": 2,
    "changeset": 119574183,
    "user": "Johnbo",
    "uid": 915796,
    "tags": {
      "addr:city": "Ayamonte",
      "addr:postcode": "21400",
      "addr:street": "Calle Galdames",
      "alt_name": "La Luli",
      "amenity": "restaurant",
      "contact:facebook": "https://www.facebook.com/mesonloscaleros/",
      "cuisine": "regional",
      "name": "Mesón Los Caleros",
      "phone": "+34 959 47 03 94"
    }
  },
  {
    "type": "node",
    "id": 2918696425,
    "lat": 37.1353628,
    "lon": -7.6012909,
    "timestamp": "2021-07-20T11:36:52Z",
    "version": 3,
    "changeset": 108315075,
    "user": "DanielFig",
    "uid": 8246041,
    "tags": {
      "amenity": "restaurant",
      "cuisine": "regional",
      "name": "Ideal"
    }
  },
  {
    "type": "node",
    "id": 2934854359,
    "lat": 37.9428861,
    "lon": -7.5962119,
    "timestamp": "2019-02-23T20:23:26Z",
    "version": 2,
    "changeset": 67502518,
    "user": "hvalentim",
    "uid": 705092,
    "tags": {
      "amenity": "restaurant",
      "cuisine": "regional",
      "name": "Restaurante Adega Molhó Bico"
    }
  },
  {
    "type": "node",
    "id": 2957544445,
    "lat": 37.0629758,
    "lon": -7.9691858,
    "timestamp": "2014-07-10T18:25:47Z",
    "version": 1,
    "changeset": 24068870,
    "user": "topolusitania",
    "uid": 380552,
    "tags": {
      "amenity": "restaurant",
      "name": "Restaurante Austrália"
    }
  },
  {
    "type": "node",
    "id": 2989720361,
    "lat": 37.0129045,
    "lon": -7.9351155,
    "timestamp": "2025-03-23T09:21:43Z",
    "version": 8,
    "changeset": 163977377,
    "user": "Alexandrcfif",
    "uid": 103003,
    "tags": {
      "addr:housenumber": "10",
      "addr:postcode": "8000-138",
      "addr:street": "Largo da Sé",
      "amenity": "restaurant",
      "indoor_seating": "yes",
      "name": "Taberna Spot",
      "old_name": "Mesa dos mouros",
      "outdoor_seating": "yes",
      "wheelchair": "limited"
    }
  },
  {
    "type": "node",
    "id": 2991986537,
    "lat": 37.0167958,
    "lon": -7.9353842,
    "timestamp": "2021-11-30T11:42:49Z",
    "version": 3,
    "changeset": 114378820,
    "user": "wheelmap_visitor",
    "uid": 290680,
    "tags": {
      "addr:housenumber": "16",
      "addr:postcode": "8000-078",
      "addr:street": "Rua Conselheiro Bívar",
      "amenity": "restaurant",
      "name": "Restaurante Academico",
      "wheelchair": "limited"
    }
  },
  {
    "type": "node",
    "id": 2991990575,
    "lat": 37.0170838,
    "lon": -7.9358553,
    "timestamp": "2022-09-04T10:55:37Z",
    "version": 3,
    "changeset": 125767785,
    "user": "wille",
    "uid": 360183,
    "tags": {
      "amenity": "restaurant",
      "check_date": "2022-09-03",
      "name": "Aperitivo",
      "wheelchair": "limited"
    }
  },
  {
    "type": "node",
    "id": 2991991340,
    "lat": 37.0170755,
    "lon": -7.9357976,
    "timestamp": "2021-11-26T16:56:34Z",
    "version": 2,
    "changeset": 114241653,
    "user": "wheelmap_visitor",
    "uid": 290680,
    "tags": {
      "amenity": "restaurant",
      "cuisine": "indian",
      "name": "New Taj Mal Tandoori",
      "wheelchair": "no"
    }
  },
  {
    "type": "node",
    "id": 2995116435,
    "lat": 37.089721,
    "lon": -8.1919066,
    "timestamp": "2023-10-20T19:37:10Z",
    "version": 5,
    "changeset": 142889541,
    "user": "osm915",
    "uid": 3245367,
    "tags": {
      "addr:city": "Olhos D'Água",
      "addr:postcode": "8200-647",
      "addr:street": "Rua das Gémeas",
      "amenity": "restaurant",
      "cuisine": "regional;fish",
      "description": "Beach Restaurant Bar",
      "ele": "5",
      "name": "Pássaro Azul",
      "phone": "+351 289 502 852",
      "source": "eigene Anschauung",
      "wheelchair": "no"
    }
  },
  {
    "type": "node",
    "id": 2996746335,
    "lat": 37.0177426,
    "lon": -7.9381044,
    "timestamp": "2023-09-10T07:44:34Z",
    "version": 4,
    "changeset": 141050566,
    "user": "wille",
    "uid": 360183,
    "tags": {
      "amenity": "restaurant",
      "check_date": "2023-09-09",
      "cuisine": "japanese",
      "internet_access": "wlan",
      "name": "Osaka",
      "wheelchair": "yes"
    }
  },
  {
    "type": "node",
    "id": 2996940153,
    "lat": 37.1376493,
    "lon": -8.0237723,
    "timestamp": "2021-11-25T14:45:38Z",
    "version": 6,
    "changeset": 114203931,
    "user": "wheelmap_visitor",
    "uid": 290680,
    "tags": {
      "amenity": "restaurant",
      "cuisine": "regional",
      "email": "museudolagar@sapo.pt",
      "name": "Restaurante Museu do Lagar",
      "opening_hours": "Mo-Su 12:00-15:00, 19:00-23:00",
      "phone": "+351 289 422 718",
      "wheelchair": "limited"
    }
  },
  {
    "type": "node",
    "id": 2997253242,
    "lat": 37.0171136,
    "lon": -7.9334112,
    "timestamp": "2024-10-07T22:07:52Z",
    "version": 4,
    "changeset": 157600734,
    "user": "o_andras",
    "uid": 13641767,
    "tags": {
      "amenity": "restaurant",
      "check_date": "2024-10-05",
      "contact:phone": "+351 289 823 337",
      "cuisine": "regional",
      "name": "Dois Irmãos",
      "opening_hours": "11:30-23:00",
      "outdoor_seating": "yes",
      "payment:cash": "yes",
      "payment:credit_cards": "yes",
      "payment:debit_cards": "yes",
      "ref:vatin": "PT518086470",
      "smoking": "outside",
      "toilets": "yes",
      "wheelchair": "limited"
    }
  },
  {
    "type": "node",
    "id": 2997253243,
    "lat": 37.0170578,
    "lon": -7.9336154,
    "timestamp": "2024-10-07T22:07:52Z",
    "version": 3,
    "changeset": 157600734,
    "user": "o_andras",
    "uid": 13641767,
    "tags": {
      "amenity": "restaurant",
      "check_date": "2024-10-05",
      "name": "Amore Mio",
      "outdoor_seating": "yes",
      "wheelchair": "limited"
    }
  },
  {
    "type": "node",
    "id": 3010718282,
    "lat": 37.1755692,
    "lon": -7.5327209,
    "timestamp": "2014-08-11T16:53:40Z",
    "version": 1,
    "changeset": 24682989,
    "user": "AmaroM",
    "uid": 2195153,
    "tags": {
      "addr:city": "Vila Nova de Cacela",
      "addr:postcode": "8900-067",
      "addr:street": "Avenida Manuel G. Rosa Mendes",
      "amenity": "restaurant",
      "cuisine": "regional",
      "name": "A Camponesa",
      "opening_hours": "Encerra à segunda-feira",
      "phone": "+351 281 951 152"
    }
  },
  {
    "type": "node",
    "id": 3070514232,
    "lat": 37.1191938,
    "lon": -8.2394226,
    "timestamp": "2014-09-10T17:23:15Z",
    "version": 1,
    "changeset": 25352579,
    "user": "apires",
    "uid": 11117,
    "tags": {
      "amenity": "restaurant",
      "cuisine": "regional",
      "name": "Churrasqueira O Nosso Franguinho"
    }
  },
  {
    "type": "node",
    "id": 3077148061,
    "lat": 37.1255572,
    "lon": -7.6486826,
    "timestamp": "2021-05-26T21:40:15Z",
    "version": 2,
    "changeset": 105381018,
    "user": "lalolan",
    "uid": 11113526,
    "tags": {
      "amenity": "restaurant",
      "cuisine": "indian",
      "name": "Indian Restaurant"
    }
  },
  {
    "type": "node",
    "id": 3077148064,
    "lat": 37.1247874,
    "lon": -7.64589,
    "timestamp": "2014-09-14T17:53:01Z",
    "version": 1,
    "changeset": 25438311,
    "user": "s1xs",
    "uid": 183217,
    "tags": {
      "amenity": "restaurant",
      "name": "O Parracho"
    }
  },
  {
    "type": "node",
    "id": 3077148065,
    "lat": 37.1244876,
    "lon": -7.6479093,
    "timestamp": "2014-09-14T17:53:01Z",
    "version": 1,
    "changeset": 25438311,
    "user": "s1xs",
    "uid": 183217,
    "tags": {
      "amenity": "restaurant",
      "name": "Pizzaria Mamma Mia"
    }
  },
  {
    "type": "node",
    "id": 3077148078,
    "lat": 37.125767,
    "lon": -7.6491715,
    "timestamp": "2021-06-23T19:21:18Z",
    "version": 3,
    "changeset": 106857188,
    "user": "lalolan",
    "uid": 11113526,
    "tags": {
      "amenity": "restaurant",
      "cuisine": "portuguese",
      "name": "Restaurante América"
    }
  },
  {
    "type": "node",
    "id": 3077148080,
    "lat": 37.1251305,
    "lon": -7.6465239,
    "timestamp": "2014-09-14T17:53:01Z",
    "version": 1,
    "changeset": 25438311,
    "user": "s1xs",
    "uid": 183217,
    "tags": {
      "amenity": "restaurant",
      "cuisine": "indian",
      "name": "Taj Mahal"
    }
  },
  {
    "type": "node",
    "id": 3078909895,
    "lat": 37.0898755,
    "lon": -8.0747589,
    "timestamp": "2014-09-15T18:57:42Z",
    "version": 1,
    "changeset": 25462978,
    "user": "lb318",
    "uid": 1644153,
    "tags": {
      "amenity": "restaurant"
    }
  },
  {
    "type": "node",
    "id": 3078909896,
    "lat": 37.0895968,
    "lon": -8.0758432,
    "timestamp": "2014-09-15T18:57:42Z",
    "version": 1,
    "changeset": 25462978,
    "user": "lb318",
    "uid": 1644153,
    "tags": {
      "amenity": "restaurant"
    }
  },
  {
    "type": "node",
    "id": 3078909897,
    "lat": 37.0950028,
    "lon": -8.06728,
    "timestamp": "2024-10-13T19:42:39Z",
    "version": 12,
    "changeset": 157849779,
    "user": "Rockedf",
    "uid": 7522075,
    "tags": {
      "amenity": "restaurant",
      "check_date:currency:XBT": "2024-10-13",
      "cuisine": "barbecue;steak_house",
      "currency:XBT": "yes",
      "name": "Alxama",
      "opening_hours": "Mo-Su 12:00-23:00",
      "payment:lightning": "no",
      "payment:lightning_contactless": "no",
      "payment:onchain": "yes",
      "phone": "+351 289 041 389",
      "survey:date": "2023-11-19",
      "website": "https://www.alxama.com/"
    }
  },
  {
    "type": "node",
    "id": 3078909898,
    "lat": 37.0942552,
    "lon": -8.0620099,
    "timestamp": "2017-02-04T11:23:25Z",
    "version": 2,
    "changeset": 45802405,
    "user": "Sessa Oyster",
    "uid": 5238194,
    "tags": {
      "amenity": "restaurant",
      "name": "Marum",
      "name:pt": "Marum"
    }
  },
  {
    "type": "node",
    "id": 3078909899,
    "lat": 37.0962484,
    "lon": -8.0673364,
    "timestamp": "2019-02-26T15:14:53Z",
    "version": 2,
    "changeset": 67585982,
    "user": "Ruben Martins",
    "uid": 1702779,
    "tags": {
      "amenity": "restaurant",
      "name": "Pinhal",
      "outdoor_seating": "yes",
      "takeaway": "yes"
    }
  },
  {
    "type": "node",
    "id": 3078909900,
    "lat": 37.0962346,
    "lon": -8.0652556,
    "timestamp": "2017-02-01T02:35:04Z",
    "version": 2,
    "changeset": 45704096,
    "user": "Sessa Oyster",
    "uid": 5238194,
    "tags": {
      "amenity": "restaurant",
      "name": "O Rocha"
    }
  },
  {
    "type": "node",
    "id": 3078909927,
    "lat": 37.0996438,
    "lon": -8.0569734,
    "timestamp": "2014-09-15T18:57:43Z",
    "version": 1,
    "changeset": 25462978,
    "user": "lb318",
    "uid": 1644153,
    "tags": {
      "amenity": "restaurant"
    }
  },
  {
    "type": "node",
    "id": 3079980165,
    "lat": 37.0790954,
    "lon": -8.0792336,
    "timestamp": "2021-03-25T22:04:21Z",
    "version": 3,
    "changeset": 101747181,
    "user": "Ruben Martins",
    "uid": 1702779,
    "tags": {
      "amenity": "restaurant",
      "cuisine": "pizza",
      "name": "Tiramisú",
      "takeaway": "yes"
    }
  },
  {
    "type": "node",
    "id": 3079980166,
    "lat": 37.0768443,
    "lon": -8.0782501,
    "timestamp": "2014-09-16T11:35:35Z",
    "version": 1,
    "changeset": 25477038,
    "user": "lb318",
    "uid": 1644153,
    "tags": {
      "amenity": "restaurant"
    }
  },
  {
    "type": "node",
    "id": 3079980179,
    "lat": 37.0732788,
    "lon": -8.0798889,
    "timestamp": "2014-11-06T19:10:51Z",
    "version": 2,
    "changeset": 26599784,
    "user": "wernerhxxx",
    "uid": 912240,
    "tags": {
      "amenity": "restaurant",
      "name": "Marufo 1"
    }
  },
  {
    "type": "node",
    "id": 3079980180,
    "lat": 37.0739101,
    "lon": -8.0801544,
    "timestamp": "2014-11-06T19:10:51Z",
    "version": 2,
    "changeset": 26599784,
    "user": "wernerhxxx",
    "uid": 912240,
    "tags": {
      "amenity": "restaurant",
      "name": "Marufo 2"
    }
  },
  {
    "type": "node",
    "id": 3083293504,
    "lat": 37.234032,
    "lon": -8.1783561,
    "timestamp": "2014-09-17T21:03:11Z",
    "version": 1,
    "changeset": 25509555,
    "user": "letihu",
    "uid": 1787357,
    "tags": {
      "amenity": "restaurant",
      "fixme": "name"
    }
  },
  {
    "type": "node",
    "id": 3084589414,
    "lat": 37.084137,
    "lon": -8.0212803,
    "timestamp": "2021-03-18T23:08:37Z",
    "version": 2,
    "changeset": 101289060,
    "user": "Ruben Martins",
    "uid": 1702779,
    "tags": {
      "amenity": "restaurant",
      "name": "Univerdoce"
    }
  },
  {
    "type": "node",
    "id": 3084601364,
    "lat": 37.0909673,
    "lon": -8.0506913,
    "timestamp": "2014-09-18T13:33:51Z",
    "version": 1,
    "changeset": 25520687,
    "user": "lb318",
    "uid": 1644153,
    "tags": {
      "amenity": "restaurant"
    }
  },
  {
    "type": "node",
    "id": 3113854385,
    "lat": 37.1570932,
    "lon": -7.5462514,
    "timestamp": "2025-03-20T16:33:50Z",
    "version": 6,
    "changeset": 163871185,
    "user": "topolusitania",
    "uid": 380552,
    "tags": {
      "amenity": "restaurant",
      "cuisine": "regional",
      "name": "Casa da Igreja",
      "phone": "965891240"
    }
  },
  {
    "type": "node",
    "id": 3116486238,
    "lat": 37.0907276,
    "lon": -8.2287276,
    "timestamp": "2019-02-05T14:07:05Z",
    "version": 3,
    "changeset": 66933067,
    "user": "Alexmol",
    "uid": 347293,
    "tags": {
      "addr:housenumber": "71",
      "addr:street": "Rua Almeida Garrett",
      "amenity": "restaurant",
      "diet:vegetarian": "yes",
      "name": "Eurasia",
      "phone": "+351 96 7238055"
    }
  },
  {
    "type": "node",
    "id": 3116768186,
    "lat": 37.0911897,
    "lon": -8.2269949,
    "timestamp": "2014-10-17T15:17:12Z",
    "version": 2,
    "changeset": 26147785,
    "user": "Tungmar",
    "uid": 427807,
    "tags": {
      "amenity": "restaurant",
      "name": "The kilt and kelt"
    }
  },
  {
    "type": "node",
    "id": 3168878066,
    "lat": 37.0260167,
    "lon": -7.9688405,
    "timestamp": "2023-07-13T12:35:49Z",
    "version": 5,
    "changeset": 138462841,
    "user": "rene78",
    "uid": 257555,
    "tags": {
      "amenity": "restaurant",
      "name": "A Oliveira",
      "opening_hours": "Mo-Sa 09:30-15:00, 19:00-22:30",
      "wheelchair": "limited"
    }
  },
  {
    "type": "node",
    "id": 3175666749,
    "lat": 37.1245075,
    "lon": -7.6511484,
    "timestamp": "2025-02-02T13:19:10Z",
    "version": 3,
    "changeset": 162046025,
    "user": "Đuro Jiří",
    "uid": 14617702,
    "tags": {
      "amenity": "restaurant",
      "check_date": "2025-02-02",
      "name": "O Castelo"
    }
  },
  {
    "type": "node",
    "id": 3175666752,
    "lat": 37.1265439,
    "lon": -7.6504761,
    "timestamp": "2025-03-23T15:22:39Z",
    "version": 3,
    "changeset": 163992439,
    "user": "Alexandrcfif",
    "uid": 103003,
    "tags": {
      "amenity": "restaurant",
      "cuisine": "sushi",
      "indoor_seating": "no",
      "outdoor_seating": "yes"
    }
  },
  {
    "type": "node",
    "id": 3201362506,
    "lat": 37.0871399,
    "lon": -8.236908,
    "timestamp": "2017-03-04T05:24:51Z",
    "version": 2,
    "changeset": 46564577,
    "user": "renosmo",
    "uid": 4608431,
    "tags": {
      "amenity": "restaurant",
      "name": "S. João"
    }
  },
  {
    "type": "node",
    "id": 3201370323,
    "lat": 37.0859083,
    "lon": -8.2365142,
    "timestamp": "2023-06-22T13:34:11Z",
    "version": 3,
    "changeset": 137648279,
    "user": "renosmo",
    "uid": 4608431,
    "tags": {
      "amenity": "restaurant",
      "name": "Panacee",
      "wheelchair": "limited"
    }
  },
  {
    "type": "node",
    "id": 3201442186,
    "lat": 37.0732182,
    "lon": -8.049479,
    "timestamp": "2019-02-05T09:54:05Z",
    "version": 2,
    "changeset": 66926446,
    "user": "Alexmol",
    "uid": 347293,
    "tags": {
      "addr:street": "Moradas Encosta do Lobo",
      "amenity": "restaurant",
      "name": "A Floresta",
      "phone": "+351 289 419105"
    }
  },
  {
    "type": "node",
    "id": 3354695378,
    "lat": 37.1593876,
    "lon": -7.5792411,
    "timestamp": "2025-02-02T12:35:17Z",
    "version": 6,
    "changeset": 162044182,
    "user": "Đuro Jiří",
    "uid": 14617702,
    "tags": {
      "air_conditioning": "yes",
      "amenity": "restaurant",
      "check_date": "2025-02-02",
      "indoor_seating": "yes",
      "name": "Xicken & Cia",
      "outdoor_seating": "yes"
    }
  },
  {
    "type": "node",
    "id": 3354695417,
    "lat": 37.1601773,
    "lon": -7.5779599,
    "timestamp": "2025-02-02T12:35:13Z",
    "version": 3,
    "changeset": 162044175,
    "user": "Đuro Jiří",
    "uid": 14617702,
    "tags": {
      "amenity": "restaurant",
      "check_date": "2025-02-02",
      "name": "Taberna \"A Esquina\""
    }
  },
  {
    "type": "node",
    "id": 3375683011,
    "lat": 37.1937657,
    "lon": -8.2587144,
    "timestamp": "2015-02-27T22:52:32Z",
    "version": 1,
    "changeset": 29146413,
    "user": "quintaforal",
    "uid": 49992,
    "tags": {
      "addr:city": "Algoz",
      "addr:postcode": "8265-091",
      "addr:street": "Foral da Larga Vista",
      "amenity": "restaurant",
      "capacity": "500",
      "cuisine": "regional",
      "name": "O Foral",
      "smoking": "outside",
      "takeaway": "yes"
    }
  },
  {
    "type": "node",
    "id": 3382918477,
    "lat": 37.0936903,
    "lon": -8.1998848,
    "timestamp": "2022-10-30T21:38:20Z",
    "version": 2,
    "changeset": 128264779,
    "user": "businessesMan",
    "uid": 12999434,
    "tags": {
      "amenity": "restaurant",
      "name": "Restaurante 3 Marias"
    }
  },
  {
    "type": "node",
    "id": 3401823862,
    "lat": 37.0676284,
    "lon": -8.101199,
    "timestamp": "2023-12-28T22:22:58Z",
    "version": 2,
    "changeset": 145639286,
    "user": "seichter",
    "uid": 66497,
    "tags": {
      "addr:street": "Av. Francisco Sá Carneiro Loja F - Torre 20",
      "amenity": "restaurant",
      "cuisine": "regional",
      "name": "Restorante Dallas",
      "note": "All year Live Fado Saturday nights 21:00 - 24:00",
      "smoking": "outside"
    }
  },
  {
    "type": "node",
    "id": 3401833432,
    "lat": 37.0699056,
    "lon": -8.1061557,
    "timestamp": "2015-03-16T14:19:30Z",
    "version": 1,
    "changeset": 29518303,
    "user": "majosr",
    "uid": 2053275,
    "tags": {
      "addr:city": "Quarteira",
      "addr:housenumber": "50",
      "addr:street": "Rua Gago Coutinho",
      "amenity": "restaurant",
      "cuisine": "regional",
      "name": "Bambi",
      "smoking": "outside",
      "takeaway": "yes"
    }
  },
  {
    "type": "node",
    "id": 3425113601,
    "lat": 37.0770589,
    "lon": -8.2976029,
    "timestamp": "2015-03-29T18:24:55Z",
    "version": 1,
    "changeset": 29834184,
    "user": "dcp",
    "uid": 44221,
    "tags": {
      "amenity": "restaurant",
      "cuisine": "regional",
      "name": "Torre Vehla"
    }
  },
  {
    "type": "node",
    "id": 3469682932,
    "lat": 37.0777413,
    "lon": -8.1174777,
    "timestamp": "2023-12-27T22:09:39Z",
    "version": 2,
    "changeset": 145594629,
    "user": "seichter",
    "uid": 66497,
    "tags": {
      "amenity": "restaurant",
      "cuisine": "international",
      "name": "Old Navy",
      "website": "http://algarve.mapandapp.com/oldnavy.htm"
    }
  },
  {
    "type": "node",
    "id": 3469684271,
    "lat": 37.078007,
    "lon": -8.116882,
    "timestamp": "2021-05-09T20:17:44Z",
    "version": 2,
    "changeset": 104410204,
    "user": "lalolan",
    "uid": 11113526,
    "tags": {
      "amenity": "restaurant",
      "cuisine": "italian",
      "name": "Il Trio Italian",
      "website": "http://algarve.mapandapp.com/iltrio.htm"
    }
  },
  {
    "type": "node",
    "id": 3469711300,
    "lat": 37.0792977,
    "lon": -8.1177532,
    "timestamp": "2015-04-21T15:06:12Z",
    "version": 2,
    "changeset": 30381209,
    "user": "Map And App",
    "uid": 2833961,
    "tags": {
      "amenity": "restaurant",
      "cuisine": "indian",
      "name": "Natraj Indian Restaurant",
      "website": "http://test.mapandapp.com/natraj.htm"
    }
  },
  {
    "type": "node",
    "id": 3469719139,
    "lat": 37.0753163,
    "lon": -8.1192754,
    "timestamp": "2015-04-21T15:13:36Z",
    "version": 1,
    "changeset": 30381386,
    "user": "Map And App",
    "uid": 2833961,
    "tags": {
      "amenity": "restaurant",
      "cuisine": "international",
      "name": "Fairways 2",
      "website": "http://algarve.mapandapp.com/fairwaysrestaurant.htm"
    }
  },
  {
    "type": "node",
    "id": 3471013950,
    "lat": 37.1274402,
    "lon": -8.1494564,
    "timestamp": "2015-04-22T09:41:03Z",
    "version": 1,
    "changeset": 30399837,
    "user": "Map And App",
    "uid": 2833961,
    "tags": {
      "amenity": "restaurant",
      "cuisine": "indian",
      "name": "Real Indian Magic",
      "website": "http://test.mapandapp.com/realindianmagic.htm"
    }
  },
  {
    "type": "node",
    "id": 3471026237,
    "lat": 37.1325896,
    "lon": -8.1539839,
    "timestamp": "2015-04-22T09:55:29Z",
    "version": 1,
    "changeset": 30400101,
    "user": "Map And App",
    "uid": 2833961,
    "tags": {
      "amenity": "restaurant",
      "website": "http://algarve.mapandapp.com/boliqueimeinnfeature.htm"
    }
  },
  {
    "type": "node",
    "id": 3471134487,
    "lat": 37.0790729,
    "lon": -8.1203945,
    "timestamp": "2016-06-15T11:39:13Z",
    "version": 2,
    "changeset": 40036820,
    "user": "apires",
    "uid": 11117,
    "tags": {
      "amenity": "restaurant",
      "cuisine": "regional",
      "name": "O Marisco",
      "website": "http://test.mapandapp.com/omariscorestaurante.htm"
    }
  },
  {
    "type": "node",
    "id": 3471157603,
    "lat": 37.0905012,
    "lon": -8.0362688,
    "timestamp": "2025-02-05T12:26:06Z",
    "version": 6,
    "changeset": 162163264,
    "user": "Đuro Jiří",
    "uid": 14617702,
    "tags": {
      "addr:housenumber": "206 - 208",
      "addr:street": "Av. de 5 Outubro",
      "amenity": "restaurant",
      "indoor_seating": "yes",
      "name": "Genco",
      "outdoor_seating": "yes"
    }
  },
  {
    "type": "node",
    "id": 3471167695,
    "lat": 37.0874052,
    "lon": -8.0329322,
    "timestamp": "2015-04-22T11:12:28Z",
    "version": 1,
    "changeset": 30401517,
    "user": "Map And App",
    "uid": 2833961,
    "tags": {
      "amenity": "restaurant",
      "name": "Vaults  Restaurant",
      "website": "http://algarve.mapandapp.com/vaultsrestaurant.htm"
    }
  },
  {
    "type": "node",
    "id": 3471270593,
    "lat": 37.0915385,
    "lon": -8.0378067,
    "timestamp": "2024-03-24T15:34:15Z",
    "version": 2,
    "changeset": 149094327,
    "user": "maurice2010",
    "uid": 245137,
    "tags": {
      "amenity": "restaurant",
      "cuisine": "regional",
      "name": "Vintage"
    }
  },
  {
    "type": "node",
    "id": 3491645274,
    "lat": 37.1391531,
    "lon": -8.0237367,
    "timestamp": "2015-05-01T18:53:39Z",
    "version": 1,
    "changeset": 30700580,
    "user": "Ana Matos Lima",
    "uid": 2883507,
    "tags": {
      "amenity": "restaurant",
      "name": "11 da Villa"
    }
  },
  {
    "type": "node",
    "id": 3502713731,
    "lat": 37.1803131,
    "lon": -7.4517935,
    "timestamp": "2015-05-07T10:31:56Z",
    "version": 1,
    "changeset": 30868329,
    "user": "topolusitania",
    "uid": 380552,
    "tags": {
      "amenity": "restaurant",
      "name": "Restaurante Monte Gordo"
    }
  },
  {
    "type": "node",
    "id": 3502713748,
    "lat": 37.1800801,
    "lon": -7.4516301,
    "timestamp": "2015-05-07T10:31:57Z",
    "version": 1,
    "changeset": 30868329,
    "user": "topolusitania",
    "uid": 380552,
    "tags": {
      "amenity": "restaurant",
      "name": "O Jaime"
    }
  },
  {
    "type": "node",
    "id": 3514096393,
    "lat": 37.728099,
    "lon": -8.296223,
    "timestamp": "2023-02-17T23:26:54Z",
    "version": 2,
    "changeset": 132698240,
    "user": "Rodolfo Dias",
    "uid": 719434,
    "tags": {
      "amenity": "restaurant",
      "name": "A Rocha"
    }
  },
  {
    "type": "node",
    "id": 3544969839,
    "lat": 37.6433424,
    "lon": -7.6582109,
    "timestamp": "2019-10-27T21:35:52Z",
    "version": 3,
    "changeset": 76276993,
    "user": "Amstelroei",
    "uid": 120078,
    "tags": {
      "amenity": "restaurant",
      "cuisine": "regional;game",
      "name": "O Brasileiro"
    }
  },
  {
    "type": "node",
    "id": 3544969840,
    "lat": 37.6423654,
    "lon": -7.6592114,
    "timestamp": "2024-05-28T07:34:28Z",
    "version": 3,
    "changeset": 151930088,
    "user": "CaldeiraG",
    "uid": 19716990,
    "tags": {
      "amenity": "restaurant",
      "check_date": "2024-05-28",
      "name": "Novo San Remo"
    }
  },
  {
    "type": "node",
    "id": 3597522027,
    "lat": 37.1745535,
    "lon": -7.4993359,
    "timestamp": "2022-09-06T21:27:42Z",
    "version": 2,
    "changeset": 125876144,
    "user": "gonmts",
    "uid": 15660738,
    "tags": {
      "amenity": "restaurant",
      "name": "Fernando",
      "opening_hours": "Tu-Su 09:00-22:00"
    }
  },