[
  {
    "type": "node",
    "id": 292332357,
    "lat": 37.3881734,
    "lon": -5.9218547,
    "timestamp": "2008-08-30T18:53:16Z",
    "version": 1,
    "changeset": 462310,
    "user": "EtricCeline",
    "uid": 4473,
    "tags": {
      "amenity": "restaurant",
      "name": "Pizzeria Maria"
    }
  },
  {
    "type": "node",
    "id": 292332358,
    "lat": 37.387228,
    "lon": -5.9217397,
    "timestamp": "2012-08-18T15:49:35Z",
    "version": 2,
    "changeset": 12774342,
    "user": "EduardoOrtega",
    "uid": 811690,
    "tags": {
      "amenity": "restaurant",
      "name": "Cafetería Rui"
    }
  },
  {
    "type": "node",
    "id": 292332359,
    "lat": 37.3875844,
    "lon": -5.9199692,
    "timestamp": "2014-03-10T09:26:50Z",
    "version": 2,
    "changeset": 21021238,
    "user": "The_Loko",
    "uid": 1946827,
    "tags": {
      "amenity": "restaurant"
    }
  },
  {
    "type": "node",
    "id": 292332373,
    "lat": 37.3886379,
    "lon": -5.9210132,
    "timestamp": "2008-08-30T18:53:17Z",
    "version": 1,
    "changeset": 462310,
    "user": "EtricCeline",
    "uid": 4473,
    "tags": {
      "amenity": "restaurant"
    }
  },
  {
    "type": "node",
    "id": 292332434,
    "lat": 37.3881693,
    "lon": -5.9206068,
    "timestamp": "2008-08-30T18:53:25Z",
    "version": 1,
    "changeset": 462310,
    "user": "EtricCeline",
    "uid": 4473,
    "tags": {
      "amenity": "restaurant"
    }
  },
  {
    "type": "node",
    "id": 301769009,
    "lat": 37.3630589,
    "lon": -5.9858491,
    "timestamp": "2023-10-28T09:48:28Z",
    "version": 5,
    "changeset": 143251130,
    "user": "hhkaos",
    "uid": 406639,
    "tags": {
      "amenity": "restaurant",
      "name": "Cafetería Metrópolis",
      "opening_hours": "Tu-Fr 06:00-24:00; Sa 07:00-24:00; Su 07:00-17:00"
    }
  },
  {
    "type": "node",
    "id": 301769396,
    "lat": 37.9382301,
    "lon": -5.7585197,
    "timestamp": "2023-10-25T03:46:42Z",
    "version": 6,
    "changeset": 143092136,
    "user": "b-jazz-bot",
    "uid": 9451067,
    "tags": {
      "addr:city": "Cazalla de la Sierra",
      "addr:housenumber": "12",
      "addr:street": "Plaza de Juan Carlos I",
      "amenity": "restaurant",
      "cuisine": "regional",
      "email": "direccion@casakini.es",
      "name": "Casa Kini",
      "note": "tel: 0034954884483",
      "phone": "+34 954 884 483",
      "smoking": "outside",
      "website": "https://www.casakini.com/",
      "wheelchair": "yes"
    }
  },
  {
    "type": "node",
    "id": 303570056,
    "lat": 37.3828961,
    "lon": -5.9723331,
    "timestamp": "2024-11-21T09:11:16Z",
    "version": 7,
    "changeset": 159400105,
    "user": "marionauta",
    "uid": 306362,
    "tags": {
      "amenity": "restaurant",
      "brand": "100 Montaditos",
      "brand:wikidata": "Q8355805",
      "brand:wikipedia": "en:Cervecería 100 Montaditos",
      "cuisine": "sandwich",
      "name": "100 Montaditos",
      "wheelchair": "yes"
    }
  },
  {
    "type": "node",
    "id": 303570057,
    "lat": 37.382913,
    "lon": -5.9724153,
    "timestamp": "2024-11-21T09:11:16Z",
    "version": 8,
    "changeset": 159400105,
    "user": "marionauta",
    "uid": 306362,
    "tags": {
      "addr:city": "Sevilla",
      "addr:postcode": "41018",
      "addr:street": "Eduardo Dato",
      "amenity": "restaurant",
      "name": "Jaque Mate Tapas",
      "outdoor_seating": "yes",
      "wheelchair": "yes"
    }
  },
  {
    "type": "node",
    "id": 308971231,
    "lat": 37.3968705,
    "lon": -5.9967756,
    "timestamp": "2008-10-31T19:12:02Z",
    "version": 1,
    "changeset": 640660,
    "user": "pedrobl",
    "uid": 71451,
    "tags": {
      "amenity": "restaurant",
      "created_by": "Potlatch 0.10f",
      "name": "Bar San Lorenzo"
    }
  },
  {
    "type": "node",
    "id": 308971742,
    "lat": 37.3969679,
    "lon": -5.9963185,
    "timestamp": "2023-05-15T21:51:39Z",
    "version": 4,
    "changeset": 136144182,
    "user": "Mariusz256",
    "uid": 10396575,
    "tags": {
      "amenity": "restaurant",
      "created_by": "Potlatch 0.10f",
      "cuisine": "tapas",
      "name": "Cafe Bar El Sardinero"
    }
  },
  {
    "type": "node",
    "id": 308972662,
    "lat": 37.3967979,
    "lon": -5.9945413,
    "timestamp": "2023-10-20T20:42:20Z",
    "version": 4,
    "changeset": 142890056,
    "user": "SachaBe",
    "uid": 20162835,
    "tags": {
      "amenity": "restaurant",
      "check_date": "2023-10-20",
      "name": "Almeda 5"
    }
  },
  {
    "type": "node",
    "id": 348079414,
    "lat": 37.385935,
    "lon": -5.9869065,
    "timestamp": "2024-09-18T16:52:21Z",
    "version": 2,
    "changeset": 156783271,
    "user": "mapperich",
    "uid": 8772934,
    "tags": {
      "amenity": "restaurant",
      "check_date": "2024-09-18",
      "created_by": "Potlatch 0.10f",
      "name": "El 3 de Oro"
    }
  },
  {
    "type": "node",
    "id": 348629760,
    "lat": 37.3849733,
    "lon": -5.989891,
    "timestamp": "2025-02-10T19:21:07Z",
    "version": 3,
    "changeset": 162364525,
    "user": "paulbrunner",
    "uid": 15541433,
    "tags": {
      "amenity": "restaurant",
      "check_date": "2025-02-10",
      "name": "Restaurante Santa Cruz",
      "outdoor_seating": "yes"
    }
  },
  {
    "type": "node",
    "id": 366533020,
    "lat": 37.3913797,
    "lon": -6.0021745,
    "timestamp": "2019-11-25T04:59:35Z",
    "version": 3,
    "changeset": 77499753,
    "user": "CarlosMG",
    "uid": 2163609,
    "tags": {
      "amenity": "restaurant",
      "brand": "100 Montaditos",
      "brand:wikidata": "Q8355805",
      "brand:wikipedia": "en:Cervecería 100 Montaditos",
      "cuisine": "sandwich",
      "name": "100 Montaditos"
    }
  },
  {
    "type": "node",
    "id": 366535821,
    "lat": 37.3927949,
    "lon": -5.9973396,
    "timestamp": "2025-03-23T21:30:03Z",
    "version": 6,
    "changeset": 164006636,
    "user": "Alexandrcfif",
    "uid": 103003,
    "tags": {
      "amenity": "restaurant",
      "cuisine": "pizza",
      "indoor_seating": "yes",
      "name": "Pizztaglio",
      "note": "seems to be closed",
      "outdoor_seating": "no"
    }
  },
  {
    "type": "node",
    "id": 366535822,
    "lat": 37.392772,
    "lon": -5.9970991,
    "timestamp": "2025-03-23T21:29:01Z",
    "version": 3,
    "changeset": 164006370,
    "user": "Alexandrcfif",
    "uid": 103003,
    "tags": {
      "amenity": "restaurant",
      "cuisine": "regional",
      "indoor_seating": "yes",
      "name": "Mesón Serranito",
      "outdoor_seating": "no"
    }
  },
  {
    "type": "node",
    "id": 366548277,
    "lat": 37.392526,
    "lon": -5.9913642,
    "timestamp": "2023-10-20T19:47:36Z",
    "version": 8,
    "changeset": 142890056,
    "user": "SachaBe",
    "uid": 20162835,
    "tags": {
      "amenity": "restaurant",
      "check_date": "2023-10-20",
      "cuisine": "coffee_shop;sandwich;seafood;spanish",
      "level": "0",
      "name": "Taberna La Encarnación",
      "takeaway": "no"
    }
  },
  {
    "type": "node",
    "id": 366549518,
    "lat": 37.3924124,
    "lon": -5.9905128,
    "timestamp": "2024-09-20T10:23:34Z",
    "version": 8,
    "changeset": 156860498,
    "user": "mapperich",
    "uid": 8772934,
    "tags": {
      "amenity": "restaurant",
      "check_date": "2024-09-20",
      "cuisine": "regional",
      "name": "Mamá Carmen"
    }
  },
  {
    "type": "node",
    "id": 366951892,
    "lat": 37.6356725,
    "lon": -6.1476908,
    "timestamp": "2022-07-05T22:11:30Z",
    "version": 4,
    "changeset": 123252852,
    "user": "Begavil84",
    "uid": 1725439,
    "tags": {
      "amenity": "restaurant",
      "name": "Puerto Blanco"
    }
  },
  {
    "type": "node",
    "id": 367153499,
    "lat": 37.3843339,
    "lon": -5.9939526,
    "timestamp": "2012-12-14T11:49:23Z",
    "version": 4,
    "changeset": 14270279,
    "user": "Rickydh",
    "uid": 335661,
    "tags": {
      "amenity": "restaurant",
      "name": "Taberna El Papelón"
    }
  },
  {
    "type": "node",
    "id": 367156844,
    "lat": 37.3885745,
    "lon": -5.9981207,
    "timestamp": "2016-10-12T18:25:25Z",
    "version": 2,
    "changeset": 42837173,
    "user": "erlenmeyer",
    "uid": 875518,
    "tags": {
      "amenity": "restaurant",
      "cuisine": "regional",
      "name": "Taberna del Alabardero"
    }
  },
  {
    "type": "node",
    "id": 367159300,
    "lat": 37.3876976,
    "lon": -6.001594,
    "timestamp": "2025-02-11T14:41:49Z",
    "version": 8,
    "changeset": 162394090,
    "user": "paulbrunner",
    "uid": 15541433,
    "tags": {
      "addr:city": "Sevilla",
      "amenity": "restaurant",
      "check_date": "2025-02-11",
      "name": "Casa Aníbal",
      "outdoor_seating": "yes"
    }
  },
  {
    "type": "node",
    "id": 490827593,
    "lat": 37.3938755,
    "lon": -5.9937642,
    "timestamp": "2024-09-20T11:26:41Z",
    "version": 6,
    "changeset": 156863042,
    "user": "mapperich",
    "uid": 8772934,
    "tags": {
      "amenity": "restaurant",
      "check_date": "2024-09-20",
      "cuisine": "spanish",
      "name": "Santa Marta"
    }
  },
  {
    "type": "node",
    "id": 490827639,
    "lat": 37.3937192,
    "lon": -5.9912688,
    "timestamp": "2016-05-02T10:14:40Z",
    "version": 4,
    "changeset": 39034833,
    "user": "Creando",
    "uid": 132740,
    "tags": {
      "amenity": "restaurant",
      "capacity": "70",
      "cuisine": "regional",
      "name": "Alcázares",
      "smoking": "outside"
    }
  },
  {
    "type": "node",
    "id": 497114010,
    "lat": 37.4010654,
    "lon": -5.9268274,
    "timestamp": "2022-10-15T14:32:10Z",
    "version": 10,
    "changeset": 127573748,
    "user": "aTarom",
    "uid": 5127355,
    "tags": {
      "amenity": "restaurant",
      "cuisine": "american;pizza;burger",
      "name": "Sloppy Joe's",
      "toilets:wheelchair": "yes",
      "wheelchair": "yes"
    }
  },
  {
    "type": "node",
    "id": 596177260,
    "lat": 37.4013991,
    "lon": -5.9823247,
    "timestamp": "2024-07-05T09:08:58Z",
    "version": 3,
    "changeset": 153578824,
    "user": "m4sb",
    "uid": 20554405,
    "tags": {
      "amenity": "restaurant",
      "check_date:opening_hours": "2024-07-05",
      "cuisine": "regional",
      "name": "Yebra",
      "opening_hours:signed": "no"
    }
  },
  {
    "type": "node",
    "id": 627291034,
    "lat": 37.4030634,
    "lon": -5.9873915,
    "timestamp": "2010-02-03T07:37:56Z",
    "version": 1,
    "changeset": 3781088,
    "user": "Rummidge",
    "uid": 31545,
    "tags": {
      "amenity": "restaurant",
      "cuisine": "japanese",
      "name": "Kaede"
    }
  },
  {
    "type": "node",
    "id": 631339514,
    "lat": 37.3938146,
    "lon": -5.9815256,
    "timestamp": "2014-02-17T16:07:03Z",
    "version": 3,
    "changeset": 20616710,
    "user": "wheelmap_android",
    "uid": 524500,
    "tags": {
      "amenity": "restaurant",
      "name": "La Cigala de Oro",
      "wheelchair": "yes"
    }
  },
  {
    "type": "node",
    "id": 631339524,
    "lat": 37.3917542,
    "lon": -5.9786712,
    "timestamp": "2025-02-12T10:14:01Z",
    "version": 7,
    "changeset": 162423152,
    "user": "paulbrunner",
    "uid": 15541433,
    "tags": {
      "amenity": "restaurant",
      "check_date": "2025-02-12",
      "name": "Carlos Alberto",
      "wheelchair": "limited"
    }
  },
  {
    "type": "node",
    "id": 631339541,
    "lat": 37.3926213,
    "lon": -5.9804742,
    "timestamp": "2017-08-14T19:15:46Z",
    "version": 3,
    "changeset": 51118918,
    "user": "David Cheung",
    "uid": 6482564,
    "tags": {
      "addr:housenumber": "20",
      "addr:postcode": "41003",
      "addr:street": "Calle José Laguillo",
      "amenity": "restaurant",
      "cuisine": "chinese",
      "internet_access": "wlan",
      "name": "kindo",
      "name:en": "King Do",
      "name:es": "King Do",
      "name:zh": "金都酒樓",
      "phone": "+34954421113"
    }
  },
  {
    "type": "node",
    "id": 643085784,
    "lat": 37.3912714,
    "lon": -5.9978167,
    "timestamp": "2010-02-17T12:36:40Z",
    "version": 1,
    "changeset": 3900415,
    "user": "Riccardo Stagni",
    "uid": 67621,
    "tags": {
      "amenity": "restaurant",
      "cuisine": "regional",
      "name": "Pando Centro"
    }
  },
  {
    "type": "node",
    "id": 675206826,
    "lat": 37.4041452,
    "lon": -5.9895241,
    "timestamp": "2010-03-26T22:29:50Z",
    "version": 1,
    "changeset": 4242595,
    "user": "Rummidge",
    "uid": 31545,
    "tags": {
      "amenity": "restaurant",
      "cuisine": "regional",
      "name": "Casa Fermín"
    }
  },
  {
    "type": "node",
    "id": 679501359,
    "lat": 37.3856056,
    "lon": -6.0041413,
    "timestamp": "2019-11-26T13:03:13Z",
    "version": 4,
    "changeset": 77576148,
    "user": "Emilio Eugenio",
    "uid": 3842919,
    "tags": {
      "addr:housenumber": "16",
      "addr:street": "Calle San Jorge",
      "amenity": "restaurant",
      "cuisine": "spanish;chicken;diner;regional;tapas;fish_and_chips;coffee_shop;local;mediterranean;tea;friture;fish;breakfast;grill",
      "name": "Casa Manolo Triana",
      "opening_hours": "Tu-Su 09:00-17:00",
      "phone": "+34954334792"
    }
  },
  {
    "type": "node",
    "id": 695111645,
    "lat": 37.4050602,
    "lon": -5.9359015,
    "timestamp": "2022-12-24T13:02:02Z",
    "version": 8,
    "changeset": 130455815,
    "user": "kapazao_import",
    "uid": 8770019,
    "tags": {
      "amenity": "restaurant",
      "brand": "Pomodoro",
      "brand:website": "https://pomodoro.es",
      "brand:wikidata": "Q115475288",
      "cuisine": "italian;pasta;pizza",
      "name": "Pomodoro"
    }
  },
  {
    "type": "node",
    "id": 747506315,
    "lat": 37.3915663,
    "lon": -5.9894907,
    "timestamp": "2017-01-24T22:17:39Z",
    "version": 4,
    "changeset": 45452320,
    "user": "resistance8",
    "uid": 4331887,
    "tags": {
      "amenity": "restaurant",
      "name": "Los Coloniales",
      "opening_hours": "Mo-Su 12:30-00:15"
    }
  },
  {
    "type": "node",
    "id": 747508824,
    "lat": 37.3935205,
    "lon": -5.9953776,
    "timestamp": "2025-03-23T18:54:20Z",
    "version": 3,
    "changeset": 164000278,
    "user": "Alexandrcfif",
    "uid": 103003,
    "tags": {
      "amenity": "restaurant",
      "cuisine": "italian",
      "name": "La Mafia"
    }
  },
  {
    "type": "node",
    "id": 747521246,
    "lat": 37.3907956,
    "lon": -5.9911461,
    "timestamp": "2019-10-11T15:37:59Z",
    "version": 4,
    "changeset": 75574368,
    "user": "kapazao_import",
    "uid": 8770019,
    "tags": {
      "addr:housenumber": "24",
      "addr:street": "Calle Pérez Galdós",
      "amenity": "restaurant",
      "contact:facebook": "https://www.facebook.com/pages/La-Mia-Tana/176131045738251",
      "cuisine": "pizza",
      "name": "La Mia Tana"
    }
  },
  {
    "type": "node",
    "id": 747522192,
    "lat": 37.390868,
    "lon": -5.9908457,
    "timestamp": "2025-01-18T07:18:16Z",
    "version": 4,
    "changeset": 161480514,
    "user": "b-jazz-bot",
    "uid": 9451067,
    "tags": {
      "amenity": "restaurant",
      "name": "Espacio T",
      "opening_hours": "Th-Tu 20:00-23:00",
      "phone": "+34955021784",
      "website": "https://www.tespaciogastronomico.com/"
    }
  },
  {
    "type": "node",
    "id": 747522207,
    "lat": 37.3907444,
    "lon": -5.9909208,
    "timestamp": "2010-05-24T22:21:30Z",
    "version": 1,
    "changeset": 4799314,
    "user": "nonopp",
    "uid": 291857,
    "tags": {
      "amenity": "restaurant"
    }
  },
  {
    "type": "node",
    "id": 747522488,
    "lat": 37.3906421,
    "lon": -5.9908189,
    "timestamp": "2010-05-24T22:21:44Z",
    "version": 1,
    "changeset": 4799314,
    "user": "nonopp",
    "uid": 291857,
    "tags": {
      "amenity": "restaurant"
    }
  },
  {
    "type": "node",
    "id": 747522702,
    "lat": 37.3905646,
    "lon": -5.9908611,
    "timestamp": "2025-02-11T14:41:49Z",
    "version": 5,
    "changeset": 162394090,
    "user": "paulbrunner",
    "uid": 15541433,
    "tags": {
      "amenity": "restaurant",
      "check_date": "2025-02-11",
      "name": "Taberna Alambique",
      "wheelchair": "limited"
    }
  },
  {
    "type": "node",
    "id": 747526041,
    "lat": 37.3900022,
    "lon": -5.9916595,
    "timestamp": "2021-08-26T14:13:28Z",
    "version": 3,
    "changeset": 110291209,
    "user": "Marsupium",
    "uid": 753289,
    "tags": {
      "amenity": "restaurant",
      "name": "Alcaiza",
      "outdoor_seating": "yes"
    }
  },
  {
    "type": "node",
    "id": 747528340,
    "lat": 37.3896632,
    "lon": -5.9910151,
    "timestamp": "2019-10-28T10:48:20Z",
    "version": 3,
    "changeset": 76293787,
    "user": "Wim L",
    "uid": 223681,
    "tags": {
      "amenity": "restaurant",
      "cuisine": "pizza",
      "name": "Orsini"
    }
  },
  {
    "type": "node",
    "id": 747528697,
    "lat": 37.3895312,
    "lon": -5.9930039,
    "timestamp": "2023-08-11T16:50:44Z",
    "version": 4,
    "changeset": 139758654,
    "user": "Reino Baptista",
    "uid": 2820801,
    "tags": {
      "amenity": "restaurant",
      "name": "Universal People"
    }
  },
  {
    "type": "node",
    "id": 747529706,
    "lat": 37.3902183,
    "lon": -5.9929505,
    "timestamp": "2019-10-28T14:05:21Z",
    "version": 3,
    "changeset": 76301560,
    "user": "Wim L",
    "uid": 223681,
    "tags": {
      "amenity": "restaurant"
    }
  },
  {
    "type": "node",
    "id": 747665815,
    "lat": 37.3933406,
    "lon": -5.9882942,
    "timestamp": "2025-02-26T21:40:36Z",
    "version": 6,
    "changeset": 162989708,
    "user": "5R-MFT",
    "uid": 3417876,
    "tags": {
      "addr:city": "Sevilla",
      "addr:postcode": "41003",
      "addr:street": "Calle Gerona",
      "amenity": "restaurant",
      "cuisine": "local",
      "name": "El rinconcillo",
      "phone": "+34 954 223 183",
      "start_date": "1670",
      "website": "https://www.elrinconcillo.es",
      "wheelchair": "no"
    }
  },
  {
    "type": "node",
    "id": 747666388,
    "lat": 37.3931108,
    "lon": -5.9863994,
    "timestamp": "2024-06-30T22:38:30Z",
    "version": 5,
    "changeset": 153388039,
    "user": "Arturo Francisco Barbero",
    "uid": 12605644,
    "tags": {
      "amenity": "restaurant",
      "check_date": "2024-06-30",
      "name": "Casa Catalina"
    }
  },
  {
    "type": "node",
    "id": 747666868,
    "lat": 37.3936505,
    "lon": -5.9879797,
    "timestamp": "2014-12-01T18:16:40Z",
    "version": 2,
    "changeset": 27161290,
    "user": "RNFV",
    "uid": 18817,
    "tags": {
      "amenity": "restaurant",
      "capacity": "50",
      "cuisine": "regional",
      "name": "Taberna Los Terceros"
    }
  },
  {
    "type": "node",
    "id": 747701977,
    "lat": 37.3904326,
    "lon": -5.984255,
    "timestamp": "2024-09-20T11:58:28Z",
    "version": 3,
    "changeset": 156863042,
    "user": "mapperich",
    "uid": 8772934,
    "tags": {
      "amenity": "restaurant",
      "check_date": "2024-09-20",
      "name": "Becerrita"
    }
  },
  {
    "type": "node",
    "id": 747728241,
    "lat": 37.3924497,
    "lon": -5.979126,
    "timestamp": "2015-03-23T19:22:05Z",
    "version": 2,
    "changeset": 29686106,
    "user": "Luiyo",
    "uid": 316694,
    "tags": {
      "amenity": "restaurant"
    }
  },
  {
    "type": "node",
    "id": 748469180,
    "lat": 37.3966631,
    "lon": -5.9939661,
    "timestamp": "2023-10-19T13:07:09Z",
    "version": 9,
    "changeset": 142814486,
    "user": "SachaBe",
    "uid": 20162835,
    "tags": {
      "amenity": "restaurant",
      "name": "Nickel Burger"
    }
  },
  {
    "type": "node",
    "id": 760376655,
    "lat": 37.3787279,
    "lon": -5.9895207,
    "timestamp": "2025-03-24T18:22:16Z",
    "version": 5,
    "changeset": 164045569,
    "user": "Alexandrcfif",
    "uid": 103003,
    "tags": {
      "amenity": "restaurant",
      "indoor_seating": "yes",
      "name": "La Raza",
      "outdoor_seating": "yes",
      "website": "https://www.grupolaraza.com/index.php/la-raza-restaurante/"
    }
  },
  {
    "type": "node",
    "id": 812081753,
    "lat": 37.3452178,
    "lon": -6.0664049,
    "timestamp": "2010-07-11T19:13:51Z",
    "version": 1,
    "changeset": 5193384,
    "user": "mairena",
    "uid": 317458,
    "tags": {
      "amenity": "restaurant",
      "name": "La Tarazana"
    }
  },
  {
    "type": "node",
    "id": 824412273,
    "lat": 37.3911321,
    "lon": -6.0040341,
    "timestamp": "2019-07-01T11:56:10Z",
    "version": 2,
    "changeset": 71782373,
    "user": "Athalis",
    "uid": 2540799,
    "tags": {
      "amenity": "restaurant",
      "level": "1"
    }
  },
  {
    "type": "node",
    "id": 837161114,
    "lat": 37.3812829,
    "lon": -5.9864001,
    "timestamp": "2020-03-09T16:45:48Z",
    "version": 3,
    "changeset": 81973630,
    "user": "daniconil",
    "uid": 995952,
    "tags": {
      "amenity": "restaurant",
      "name": "Hostería del Prado"
    }
  },
  {
    "type": "node",
    "id": 842633262,
    "lat": 37.3779887,
    "lon": -5.9835155,
    "timestamp": "2013-11-10T19:57:03Z",
    "version": 3,
    "changeset": 18823037,
    "user": "wheelmap_android",
    "uid": 524500,
    "tags": {
      "amenity": "restaurant",
      "name": "Restaurante San Marco",
      "wheelchair": "no"
    }
  },
  {
    "type": "node",
    "id": 879569366,
    "lat": 37.4049084,
    "lon": -6.0066821,
    "timestamp": "2010-09-19T08:25:35Z",
    "version": 2,
    "changeset": 5817440,
    "user": "Alberto Molina",
    "uid": 161725,
    "tags": {
      "amenity": "restaurant",
      "name": "Abuela Luna"
    }
  },
  {
    "type": "node",
    "id": 910547267,
    "lat": 37.3695276,
    "lon": -6.042889,
    "timestamp": "2012-05-25T21:49:41Z",
    "version": 2,
    "changeset": 11702315,
    "user": "jamesks",
    "uid": 2500,
    "tags": {
      "amenity": "restaurant"
    }
  },
  {
    "type": "node",
    "id": 910547479,
    "lat": 37.3705443,
    "lon": -6.0421267,
    "timestamp": "2010-09-13T12:14:23Z",
    "version": 1,
    "changeset": 5769021,
    "user": "jamesks",
    "uid": 2500,
    "tags": {
      "amenity": "restaurant"
    }
  },
  {
    "type": "node",
    "id": 918564933,
    "lat": 37.3747965,
    "lon": -6.0520129,
    "timestamp": "2018-04-06T20:12:47Z",
    "version": 3,
    "changeset": 57876950,
    "user": "avm",
    "uid": 99570,
    "tags": {
      "amenity": "restaurant",
      "name": "A la Brasa"
    }
  },
  {
    "type": "node",
    "id": 918565354,
    "lat": 37.3747317,
    "lon": -6.0524848,
    "timestamp": "2018-04-06T20:12:47Z",
    "version": 3,
    "changeset": 57876950,
    "user": "avm",
    "uid": 99570,
    "tags": {
      "amenity": "restaurant",
      "name": "Restarante Lagares"
    }
  },
  {
    "type": "node",
    "id": 918569696,
    "lat": 37.3779766,
    "lon": -6.0459576,
    "timestamp": "2010-09-19T16:31:44Z",
    "version": 1,
    "changeset": 5821519,
    "user": "jamesks",
    "uid": 2500,
    "tags": {
      "amenity": "restaurant"
    }
  },
  {
    "type": "node",
    "id": 918585412,
    "lat": 37.3760838,
    "lon": -6.045743,
    "timestamp": "2010-09-19T16:37:57Z",
    "version": 1,
    "changeset": 5821519,
    "user": "jamesks",
    "uid": 2500,
    "tags": {
      "amenity": "restaurant"
    }
  },
  {
    "type": "node",
    "id": 918585613,
    "lat": 37.3765528,
    "lon": -6.0467193,
    "timestamp": "2023-09-21T20:23:53Z",
    "version": 3,
    "changeset": 141576724,
    "user": "Hugoren Martinako",
    "uid": 3392826,
    "tags": {
      "addr:city": "Tomares",
      "addr:housenumber": "20",
      "addr:postcode": "41940",
      "addr:street": "Plaza Príncipe de Asturias",
      "amenity": "restaurant",
      "name": "Los Quatro Gatos",
      "opening_hours": "Tu-Su 21:00-00:30",
      "phone": "+34607561281"
    }
  },
  {
    "type": "node",
    "id": 921237575,
    "lat": 37.3757711,
    "lon": -6.051537,
    "timestamp": "2010-09-22T11:51:17Z",
    "version": 1,
    "changeset": 5844798,
    "user": "jamesks",
    "uid": 2500,
    "tags": {
      "amenity": "restaurant"
    }
  },
  {
    "type": "node",
    "id": 942636592,
    "lat": 37.386136,
    "lon": -5.9902287,
    "timestamp": "2023-02-23T17:42:35Z",
    "version": 3,
    "changeset": 132937246,
    "user": "mobip",
    "uid": 2983,
    "tags": {
      "amenity": "restaurant",
      "cuisine": "regional",
      "name": "Belmonte Bar"
    }
  },
  {
    "type": "node",
    "id": 959303406,
    "lat": 37.3410088,
    "lon": -6.0591991,
    "timestamp": "2020-02-08T20:56:08Z",
    "version": 3,
    "changeset": 80734316,
    "user": "mariocebolla",
    "uid": 9852220,
    "tags": {
      "amenity": "restaurant",
      "name": "Bule Bar"
    }
  },
  {
    "type": "node",
    "id": 960302899,
    "lat": 37.3852328,
    "lon": -5.9910171,
    "timestamp": "2025-02-10T19:21:07Z",
    "version": 2,
    "changeset": 162364525,
    "user": "paulbrunner",
    "uid": 15541433,
    "tags": {
      "amenity": "restaurant",
      "check_date": "2025-02-10",
      "name": "Café Santacruz"
    }
  },
  {
    "type": "node",
    "id": 960303540,
    "lat": 37.3885089,
    "lon": -5.9897578,
    "timestamp": "2025-02-10T19:21:07Z",
    "version": 4,
    "changeset": 162364525,
    "user": "paulbrunner",
    "uid": 15541433,
    "tags": {
      "amenity": "restaurant",
      "check_date": "2025-02-10",
      "name": "La Espuela",
      "opening_hours": "Mo-Fr 08:00-13:00"
    }
  },
  {
    "type": "node",
    "id": 960835772,
    "lat": 37.3874557,
    "lon": -5.9913286,
    "timestamp": "2024-02-26T18:27:26Z",
    "version": 3,
    "changeset": 147943983,
    "user": "o_andras",
    "uid": 13641767,
    "tags": {
      "amenity": "restaurant",
      "name": "La Monda"
    }
  },
  {
    "type": "node",
    "id": 1057576158,
    "lat": 37.3841836,
    "lon": -5.9786739,
    "timestamp": "2016-05-20T19:44:26Z",
    "version": 2,
    "changeset": 39458492,
    "user": "Creando",
    "uid": 132740,
    "tags": {
      "addr:postcode": "41018",
      "addr:street": "Eduardo Dato",
      "amenity": "restaurant",
      "cuisine": "tapas",
      "name": "depiKofino"
    }
  },
  {
    "type": "node",
    "id": 1083991528,
    "lat": 37.4371601,
    "lon": -6.0383538,
    "timestamp": "2023-01-19T15:15:51Z",
    "version": 4,
    "changeset": 131469985,
    "user": "Đuro Jiří",
    "uid": 14617702,
    "tags": {
      "amenity": "restaurant",
      "indoor_seating": "yes",
      "name": "Bodeguita Reyes",
      "outdoor_seating": "yes",
      "wheelchair": "yes"
    }
  },
  {
    "type": "node",
    "id": 1084190885,
    "lat": 37.4428709,
    "lon": -6.0422729,
    "timestamp": "2012-01-24T17:12:48Z",
    "version": 2,
    "changeset": 10486318,
    "user": "iceman2000",
    "uid": 526577,
    "tags": {
      "amenity": "restaurant",
      "name": "Comedor La Candela"
    }
  },
  {
    "type": "node",
    "id": 1084190898,
    "lat": 37.4427431,
    "lon": -6.0421337,
    "timestamp": "2023-01-19T14:42:48Z",
    "version": 3,
    "changeset": 131469994,
    "user": "Đuro Jiří",
    "uid": 14617702,
    "tags": {
      "amenity": "restaurant",
      "indoor_seating": "yes",
      "name": "Horno de Gregorio",
      "outdoor_seating": "yes"
    }
  },
  {
    "type": "node",
    "id": 1084396340,
    "lat": 37.4439312,
    "lon": -6.0437606,
    "timestamp": "2023-01-19T14:42:46Z",
    "version": 2,
    "changeset": 131469994,
    "user": "Đuro Jiří",
    "uid": 14617702,
    "tags": {
      "amenity": "restaurant",
      "indoor_seating": "yes",
      "name": "Ventorillo Canario",
      "outdoor_seating": "yes"
    }
  },
  {
    "type": "node",
    "id": 1084396343,
    "lat": 37.4451947,
    "lon": -6.0449235,
    "timestamp": "2023-01-19T14:42:42Z",
    "version": 2,
    "changeset": 131469994,
    "user": "Đuro Jiří",
    "uid": 14617702,
    "tags": {
      "amenity": "restaurant",
      "indoor_seating": "yes",
      "name": "Restaurante Brasileño \"La Caipiriña\"",
      "outdoor_seating": "yes"
    }
  },
  {
    "type": "node",
    "id": 1084396354,
    "lat": 37.4441424,
    "lon": -6.0441034,
    "timestamp": "2011-01-05T22:20:39Z",
    "version": 1,
    "changeset": 6877069,
    "user": "tillea",
    "uid": 156263,
    "tags": {
      "amenity": "restaurant",
      "name": "Gran Venta Italica - Casa Venancio"
    }
  },
  {
    "type": "node",
    "id": 1140017655,
    "lat": 37.4017158,
    "lon": -5.9316884,
    "timestamp": "2014-12-28T03:37:04Z",
    "version": 2,
    "changeset": 27745414,
    "user": "CarlosMG",
    "uid": 2163609,
    "tags": {
      "addr:city": "Sevilla",
      "amenity": "restaurant",
      "name": "Club Social Ciudad Blanca"
    }
  },
  {
    "type": "node",
    "id": 1140017668,
    "lat": 37.4015324,
    "lon": -5.9319148,
    "timestamp": "2024-09-29T10:34:50Z",
    "version": 3,
    "changeset": 157245847,
    "user": "Delawen",
    "uid": 92188,
    "tags": {
      "addr:city": "Sevilla",
      "addr:street": "Urbano Orad",
      "amenity": "restaurant",
      "name": "ADC Los Colores",
      "phone": "955 38 46 99"
    }
  },
  {
    "type": "node",
    "id": 1140844512,
    "lat": 37.4003541,
    "lon": -5.9922064,
    "timestamp": "2023-12-26T13:49:16Z",
    "version": 8,
    "changeset": 145535239,
    "user": "juanma",
    "uid": 74439,
    "tags": {
      "addr:city": "Sevilla",
      "addr:housenumber": "23",
      "addr:postcode": "41002",
      "addr:street": "Calle Relator",
      "amenity": "restaurant",
      "name": "Farol"
    }
  },
  {
    "type": "node",
    "id": 1140844514,
    "lat": 37.4003428,
    "lon": -5.99323,
    "timestamp": "2025-04-16T20:46:29Z",
    "version": 6,
    "changeset": 165046070,
    "user": "sagarawrz07",
    "uid": 4831756,
    "tags": {
      "addr:city": "Sevilla",
      "addr:housenumber": "55",
      "addr:postcode": "41002",
      "addr:street": "Alameda de Hércules",
      "amenity": "restaurant",
      "check_date": "2023-10-19",
      "indoor_seating": "yes",
      "name": "Café Piola",
      "outdoor_seating": "yes",
      "phone": "+34-954 37 71 91",
      "wheelchair": "yes"
    }
  },
  {
    "type": "node",
    "id": 1140844517,
    "lat": 37.4006326,
    "lon": -5.9934284,
    "timestamp": "2022-04-22T12:17:02Z",
    "version": 3,
    "changeset": 120048418,
    "user": "Johnbo",
    "uid": 915796,
    "tags": {
      "addr:city": "Sevilla",
      "addr:housenumber": "54",
      "addr:postcode": "41002",
      "addr:street": "Alameda de Hércules",
      "amenity": "restaurant",
      "contact:facebook": "https://www.facebook.com/ElBadulaqueAlameda/",
      "email": "el_badulaque@hotmail.com",
      "name": "El Badulaque",
      "outdoor_seating": "yes",
      "phone": "+34 95 490 82 68",
      "website": "https://el-badulaque.eatbu.com/",
      "wheelchair": "limited"
    }
  },
  {
    "type": "node",
    "id": 1152685240,
    "lat": 37.4009242,
    "lon": -5.9951753,
    "timestamp": "2024-02-19T07:59:15Z",
    "version": 4,
    "changeset": 147637902,
    "user": "duke_leto",
    "uid": 1814943,
    "tags": {
      "addr:city": "Sevilla",
      "addr:housenumber": "14",
      "addr:postcode": "41002",
      "addr:street": "Calle Lumbreras",
      "amenity": "restaurant",
      "diet:vegetarian": "no",
      "name": "Mono",
      "phone": "+34 955911813",
      "website": "@mono.svq"
    }
  },
  {
    "type": "node",
    "id": 1227283690,
    "lat": 37.1801975,
    "lon": -5.778085,
    "timestamp": "2011-04-01T08:13:15Z",
    "version": 2,
    "changeset": 7733084,
    "user": "José Manuel Díaz Soriano",
    "uid": 384182,
    "tags": {
      "amenity": "restaurant",
      "name": "Gurugu"
    }
  },
  {
    "type": "node",
    "id": 1227283693,
    "lat": 37.1854091,
    "lon": -5.7736925,
    "timestamp": "2011-03-31T22:22:53Z",
    "version": 1,
    "changeset": 7730750,
    "user": "José Manuel Díaz Soriano",
    "uid": 384182,
    "tags": {
      "amenity": "restaurant",
      "name": "Bar El Toreo"
    }
  },
  {
    "type": "node",
    "id": 1227283703,
    "lat": 37.1817217,
    "lon": -5.781104,
    "timestamp": "2019-01-29T13:31:34Z",
    "version": 3,
    "changeset": 66738889,
    "user": "lamajaso",
    "uid": 9337548,
    "tags": {
      "addr:city": "Utrera",
      "amenity": "restaurant",
      "name": "Bar Central"
    }
  },
  {
    "type": "node",
    "id": 1227283715,
    "lat": 37.1852468,
    "lon": -5.7758456,
    "timestamp": "2011-03-31T22:22:53Z",
    "version": 1,
    "changeset": 7730750,
    "user": "José Manuel Díaz Soriano",
    "uid": 384182,
    "tags": {
      "amenity": "restaurant",
      "name": "Nuevo Bar Colón"
    }
  },
  {
    "type": "node",
    "id": 1227283720,
    "lat": 37.1806176,
    "lon": -5.779663,
    "timestamp": "2014-08-08T14:12:38Z",
    "version": 2,
    "changeset": 24616735,
    "user": "elektro79",
    "uid": 2245043,
    "tags": {
      "amenity": "restaurant",
      "name": "Bar Basilio"
    }
  },
  {
    "type": "node",
    "id": 1227283733,
    "lat": 37.1869203,
    "lon": -5.7711975,
    "timestamp": "2011-03-31T22:22:53Z",
    "version": 1,
    "changeset": 7730750,
    "user": "José Manuel Díaz Soriano",
    "uid": 384182,
    "tags": {
      "amenity": "restaurant",
      "name": "Bar Almadraba"
    }
  },
  {
    "type": "node",
    "id": 1227283742,
    "lat": 37.1830775,
    "lon": -5.778085,
    "timestamp": "2011-04-16T16:29:20Z",
    "version": 2,
    "changeset": 7879671,
    "user": "José Manuel Díaz Soriano",
    "uid": 384182,
    "tags": {
      "amenity": "restaurant",
      "name": "Bar Casa Valentín"
    }
  },
  {
    "type": "node",
    "id": 1227283745,
    "lat": 37.1802575,
    "lon": -5.778081,
    "timestamp": "2011-03-31T22:22:54Z",
    "version": 1,
    "changeset": 7730750,
    "user": "José Manuel Díaz Soriano",
    "uid": 384182,
    "tags": {
      "amenity": "restaurant",
      "name": "Bar La Taska"
    }
  },
  {
    "type": "node",
    "id": 1227283767,
    "lat": 37.1840753,
    "lon": -5.7792423,
    "timestamp": "2011-03-31T22:22:54Z",
    "version": 1,
    "changeset": 7730750,
    "user": "José Manuel Díaz Soriano",
    "uid": 384182,
    "tags": {
      "amenity": "restaurant",
      "name": "Ancá Furrili"
    }
  },
  {
    "type": "node",
    "id": 1227283774,
    "lat": 37.1898705,
    "lon": -5.7705149,
    "timestamp": "2011-03-31T22:22:54Z",
    "version": 1,
    "changeset": 7730750,
    "user": "José Manuel Díaz Soriano",
    "uid": 384182,
    "tags": {
      "amenity": "restaurant",
      "cuisine": "regional",
      "name": "Espeto de Málaga",
      "wheelchair": "yes"
    }
  },
  {
    "type": "node",
    "id": 1227283803,
    "lat": 37.1853668,
    "lon": -5.7751202,
    "timestamp": "2011-03-31T22:22:55Z",
    "version": 1,
    "changeset": 7730750,
    "user": "José Manuel Díaz Soriano",
    "uid": 384182,
    "tags": {
      "amenity": "restaurant",
      "name": "Bar El Punto"
    }
  },
  {
    "type": "node",
    "id": 1227283808,
    "lat": 37.1898131,
    "lon": -5.7657682,
    "timestamp": "2023-12-11T08:29:44Z",
    "version": 2,
    "changeset": 144989640,
    "user": "kapazao",
    "uid": 7543375,
    "tags": {
      "amenity": "restaurant",
      "name": "La Gastroteka"
    }
  },
  {
    "type": "node",
    "id": 1227283821,
    "lat": 37.1817111,
    "lon": -5.7811769,
    "timestamp": "2019-01-29T13:31:34Z",
    "version": 3,
    "changeset": 66738889,
    "user": "lamajaso",
    "uid": 9337548,
    "tags": {
      "addr:city": "Utrera",
      "amenity": "restaurant",
      "name": "Bar Escamilla"
    }
  },
  {
    "type": "node",
    "id": 1227283823,
    "lat": 37.1858279,
    "lon": -5.7768602,
    "timestamp": "2011-03-31T22:22:55Z",
    "version": 1,
    "changeset": 7730750,
    "user": "José Manuel Díaz Soriano",
    "uid": 384182,
    "tags": {
      "amenity": "restaurant",
      "name": "Bar Recodo"
    }
  },
  {
    "type": "node",
    "id": 1227283852,
    "lat": 37.1816901,
    "lon": -5.7812803,
    "timestamp": "2019-01-29T13:31:34Z",
    "version": 3,
    "changeset": 66738889,
    "user": "lamajaso",
    "uid": 9337548,
    "tags": {
      "addr:city": "Utrera",
      "amenity": "restaurant",
      "name": "L´plaza"
    }
  },
  {
    "type": "node",
    "id": 1227283855,
    "lat": 37.1812838,
    "lon": -5.7783941,
    "timestamp": "2011-03-31T22:22:55Z",
    "version": 1,
    "changeset": 7730750,
    "user": "José Manuel Díaz Soriano",
    "uid": 384182,
    "tags": {
      "amenity": "restaurant",
      "name": "La Bodeguita"
    }
  },
  {
    "type": "node",
    "id": 1227283877,
    "lat": 37.1841761,
    "lon": -5.7788763,
    "timestamp": "2011-04-06T23:50:42Z",
    "version": 2,
    "changeset": 7790312,
    "user": "José Manuel Díaz Soriano",
    "uid": 384182,
    "tags": {
      "amenity": "restaurant",
      "name": "Bar Remedio"
    }
  },
  {
    "type": "node",
    "id": 1227283887,
    "lat": 37.1835385,
    "lon": -5.7788143,
    "timestamp": "2011-03-31T22:22:56Z",
    "version": 1,
    "changeset": 7730750,
    "user": "José Manuel Díaz Soriano",
    "uid": 384182,
    "tags": {
      "amenity": "restaurant",
      "name": "Bar Currito"
    }
  },
  {
    "type": "node",
    "id": 1227283912,
    "lat": 37.1811133,
    "lon": -5.7783941,
    "timestamp": "2011-03-31T22:22:56Z",
    "version": 1,
    "changeset": 7730750,
    "user": "José Manuel Díaz Soriano",
    "uid": 384182,
    "tags": {
      "amenity": "restaurant",
      "name": "BarIbense"
    }
  },
  {
    "type": "node",
    "id": 1227283921,
    "lat": 37.1804605,
    "lon": -5.7785032,
    "timestamp": "2017-07-18T12:14:21Z",
    "version": 2,
    "changeset": 50377844,
    "user": "Juanma Jimenez",
    "uid": 1720214,
    "tags": {
      "amenity": "restaurant",
      "name": "Bouquet"
    }
  },
  {
    "type": "node",
    "id": 1227283928,
    "lat": 37.1890524,
    "lon": -5.7664009,
    "timestamp": "2011-03-31T22:22:56Z",
    "version": 1,
    "changeset": 7730750,
    "user": "José Manuel Díaz Soriano",
    "uid": 384182,
    "tags": {
      "amenity": "restaurant",
      "name": "Marchenero e hija"
    }
  },
  {
    "type": "node",
    "id": 1227290941,
    "lat": 37.1814133,
    "lon": -5.7847121,
    "timestamp": "2011-03-31T22:29:32Z",
    "version": 1,
    "changeset": 7730779,
    "user": "José Manuel Díaz Soriano",
    "uid": 384182,
    "tags": {
      "amenity": "restaurant",
      "internet_access": "yes",
      "name": "Eskakeo"
    }
  },
  {
    "type": "node",
    "id": 1227290951,
    "lat": 37.1777595,
    "lon": -5.7813311,
    "timestamp": "2011-03-31T22:29:33Z",
    "version": 1,
    "changeset": 7730779,
    "user": "José Manuel Díaz Soriano",
    "uid": 384182,
    "tags": {
      "amenity": "restaurant",
      "name": "Arco Restaurante"
    }
  },
  {
    "type": "node",
    "id": 1227290954,
    "lat": 37.182067,
    "lon": -5.7837568,
    "timestamp": "2011-03-31T22:29:33Z",
    "version": 1,
    "changeset": 7730779,
    "user": "José Manuel Díaz Soriano",
    "uid": 384182,
    "tags": {
      "amenity": "restaurant",
      "name": "Bar La Reja"
    }
  },
  {
    "type": "node",
    "id": 1227290956,
    "lat": 37.1833683,
    "lon": -5.7852775,
    "timestamp": "2024-06-07T11:13:54Z",
    "version": 2,
    "changeset": 152371022,
    "user": "ivansanchez",
    "uid": 5265,
    "tags": {
      "amenity": "restaurant",
      "cuisine": "friture",
      "name": "Freiduría Francis",
      "phone": "+34 624322532"
    }
  },
  {
    "type": "node",
    "id": 1227290971,
    "lat": 37.1815459,
    "lon": -5.7845337,
    "timestamp": "2011-03-31T22:29:33Z",
    "version": 1,
    "changeset": 7730779,
    "user": "José Manuel Díaz Soriano",
    "uid": 384182,
    "tags": {
      "amenity": "restaurant",
      "name": "Peña Bética Utrera"
    }
  },
  {
    "type": "node",
    "id": 1227290975,
    "lat": 37.1777027,
    "lon": -5.7813985,
    "timestamp": "2011-03-31T22:29:33Z",
    "version": 1,
    "changeset": 7730779,
    "user": "José Manuel Díaz Soriano",
    "uid": 384182,
    "tags": {
      "amenity": "restaurant",
      "name": "Arco Tapas"
    }
  },
  {
    "type": "node",
    "id": 1227300116,
    "lat": 37.1874277,
    "lon": -5.7875535,
    "timestamp": "2015-01-11T19:22:08Z",
    "version": 2,
    "changeset": 28071069,
    "user": "CarlosMG",
    "uid": 2163609,
    "tags": {
      "amenity": "restaurant",
      "name": "Bellido"
    }
  },
  {
    "type": "node",
    "id": 1227300119,
    "lat": 37.1913189,
    "lon": -5.7926788,
    "timestamp": "2015-01-11T19:32:01Z",
    "version": 2,
    "changeset": 28071314,
    "user": "CarlosMG",
    "uid": 2163609,
    "tags": {
      "addr:city": "Utrera",
      "amenity": "restaurant",
      "name": "Cuatro Estaciones"
    }
  },
  {
    "type": "node",
    "id": 1227300129,
    "lat": 37.1828005,
    "lon": -5.7891724,
    "timestamp": "2011-03-31T22:40:16Z",
    "version": 1,
    "changeset": 7730824,
    "user": "José Manuel Díaz Soriano",
    "uid": 384182,
    "tags": {
      "amenity": "restaurant",
      "name": "Primera Parada"
    }
  },
  {
    "type": "node",
    "id": 1233103803,
    "lat": 37.2384518,
    "lon": -6.1289685,
    "timestamp": "2024-02-03T19:47:39Z",
    "version": 4,
    "changeset": 147032139,
    "user": "kapazao_import",
    "uid": 8770019,
    "tags": {
      "amenity": "restaurant",
      "name": "La cañada de los pájaros Taberna",
      "phone": "+34 955771993",
      "website": "https://canadadelospajaros.com/"
    }
  },
  {
    "type": "node",
    "id": 1233104024,
    "lat": 37.2782876,
    "lon": -6.234916,
    "timestamp": "2011-04-04T22:43:16Z",
    "version": 1,
    "changeset": 7770492,
    "user": "jamesks",
    "uid": 2500,
    "tags": {
      "amenity": "restaurant"
    }
  },
  {
    "type": "node",
    "id": 1236576476,
    "lat": 37.3747698,
    "lon": -6.0520611,
    "timestamp": "2018-04-06T20:12:47Z",
    "version": 2,
    "changeset": 57876950,
    "user": "avm",
    "uid": 99570,
    "tags": {
      "amenity": "restaurant",
      "name": "Tomaré Tapas"
    }
  },
  {
    "type": "node",
    "id": 1239265184,
    "lat": 37.3621066,
    "lon": -6.0291403,
    "timestamp": "2011-04-09T21:43:56Z",
    "version": 1,
    "changeset": 7817842,
    "user": "jamesks",
    "uid": 2500,
    "tags": {
      "amenity": "restaurant"
    }
  },
  {
    "type": "node",
    "id": 1258983100,
    "lat": 37.3953691,
    "lon": -5.9915658,
    "timestamp": "2024-08-19T19:12:50Z",
    "version": 4,
    "changeset": 155477208,
    "user": "Hugoren Martinako",
    "uid": 3392826,
    "tags": {
      "amenity": "restaurant",
      "drink:craft_beer": "yes",
      "internet_access": "wlan",
      "internet_access:fee": "no",
      "name": "Viriato Gastrobar",
      "smoking": "no",
      "wheelchair": "yes"
    }
  },
  {
    "type": "node",
    "id": 1261046117,
    "lat": 37.2786362,
    "lon": -5.9216641,
    "timestamp": "2024-08-21T21:19:43Z",
    "version": 2,
    "changeset": 155579111,
    "user": "Rickydh",
    "uid": 335661,
    "tags": {
      "alt_name": "Bar Emilio",
      "amenity": "restaurant",
      "name": "Bar La Jarrita",
      "old_name": "Bar Emilio"
    }
  },
  {
    "type": "node",
    "id": 1261449852,
    "lat": 37.2834726,
    "lon": -5.9145808,
    "timestamp": "2019-09-15T19:24:05Z",
    "version": 3,
    "changeset": 74504572,
    "user": "Rickydh",
    "uid": 335661,
    "tags": {
      "amenity": "restaurant",
      "name": "Cervecería La Teja"
    }
  },
  {
    "type": "node",
    "id": 1261449853,
    "lat": 37.2834619,
    "lon": -5.9144064,
    "timestamp": "2025-04-08T19:45:15Z",
    "version": 5,
    "changeset": 164695679,
    "user": "Rickydh",
    "uid": 335661,
    "tags": {
      "amenity": "restaurant",
      "name": "25 y La pirula"
    }
  },
  {
    "type": "node",
    "id": 1262587227,
    "lat": 37.4722858,
    "lon": -5.6388362,
    "timestamp": "2021-11-06T20:17:18Z",
    "version": 3,
    "changeset": 113460138,
    "user": "pürierstab",
    "uid": 4393065,
    "tags": {
      "addr:housenumber": "4",
      "addr:street": "Juan de Oya",
      "amenity": "restaurant",
      "name": "Bar Plaza",
      "phone": "+34 663 536728"
    }
  },
  {
    "type": "node",
    "id": 1262587228,
    "lat": 37.472086,
    "lon": -5.638035,
    "timestamp": "2021-09-23T23:31:56Z",
    "version": 3,
    "changeset": 111622522,
    "user": "Carlos_N",
    "uid": 3242739,
    "tags": {
      "amenity": "restaurant",
      "name": "Bodeguita Jose María"
    }
  },
  {
    "type": "node",
    "id": 1270117715,
    "lat": 37.2856253,
    "lon": -5.9139685,
    "timestamp": "2011-11-11T08:55:32Z",
    "version": 2,
    "changeset": 9794644,
    "user": "jacksparrow",
    "uid": 235316,
    "tags": {
      "amenity": "restaurant",
      "name": "Kiosco Ukelele"
    }
  },
  {
    "type": "node",
    "id": 1270124635,
    "lat": 37.3402646,
    "lon": -5.8502334,
    "timestamp": "2011-05-02T09:23:16Z",
    "version": 1,
    "changeset": 8028960,
    "user": "Rickydh",
    "uid": 335661,
    "tags": {
      "amenity": "restaurant",
      "name": "El liebre"
    }
  },
  {
    "type": "node",
    "id": 1270127016,
    "lat": 37.2832446,
    "lon": -5.9220688,
    "timestamp": "2024-09-16T20:53:06Z",
    "version": 5,
    "changeset": 156705886,
    "user": "Rickydh",
    "uid": 335661,
    "tags": {
      "amenity": "restaurant",
      "name": "Bar El barrilito"
    }
  },
  {
    "type": "node",
    "id": 1270182915,
    "lat": 37.3418044,
    "lon": -5.8483342,
    "timestamp": "2011-05-02T11:42:11Z",
    "version": 1,
    "changeset": 8029734,
    "user": "Rickydh",
    "uid": 335661,
    "tags": {
      "amenity": "restaurant",
      "name": "El rincon de Bernardo"
    }
  },
  {
    "type": "node",
    "id": 1277003447,
    "lat": 37.2911157,
    "lon": -5.9373052,
    "timestamp": "2011-09-03T22:04:51Z",
    "version": 2,
    "changeset": 9204293,
    "user": "Rickydh",
    "uid": 335661,
    "tags": {
      "amenity": "restaurant",
      "name": "La parrilla de Las Copas"
    }
  },
  {
    "type": "node",
    "id": 1278759403,
    "lat": 37.2774421,
    "lon": -5.9236705,
    "timestamp": "2011-05-09T22:35:17Z",
    "version": 1,
    "changeset": 8097745,
    "user": "Rickydh",
    "uid": 335661,
    "tags": {
      "amenity": "restaurant",
      "name": "Mendoza"
    }
  },
  {
    "type": "node",
    "id": 1290539367,
    "lat": 37.3964006,
    "lon": -5.9945136,
    "timestamp": "2011-05-18T16:44:59Z",
    "version": 1,
    "changeset": 8182684,
    "user": "Creando",
    "uid": 132740,
    "tags": {
      "amenity": "restaurant",
      "cuisine": "italian",
      "name": "Il Forno"
    }
  },
  {
    "type": "node",
    "id": 1290554303,
    "lat": 37.3967324,
    "lon": -5.994288,
    "timestamp": "2023-10-20T20:29:11Z",
    "version": 4,
    "changeset": 142890056,
    "user": "SachaBe",
    "uid": 20162835,
    "tags": {
      "amenity": "restaurant",
      "check_date": "2023-10-20",
      "name": "Karpanta"
    }
  },
  {
    "type": "node",
    "id": 1295689969,
    "lat": 37.3251864,
    "lon": -5.9263335,
    "timestamp": "2011-05-22T05:55:10Z",
    "version": 2,
    "changeset": 8212484,
    "user": "Rickydh",
    "uid": 335661,
    "tags": {
      "amenity": "restaurant",
      "name": "El Olivar"
    }
  },
  {
    "type": "node",
    "id": 1308944025,
    "lat": 37.3942666,
    "lon": -5.9915604,
    "timestamp": "2011-06-29T02:14:12Z",
    "version": 2,
    "changeset": 8577040,
    "user": "juanje",
    "uid": 139250,
    "tags": {
      "amenity": "restaurant",
      "name": "La Traviesa"
    }
  },
  {
    "type": "node",
    "id": 1310851834,
    "lat": 37.3865066,
    "lon": -5.9878424,
    "timestamp": "2023-09-11T13:54:13Z",
    "version": 8,
    "changeset": 141114925,
    "user": "wille",
    "uid": 360183,
    "tags": {
      "addr:housenumber": "4",
      "addr:street": "Calle Santa María la Blanca",
      "amenity": "restaurant",
      "check_date": "2023-09-10",
      "diet:vegan": "no",
      "diet:vegetarian": "yes",
      "name": "Restaurante Altara",
      "outdoor_seating": "yes",
      "wheelchair": "yes"
    }
  },
  {
    "type": "node",
    "id": 1311982923,
    "lat": 37.3922476,
    "lon": -5.9935277,
    "timestamp": "2025-03-23T21:21:05Z",
    "version": 6,
    "changeset": 164006370,
    "user": "Alexandrcfif",
    "uid": 103003,
    "tags": {
      "amenity": "restaurant",
      "indoor_seating": "yes",
      "name": "Picantón",
      "outdoor_seating": "yes"
    }
  },
  {
    "type": "node",
    "id": 1314902551,
    "lat": 37.3894486,
    "lon": -5.9934172,
    "timestamp": "2019-10-28T14:05:21Z",
    "version": 5,
    "changeset": 76301560,
    "user": "Wim L",
    "uid": 223681,
    "tags": {
      "amenity": "restaurant",
      "internet_access": "wlan",
      "name": "Los Corales"
    }
  },
  {
    "type": "node",
    "id": 1314903580,
    "lat": 37.3870952,
    "lon": -5.993143,
    "timestamp": "2024-09-17T11:46:18Z",
    "version": 6,
    "changeset": 156726251,
    "user": "mapperich",
    "uid": 8772934,
    "tags": {
      "addr:city": "Sevilla / Casco Antiguo / Santa Cruz",
      "addr:housenumber": "58",
      "addr:postcode": "41004",
      "addr:street": "Calle Álvarez Quintero",
      "amenity": "restaurant",
      "check_date": "2024-09-17",
      "fax": "+34 95 456 4479",
      "name": "Restaurante Casa Robles",
      "phone": "+34 95 421 3150"
    }
  },
  {
    "type": "node",
    "id": 1315132831,
    "lat": 37.3281214,
    "lon": -5.9678531,
    "timestamp": "2011-06-07T14:51:45Z",
    "version": 1,
    "changeset": 8370696,
    "user": "jacksparrow",
    "uid": 235316,
    "tags": {
      "amenity": "restaurant",
      "name": "Real Venta Antequera"
    }
  },
  {
    "type": "node",
    "id": 1315960038,
    "lat": 37.3878378,
    "lon": -5.9607653,
    "timestamp": "2020-10-02T15:43:20Z",
    "version": 3,
    "changeset": 91873241,
    "user": "Yuxian",
    "uid": 10084645,
    "tags": {
      "amenity": "restaurant",
      "brand": "100 Montaditos",
      "brand:wikidata": "Q8355805",
      "brand:wikipedia": "en:Cervecería 100 Montaditos",
      "cuisine": "sandwich",
      "name": "100 Montaditos"
    }
  },
  {
    "type": "node",
    "id": 1315960040,
    "lat": 37.3878497,
    "lon": -5.9605283,
    "timestamp": "2011-06-08T08:41:54Z",
    "version": 1,
    "changeset": 8377218,
    "user": "nonopp",
    "uid": 291857,
    "tags": {
      "amenity": "restaurant"
    }
  },
  {
    "type": "node",
    "id": 1316960267,
    "lat": 37.291756,
    "lon": -5.9112817,
    "timestamp": "2019-05-20T21:21:30Z",
    "version": 4,
    "changeset": 70456433,
    "user": "jacksparrow",
    "uid": 235316,
    "tags": {
      "addr:housenumber": "38",
      "addr:postcode": "41701",
      "addr:street": "Avenida 28 de Febrero",
      "amenity": "restaurant",
      "name": "La Familia"
    }
  },
  {
    "type": "node",
    "id": 1317912309,
    "lat": 37.3459541,
    "lon": -5.8268444,
    "timestamp": "2023-01-04T07:50:21Z",
    "version": 2,
    "changeset": 130854600,
    "user": "Fran Prieto",
    "uid": 449550,
    "tags": {
      "amenity": "restaurant",
      "name": "Restaurante Casa Ramos"
    }
  },
  {
    "type": "node",
    "id": 1317995009,
    "lat": 37.2814074,
    "lon": -5.935377,
    "timestamp": "2020-06-24T10:37:56Z",
    "version": 3,
    "changeset": 87080261,
    "user": "CarlosMG",
    "uid": 2163609,
    "tags": {
      "addr:city": "Dos Hermanas",
      "amenity": "restaurant",
      "cuisine": "chinese",
      "name": "Restaurante chino Las Delicias II"
    }
  },
  {
    "type": "node",
    "id": 1319197249,
    "lat": 37.2833511,
    "lon": -5.9244959,
    "timestamp": "2025-03-21T19:51:18Z",
    "version": 6,
    "changeset": 163922398,
    "user": "elfio",
    "uid": 648304,
    "tags": {
      "addr:city": "Dos Hermanas",
      "addr:postcode": "41701",
      "addr:street": "Calle Botica",
      "amenity": "restaurant",
      "contact:facebook": "pizzeriaciaodoshermanas",
      "contact:instagram": "pizzeriasciao",
      "contact:twitter": "PizzeriasCiao",
      "cuisine": "pizza",
      "delivery": "yes",
      "email": "info@pizzeriaciao.es",
      "internet_access": "wlan",
      "name": "Pizzeria Ciao",
      "opening_hours": "Mo-Su 13:30-16:30, 20:00-00:30",
      "phone": "+34955675768",
      "takeaway": "yes",
      "website": "https://pizzeriaciao.es/",
      "website:menu": "https://pizzeriaciao.es/carta-restaurante/"
    }
  },
  {
    "type": "node",
    "id": 1319254596,
    "lat": 37.3970666,
    "lon": -5.994495,
    "timestamp": "2023-10-20T20:41:53Z",
    "version": 6,
    "changeset": 142890664,
    "user": "SachaBe",
    "uid": 20162835,
    "tags": {
      "addr:street": "Alameda de Hércules",
      "amenity": "restaurant",
      "cuisine": "italian",
      "name": "Farina 23"
    }
  },
  {
    "type": "node",
    "id": 1319364043,
    "lat": 37.3292868,
    "lon": -5.9673377,
    "timestamp": "2025-01-15T16:13:49Z",
    "version": 5,
    "changeset": 161386721,
    "user": "Đuro Jiří",
    "uid": 14617702,
    "tags": {
      "air_conditioning": "yes",
      "amenity": "restaurant",
      "check_date": "2025-01-15",
      "indoor_seating": "yes",
      "name": "Los Barriles",
      "outdoor_seating": "yes",
      "wheelchair": "yes"
    }
  },
  {
    "type": "node",
    "id": 1323347837,
    "lat": 37.290329,
    "lon": -5.9014814,
    "timestamp": "2019-12-18T19:46:00Z",
    "version": 3,
    "changeset": 78598764,
    "user": "Rickydh",
    "uid": 335661,
    "tags": {
      "addr:housename": "Bar Casa Pedro",
      "amenity": "restaurant",
      "name": "Abrasador Casa Pedro"
    }
  },
  {
    "type": "node",
    "id": 1324169203,
    "lat": 37.3951266,
    "lon": -5.997103,
    "timestamp": "2025-03-23T18:43:19Z",
    "version": 4,
    "changeset": 164000278,
    "user": "Alexandrcfif",
    "uid": 103003,
    "tags": {
      "amenity": "restaurant",
      "check_date": "2023-11-14",
      "indoor_seating": "yes",
      "name": "Dos de Mayo",
      "outdoor_seating": "yes"
    }
  },
  {
    "type": "node",
    "id": 1324269866,
    "lat": 37.3338448,
    "lon": -5.8379519,
    "timestamp": "2011-06-13T20:28:55Z",
    "version": 1,
    "changeset": 8431214,
    "user": "loqu",
    "uid": 469790,
    "tags": {
      "amenity": "restaurant",
      "name": "La Parra"
    }
  },
  {
    "type": "node",
    "id": 1324269867,
    "lat": 37.3377048,
    "lon": -5.8510518,
    "timestamp": "2011-06-13T20:28:55Z",
    "version": 1,
    "changeset": 8431214,
    "user": "loqu",
    "uid": 469790,
    "tags": {
      "amenity": "restaurant",
      "cuisine": "regional",
      "name": "El Churrasco 2"
    }
  },
  {
    "type": "node",
    "id": 1329560844,
    "lat": 37.3965139,
    "lon": -5.9877417,
    "timestamp": "2023-10-27T17:59:18Z",
    "version": 5,
    "changeset": 143223197,
    "user": "duke_leto",
    "uid": 1814943,
    "tags": {
      "addr:postcode": "41003",
      "amenity": "restaurant",
      "name": "El Rayo Verde"
    }
  },
  {
    "type": "node",
    "id": 1332820796,
    "lat": 37.2644648,
    "lon": -5.9573677,
    "timestamp": "2023-10-25T03:52:53Z",
    "version": 3,
    "changeset": 143092369,
    "user": "b-jazz-bot",
    "uid": 9451067,
    "tags": {
      "amenity": "restaurant",
      "name": "Hacienda San Miguel de Montelirio",
      "website": "https://montelirio.com/"
    }
  },
  {
    "type": "node",
    "id": 1347651316,
    "lat": 37.3821646,
    "lon": -5.9953291,
    "timestamp": "2011-07-03T09:24:33Z",
    "version": 2,
    "changeset": 8616106,
    "user": "Creando",
    "uid": 132740,
    "tags": {
      "amenity": "restaurant",
      "name": "Lobo"
    }
  },
  {
    "type": "node",
    "id": 1347651318,
    "lat": 37.3821219,
    "lon": -5.9950109,
    "timestamp": "2011-07-03T09:24:33Z",
    "version": 2,
    "changeset": 8616106,
    "user": "Creando",
    "uid": 132740,
    "tags": {
      "addr:housenumber": "2",
      "addr:street": "Calle Almirante Lobo",
      "amenity": "restaurant",
      "name": "Gorki"
    }
  },
  {
    "type": "node",
    "id": 1347651321,
    "lat": 37.3821412,
    "lon": -5.995152,
    "timestamp": "2011-07-03T09:24:33Z",
    "version": 2,
    "changeset": 8616106,
    "user": "Creando",
    "uid": 132740,
    "tags": {
      "addr:housenumber": "2",
      "addr:street": "Calle Almirante Lobo",
      "amenity": "restaurant",
      "name": "Toro",
      "website": "http://bar-restaurante-toro.es"
    }
  },
  {
    "type": "node",
    "id": 1348453687,
    "lat": 37.3926518,
    "lon": -5.9946892,
    "timestamp": "2025-03-23T21:24:00Z",
    "version": 8,
    "changeset": 164006370,
    "user": "Alexandrcfif",
    "uid": 103003,
    "tags": {
      "amenity": "restaurant",
      "brand": "100 Montaditos",
      "brand:wikidata": "Q8355805",
      "check_date": "2024-05-29",
      "cuisine": "sandwich",
      "indoor_seating": "yes",
      "name": "100 Montaditos",
      "outdoor_seating": "no",
      "wheelchair": "yes"
    }
  },
  {
    "type": "node",
    "id": 1348488494,
    "lat": 37.3855855,
    "lon": -5.9868694,
    "timestamp": "2015-03-25T20:35:42Z",
    "version": 4,
    "changeset": 29738309,
    "user": "Luiyo",
    "uid": 316694,
    "tags": {
      "addr:street": "Calle Cano y Cueto",
      "amenity": "restaurant",
      "cuisine": "spanish",
      "name": "Modesto Tapas"
    }
  },
  {
    "type": "node",
    "id": 1348488582,
    "lat": 37.3854867,
    "lon": -5.9866812,
    "timestamp": "2024-07-23T22:01:33Z",
    "version": 4,
    "changeset": 154325759,
    "user": "b-jazz-bot",
    "uid": 9451067,
    "tags": {
      "addr:city": "Sevilla",
      "addr:housenumber": "4",
      "addr:postcode": "41004",
      "addr:street": "Paseo Catalina de Ribera",
      "amenity": "restaurant",
      "name": "Bendala Brasería",
      "phone": "+34 955228001",
      "website": "https://bendalabraseria.com/"
    }
  },
  {
    "type": "node",
    "id": 1348488636,
    "lat": 37.3861737,
    "lon": -5.9872201,
    "timestamp": "2016-06-04T12:20:48Z",
    "version": 3,
    "changeset": 39796579,
    "user": "erlenmeyer",
    "uid": 875518,
    "tags": {
      "amenity": "restaurant",
      "name": "Horno las Doncellas",
      "opening_hours": "Mo-Sa 06:45-15:30, 17:30-21:00",
      "shop": "bakery"
    }
  },
  {
    "type": "node",
    "id": 1348488849,
    "lat": 37.3854462,
    "lon": -5.9865632,
    "timestamp": "2018-04-08T18:36:04Z",
    "version": 10,
    "changeset": 57920091,
    "user": "dazlious",
    "uid": 7632722,
    "tags": {
      "addr:housenumber": "4",
      "addr:postcode": "41004",
      "addr:street": "Catalina de Ribera",
      "amenity": "restaurant",
      "cuisine": "spanish;tapas",
      "diet:vegan": "no",
      "diet:vegetarian": "yes",
      "email": "catalinalaheroina@yahoo.es",
      "name": "Catalina Bar de Tapas",
      "phone": "+36954412412",
      "website": "http://www.barcatalina.es",
      "wheelchair": "limited"
    }
  },
  {
    "type": "node",
    "id": 1360279682,
    "lat": 37.4064537,
    "lon": -5.9285702,
    "timestamp": "2011-07-13T11:41:17Z",
    "version": 1,
    "changeset": 8711598,
    "user": "WuTan Zanzerine",
    "uid": 487882,
    "tags": {
      "amenity": "restaurant",
      "cuisine": "spanish",
      "name": "La Malteria"
    }
  },
  {
    "type": "node",
    "id": 1367547598,
    "lat": 37.3237129,
    "lon": -5.8526844,
    "timestamp": "2021-12-14T09:05:51Z",
    "version": 4,
    "changeset": 114914024,
    "user": "Hugoren Martinako",
    "uid": 3392826,
    "tags": {
      "amenity": "restaurant",
      "contact:facebook": "https://www.facebook.com/LaYerbabuenaRestaurante",
      "name": "La Yerbabuena",
      "outdoor_seating": "yes",
      "phone": "+34622603934"
    }
  },
  {
    "type": "node",
    "id": 1382312697,
    "lat": 37.3875989,
    "lon": -5.9885597,
    "timestamp": "2024-07-15T20:56:15Z",
    "version": 5,
    "changeset": 153989487,
    "user": "niels-valec",
    "uid": 18379809,
    "tags": {
      "addr:city": "Sevilla",
      "addr:housenumber": "15",
      "addr:postcode": "41004",
      "addr:street": "Calle San José",
      "amenity": "restaurant",
      "cuisine": "spanish;tapas",
      "indoor_seating": "yes",
      "name": "Levies Cafe-Bar",
      "outdoor_seating": "yes",
      "phone": "+34 954 21 53 08"
    }
  },
  {
    "type": "node",
    "id": 1383397365,
    "lat": 37.3983537,
    "lon": -5.9943094,
    "timestamp": "2022-12-24T13:02:02Z",
    "version": 5,
    "changeset": 130455815,
    "user": "kapazao_import",
    "uid": 8770019,
    "tags": {
      "addr:housenumber": "29",
      "addr:postcode": "41002",
      "addr:street": "Alameda de Hércules",
      "amenity": "restaurant",
      "brand": "Pomodoro",
      "brand:website": "https://pomodoro.es",
      "brand:wikidata": "Q115475288",
      "cuisine": "italian;pasta;pizza",
      "name": "Pomodoro",
      "outdoor_seating": "yes",
      "wheelchair": "yes"
    }
  },
  {
    "type": "node",
    "id": 1416168823,
    "lat": 37.1604376,
    "lon": -5.9250903,
    "timestamp": "2023-01-20T09:03:43Z",
    "version": 5,
    "changeset": 131498939,
    "user": "Đuro Jiří",
    "uid": 14617702,
    "tags": {
      "addr:city": "Los Palacios y Villafranca",
      "addr:postcode": "41720",
      "addr:street": "Calle Maestro Diego Llorente",
      "amenity": "restaurant",
      "email": "tabernalaliebre@gmail.com",
      "name": "Taberna La Liebre",
      "phone": "+34 630 92 79 18",
      "website": "https://tabernalaliebre.com/"
    }
  },
  {
    "type": "node",
    "id": 1416524503,
    "lat": 37.1602079,
    "lon": -5.9250846,
    "timestamp": "2014-12-27T17:11:58Z",
    "version": 3,
    "changeset": 27735042,
    "user": "CarlosMG",
    "uid": 2163609,
    "tags": {
      "addr:city": "Los Palacios y Villafranca",
      "addr:postcode": "41720",
      "amenity": "restaurant",
      "cuisine": "regional",
      "name": "Taberna La Liebre"
    }
  },
  {
    "type": "node",
    "id": 1416733990,
    "lat": 37.2989418,
    "lon": -5.9304245,
    "timestamp": "2022-09-04T11:48:07Z",
    "version": 5,
    "changeset": 125769434,
    "user": "elfio",
    "uid": 648304,
    "tags": {
      "addr:housenumber": "34",
      "addr:postcode": "41704",
      "addr:street": "Avenida Adolfo Suárez",
      "amenity": "restaurant",
      "contact:facebook": "marysplacediner",
      "contact:instagram": "marys_place_diner",
      "contact:twitter": "marysplacedh",
      "cuisine": "american",
      "email": "info@marysplacediner.es",
      "name": "Mary´s Place Dinner",
      "opening_hours": "Mo-Sa 13:00-16:30, 19:30-23:30; Su 13:00-16:30, 19:00-23:00",
      "phone": "+34 955 08 36 06",
      "website": "https://marysplacediner.es/"
    }
  },
  {
    "type": "node",
    "id": 1417774212,
    "lat": 37.3889619,
    "lon": -5.9811116,
    "timestamp": "2018-12-26T12:51:24Z",
    "version": 3,
    "changeset": 65783636,
    "user": "Delawen",
    "uid": 92188,
    "tags": {
      "addr:city": "Sevilla",
      "addr:housenumber": "1",
      "addr:street": "Calle Campo de los Mártires",
      "amenity": "restaurant",
      "cuisine": "argentinian",
      "name": "Milonga's",
      "outdoor_seating": "no",
      "smoking": "no",
      "takeaway": "no",
      "wheelchair": "yes"
    }
  },
  {
    "type": "node",
    "id": 1420803862,
    "lat": 37.2871196,
    "lon": -5.943552,
    "timestamp": "2011-09-02T09:56:06Z",
    "version": 1,
    "changeset": 9191592,
    "user": "jacksparrow",
    "uid": 235316,
    "tags": {
      "amenity": "restaurant",
      "name": "Casa Andrés"
    }
  },
  {
    "type": "node",
    "id": 1420813389,
    "lat": 37.2864854,
    "lon": -5.9458531,
    "timestamp": "2024-08-21T21:01:55Z",
    "version": 2,
    "changeset": 155578555,
    "user": "Rickydh",
    "uid": 335661,
    "tags": {
      "amenity": "restaurant",
      "name": "Centro Social La Motilla"
    }
  },
  {
    "type": "node",
    "id": 1420819412,
    "lat": 37.2812112,
    "lon": -5.9358184,
    "timestamp": "2015-12-08T22:17:02Z",
    "version": 3,
    "changeset": 35835751,
    "user": "Evaristo GZ",
    "uid": 3442758,
    "tags": {
      "amenity": "restaurant",
      "name": "Gambrinus"
    }
  },
  {
    "type": "node",
    "id": 1432277715,
    "lat": 37.341703,
    "lon": -5.844743,
    "timestamp": "2018-01-01T11:25:10Z",
    "version": 2,
    "changeset": 55073637,
    "user": "Rickydh",
    "uid": 335661,
    "tags": {
      "amenity": "restaurant",
      "name": "La nueva talega"
    }
  },
  {
    "type": "node",
    "id": 1456076622,
    "lat": 37.3862452,
    "lon": -5.9498981,
    "timestamp": "2025-02-18T10:05:42Z",
    "version": 2,
    "changeset": 162653525,
    "user": "Gelan369",
    "uid": 22531258,
    "tags": {
      "addr:city": "Sevilla",
      "addr:housenumber": "3",
      "addr:postcode": "41006",
      "addr:street": "Calle Tamar",
      "amenity": "restaurant",
      "cuisine": "spanish",
      "name": "Bodega Mi Tierra",
      "phone": "+34 854 71 98 95",
      "website": "https://bodegamitierra.es/"
    }
  },
  {
    "type": "node",
    "id": 1456076653,
    "lat": 37.3857635,
    "lon": -5.9513787,
    "timestamp": "2011-10-05T15:40:31Z",
    "version": 1,
    "changeset": 9479029,
    "user": "iceman2000",
    "uid": 526577,
    "tags": {
      "amenity": "restaurant"
    }
  },
  {
    "type": "node",
    "id": 1456886982,
    "lat": 37.2713747,
    "lon": -5.927102,
    "timestamp": "2024-08-21T21:42:30Z",
    "version": 3,
    "changeset": 155579730,
    "user": "Rickydh",
    "uid": 335661,
    "tags": {
      "amenity": "restaurant",
      "name": "El rincón de María"
    }
  },
  {
    "type": "node",
    "id": 1460504592,
    "lat": 37.5817424,
    "lon": -5.9603298,
    "timestamp": "2023-10-12T20:43:53Z",
    "version": 4,
    "changeset": 142496924,
    "user": "5R-MFT",
    "uid": 3417876,
    "tags": {
      "amenity": "restaurant",
      "contact:facebook": "https://www.facebook.com/HaciendaCuartoDeLaHuerta/",
      "name": "\"Hacienda Cuarto de la Huerta\""
    }
  },
  {
    "type": "node",
    "id": 1463824703,
    "lat": 37.8333623,
    "lon": -5.7702476,
    "timestamp": "2025-03-12T20:43:25Z",
    "version": 2,
    "changeset": 163544741,
    "user": "Begavil84",
    "uid": 1725439,
    "tags": {
      "amenity": "restaurant",
      "name": "Los Álamos",
      "source": "PNOA"
    }
  },
  {
    "type": "node",
    "id": 1463824709,
    "lat": 37.8380457,
    "lon": -5.7652343,
    "timestamp": "2025-03-11T20:43:41Z",
    "version": 2,
    "changeset": 163501857,
    "user": "Begavil84",
    "uid": 1725439,
    "tags": {
      "amenity": "restaurant",
      "name": "Taberna El Cruce",
      "source": "PNOA"
    }
  },
  {
    "type": "node",
    "id": 1482885391,
    "lat": 37.3256859,
    "lon": -5.9670193,
    "timestamp": "2023-01-20T17:23:05Z",
    "version": 2,
    "changeset": 131516589,
    "user": "Đuro Jiří",
    "uid": 14617702,
    "tags": {
      "addr:postcode": "41014",
      "addr:street": "Plaza Fernando VI 13",
      "amenity": "restaurant",
      "cuisine": "spanish",
      "indoor_seating": "yes",
      "name": "Bodeguita Hordeum",
      "outdoor_seating": "yes"
    }
  },
  {
    "type": "node",
    "id": 1492440174,
    "lat": 37.5834132,
    "lon": -5.9672781,
    "timestamp": "2025-04-24T11:48:10Z",
    "version": 7,
    "changeset": 165375208,
    "user": "Viajeronimo",
    "uid": 20457508,
    "tags": {
      "amenity": "restaurant",
      "check_date": "2025-04-23",
      "cuisine": "regional;coffee_shop;spanish",
      "name": "Restaurante El Cruce",
      "name:es": "Restaurante El Cruce",
      "payment:cash": "yes",
      "payment:mastercard": "yes",
      "payment:visa": "yes"
    }
  },
  {
    "type": "node",
    "id": 1519597638,
    "lat": 37.39842,
    "lon": -5.9879244,
    "timestamp": "2023-07-01T11:22:49Z",
    "version": 3,
    "changeset": 137988535,
    "user": "kapazao_import",
    "uid": 8770019,
    "tags": {
      "addr:housenumber": "50",
      "addr:street": "Calle San Luis",
      "amenity": "restaurant",
      "description": "Restaurante \"slow food\"",
      "name": "ConTenedor",
      "phone": "+34 954 91 63 33",
      "website": "https://restaurantecontenedor.com"
    }
  },
  {
    "type": "node",
    "id": 1519854044,
    "lat": 37.3931743,
    "lon": -5.9884269,
    "timestamp": "2016-04-30T20:07:41Z",
    "version": 2,
    "changeset": 39005720,
    "user": "Creando",
    "uid": 132740,
    "tags": {
      "amenity": "restaurant",
      "name": "La Giganta",
      "source": "survey"
    }
  },
  {
    "type": "node",
    "id": 1520098875,
    "lat": 37.4034353,
    "lon": -5.9894462,
    "timestamp": "2011-11-27T19:29:10Z",
    "version": 1,
    "changeset": 9970919,
    "user": "brianboru",
    "uid": 9065,
    "tags": {
      "amenity": "restaurant",
      "name": "Don Fadrique Casa Manolo",
      "source": "survey"
    }
  },
  {
    "type": "node",
    "id": 1529392916,
    "lat": 37.3930047,
    "lon": -5.9872745,
    "timestamp": "2012-05-13T10:11:48Z",
    "version": 2,
    "changeset": 11583438,
    "user": "wheelmap_visitor",
    "uid": 290680,
    "tags": {
      "amenity": "restaurant",
      "name": "Restaurante Baco",
      "wheelchair": "no"
    }
  },
  {
    "type": "node",
    "id": 1531495318,
    "lat": 37.3922029,
    "lon": -5.9922734,
    "timestamp": "2016-05-02T10:57:50Z",
    "version": 2,
    "changeset": 39035554,
    "user": "Creando",
    "uid": 132740,
    "tags": {
      "amenity": "restaurant",
      "cuisine": "japanese",
      "name": "Yamazaki"
    }
  },
  {
    "type": "node",
    "id": 1531495380,
    "lat": 37.3933059,
    "lon": -5.9914368,
    "timestamp": "2012-05-13T10:07:44Z",
    "version": 2,
    "changeset": 11583438,
    "user": "wheelmap_visitor",
    "uid": 290680,
    "tags": {
      "amenity": "restaurant",
      "name": "Sur Bar Tapas",
      "wheelchair": "yes"
    }
  },
  {
    "type": "node",
    "id": 1531495391,
    "lat": 37.3932468,
    "lon": -5.9913222,
    "timestamp": "2016-07-11T15:26:00Z",
    "version": 2,
    "changeset": 40652967,
    "user": "erlenmeyer",
    "uid": 875518,
    "tags": {
      "amenity": "restaurant",
      "cuisine": "turkish",
      "name": "Abbasy Doner Kebab"
    }
  },
  {
    "type": "node",
    "id": 1531495403,
    "lat": 37.3921737,
    "lon": -5.9918324,
    "timestamp": "2013-12-20T14:07:53Z",
    "version": 3,
    "changeset": 19549564,
    "user": "wheelmap_android",
    "uid": 524500,
    "tags": {
      "amenity": "restaurant",
      "name": "Bar Spala2",
      "wheelchair": "no"
    }
  },
  {
    "type": "node",
    "id": 1531539194,
    "lat": 37.3828856,
    "lon": -5.993733,
    "timestamp": "2023-11-28T10:39:45Z",
    "version": 2,
    "changeset": 144542930,
    "user": "Johnbo",
    "uid": 915796,
    "tags": {
      "addr:city": "Sevilla",
      "addr:housenumber": "8B",
      "addr:postcode": "41001",
      "addr:street": "Calle Maese Rodrigo",
      "amenity": "restaurant",
      "name": "Bodeguita Puerta Jerez"
    }
  },
  {
    "type": "node",
    "id": 1531539216,
    "lat": 37.3873474,
    "lon": -5.9925046,
    "timestamp": "2011-12-04T18:53:11Z",
    "version": 1,
    "changeset": 10036129,
    "user": "nonopp",
    "uid": 291857,
    "tags": {
      "amenity": "restaurant",
      "name": "Restaurante Santo"
    }
  },
  {
    "type": "node",
    "id": 1531539250,
    "lat": 37.3902685,
    "lon": -5.9913735,
    "timestamp": "2019-10-28T10:48:20Z",
    "version": 2,
    "changeset": 76293787,
    "user": "Wim L",
    "uid": 223681,
    "tags": {
      "amenity": "restaurant",
      "cuisine": "regional",
      "name": "Kiko de la Chari"
    }
  },
  {
    "type": "node",
    "id": 1531539310,
    "lat": 37.3878589,
    "lon": -5.9927969,
    "timestamp": "2025-02-10T14:56:45Z",
    "version": 2,
    "changeset": 162354661,
    "user": "paulbrunner",
    "uid": 15541433,
    "tags": {
      "amenity": "restaurant",
      "check_date": "2025-02-10",
      "name": "El Pintón"
    }
  },
  {
    "type": "node",
    "id": 1531539359,
    "lat": 37.3877545,
    "lon": -5.9926789,
    "timestamp": "2011-12-04T18:53:14Z",
    "version": 1,
    "changeset": 10036129,
    "user": "nonopp",
    "uid": 291857,
    "tags": {
      "amenity": "restaurant",
      "name": "Restaurante Robles"
    }
  },
  {
    "type": "node",
    "id": 1531564408,
    "lat": 37.3862842,
    "lon": -5.9962103,
    "timestamp": "2022-03-28T10:22:45Z",
    "version": 5,
    "changeset": 119014885,
    "user": "Johnbo",
    "uid": 915796,
    "tags": {
      "addr:city": "Sevilla",
      "addr:housenumber": "1",
      "addr:postcode": "41001",
      "addr:street": "Calle Castelar",
      "amenity": "restaurant",
      "email": "arfe@restaurantescincojotas.com",
      "name": "Mesón Cinco Jotas",
      "phone": "+34 95 421 07 63",
      "website": "https://www.cincojotas.es/restaurante-5-jotas/arfe"
    }
  },
  {
    "type": "node",
    "id": 1531564426,
    "lat": 37.3853669,
    "lon": -5.9950884,
    "timestamp": "2023-02-23T18:32:12Z",
    "version": 3,
    "changeset": 132938870,
    "user": "mobip",
    "uid": 2983,
    "tags": {
      "amenity": "restaurant",
      "name": "La Isla"
    }
  },
  {
    "type": "node",
    "id": 1535808008,
    "lat": 37.3846411,
    "lon": -6.0266192,
    "timestamp": "2022-12-24T13:02:02Z",
    "version": 3,
    "changeset": 130455815,
    "user": "kapazao_import",
    "uid": 8770019,
    "tags": {
      "amenity": "restaurant",
      "brand": "Pomodoro",
      "brand:website": "https://pomodoro.es",
      "brand:wikidata": "Q115475288",
      "cuisine": "italian;pasta;pizza",
      "name": "Pomodoro",
      "outdoor_seating": "yes"
    }
  },
  {
    "type": "node",
    "id": 1536269058,
    "lat": 37.3929845,
    "lon": -5.9885279,
    "timestamp": "2023-10-25T03:54:02Z",
    "version": 6,
    "changeset": 143092405,
    "user": "b-jazz-bot",
    "uid": 9451067,
    "tags": {
      "addr:city": "Sevilla",
      "addr:housenumber": "14",
      "addr:postcode": "41003",
      "addr:street": "Calle Alhóndiga",
      "amenity": "restaurant",
      "cuisine": "spanish;tapas",
      "name": "Patio San Eloy",
      "phone": "+34 954 501 070",
      "website": "https://www.patiosaneloy.com/",
      "wheelchair": "yes"
    }
  },
  {
    "type": "node",
    "id": 1537181744,
    "lat": 37.3930076,
    "lon": -5.9930666,
    "timestamp": "2024-05-29T11:14:39Z",
    "version": 3,
    "changeset": 151983596,
    "user": "CaldeiraG",
    "uid": 19716990,
    "tags": {
      "amenity": "restaurant",
      "check_date": "2024-05-29",
      "cuisine": "spanish",
      "name": "Perro Viejo",
      "outdoor_seating": "yes"
    }
  },
  {
    "type": "node",
    "id": 1537230691,
    "lat": 37.3939584,
    "lon": -5.9954524,
    "timestamp": "2011-12-08T20:08:08Z",
    "version": 1,
    "changeset": 10068270,
    "user": "nonopp",
    "uid": 291857,
    "tags": {
      "amenity": "restaurant",
      "name": "Restaurante chino"
    }
  },
  {
    "type": "node",
    "id": 1537230697,
    "lat": 37.3935442,
    "lon": -6.0013525,
    "timestamp": "2025-03-23T18:19:50Z",
    "version": 5,
    "changeset": 164000278,
    "user": "Alexandrcfif",
    "uid": 103003,
    "tags": {
      "amenity": "restaurant",
      "indoor_seating": "yes",
      "name": "La Chalá",
      "outdoor_seating": "yes"
    }
  },
  {
    "type": "node",
    "id": 1542687213,
    "lat": 37.3939131,
    "lon": -5.9952226,
    "timestamp": "2014-07-25T17:25:35Z",
    "version": 2,
    "changeset": 24354872,
    "user": "erlenmeyer",
    "uid": 875518,
    "tags": {
      "addr:housenumber": "14",
      "addr:street": "Calle Javier Lasso de la Vega",
      "amenity": "restaurant",
      "name": "Lizarrán"
    }
  },
  {
    "type": "node",
    "id": 1542687273,
    "lat": 37.3929955,
    "lon": -5.9951041,
    "timestamp": "2021-11-13T09:08:58Z",
    "version": 2,
    "changeset": 113722853,
    "user": "Hugoren Martinako",
    "uid": 3392826,
    "tags": {
      "amenity": "restaurant",
      "name": "Bacalao"
    }
  },
  {
    "type": "node",
    "id": 1542687281,
    "lat": 37.3929379,
    "lon": -5.9952811,
    "timestamp": "2021-11-13T09:09:16Z",
    "version": 2,
    "changeset": 113722853,
    "user": "Hugoren Martinako",
    "uid": 3392826,
    "tags": {
      "amenity": "restaurant",
      "name": "Bar Tino"
    }
  },
  {
    "type": "node",
    "id": 1556804206,
    "lat": 37.3752023,
    "lon": -5.8982256,
    "timestamp": "2011-12-21T09:03:44Z",
    "version": 1,
    "changeset": 10169777,
    "user": "nonopp",
    "uid": 291857,
    "tags": {
      "amenity": "restaurant",
      "name": "Bar Olvera II"
    }
  },
  {
    "type": "node",
    "id": 1557223718,
    "lat": 37.3543268,
    "lon": -5.9376549,
    "timestamp": "2011-12-21T15:37:51Z",
    "version": 1,
    "changeset": 10172693,
    "user": "nonopp",
    "uid": 291857,
    "tags": {
      "amenity": "restaurant"
    }
  },
  {
    "type": "node",
    "id": 1557244257,
    "lat": 37.357269,
    "lon": -5.9392615,
    "timestamp": "2011-12-21T16:01:08Z",
    "version": 1,
    "changeset": 10172693,
    "user": "nonopp",
    "uid": 291857,
    "tags": {
      "amenity": "restaurant"
    }
  },
  {
    "type": "node",
    "id": 1557244352,
    "lat": 37.3583862,
    "lon": -5.9365578,
    "timestamp": "2011-12-21T16:01:13Z",
    "version": 1,
    "changeset": 10172693,
    "user": "nonopp",
    "uid": 291857,
    "tags": {
      "amenity": "restaurant"
    }
  },
  {
    "type": "node",
    "id": 1562440416,
    "lat": 37.3360687,
    "lon": -5.8346061,
    "timestamp": "2011-12-26T13:46:35Z",
    "version": 1,
    "changeset": 10207283,
    "user": "Rickydh",
    "uid": 335661,
    "tags": {
      "amenity": "restaurant",
      "name": "Mesón Olivero"
    }
  },
  {
    "type": "node",
    "id": 1573791888,
    "lat": 37.329332,
    "lon": -5.8382169,
    "timestamp": "2012-01-02T09:11:01Z",
    "version": 1,
    "changeset": 10268570,
    "user": "Rickydh",
    "uid": 335661,
    "tags": {
      "amenity": "restaurant"
    }
  },
  {
    "type": "node",
    "id": 1585864689,
    "lat": 37.2842919,
    "lon": -5.9220511,
    "timestamp": "2019-06-17T16:59:52Z",
    "version": 3,
    "changeset": 71337057,
    "user": "Rickydh",
    "uid": 335661,
    "tags": {
      "amenity": "restaurant",
      "name": "Bar Jaula"
    }
  },
  {
    "type": "node",
    "id": 1588220430,
    "lat": 37.2776704,
    "lon": -5.9146594,
    "timestamp": "2014-07-21T23:20:00Z",
    "version": 2,
    "changeset": 24284146,
    "user": "Rickydh",
    "uid": 335661,
    "tags": {
      "amenity": "restaurant",
      "name": "Bar La Gamba"
    }
  },
  {
    "type": "node",
    "id": 1598338881,
    "lat": 37.3825142,
    "lon": -5.9865165,
    "timestamp": "2014-11-11T21:04:34Z",
    "version": 2,
    "changeset": 26722141,
    "user": "SIVLEYELSERP",
    "uid": 589660,
    "tags": {
      "addr:street": "Avda. de Málaga / Avda. de Cádiz",
      "amenity": "restaurant",
      "cuisine": "spanish",
      "name": "Bar Nuria"
    }
  },
  {
    "type": "node",
    "id": 1601645625,
    "lat": 37.3841414,
    "lon": -5.9853806,
    "timestamp": "2014-11-11T21:10:21Z",
    "version": 2,
    "changeset": 26722316,
    "user": "SIVLEYELSERP",
    "uid": 589660,
    "tags": {
      "addr:street": "C/ Rastro",
      "amenity": "restaurant",
      "cuisine": "spanish",
      "name": "Carlos Baena"
    }
  },
  {
    "type": "node",
    "id": 1601651682,
    "lat": 37.3840987,
    "lon": -5.9846149,
    "timestamp": "2024-12-03T14:05:21Z",
    "version": 9,
    "changeset": 159882689,
    "user": "marionauta",
    "uid": 306362,
    "tags": {
      "addr:city": "Sevilla",
      "addr:housenumber": "21",
      "addr:postcode": "41004",
      "addr:street": "Calle Bartolomé de Medina",
      "amenity": "restaurant",
      "cuisine": "italian",
      "name": "Restaurante Alimentari",
      "opening_hours": "Mo-Su 20:30-00:00",
      "phone": "+34 955722260",
      "website": "https://www.alimentari.es"
    }
  },
  {
    "type": "node",
    "id": 1604275000,
    "lat": 37.2970748,
    "lon": -5.7122288,
    "timestamp": "2024-04-04T07:16:27Z",
    "version": 2,
    "changeset": 149555825,
    "user": "kapazao",
    "uid": 7543375,
    "tags": {
      "amenity": "restaurant",
      "name": "Restaurante Hispalis"
    }
  },
  {
    "type": "node",
    "id": 1611112323,
    "lat": 37.2328978,
    "lon": -6.1559799,
    "timestamp": "2012-01-29T22:14:04Z",
    "version": 1,
    "changeset": 10535387,
    "user": "jamesks",
    "uid": 2500,
    "tags": {
      "amenity": "restaurant"
    }
  },
  {
    "type": "node",
    "id": 1611112324,
    "lat": 37.2329259,
    "lon": -6.1554943,
    "timestamp": "2013-03-29T19:13:14Z",
    "version": 2,
    "changeset": 15542843,
    "user": "jamesks",
    "uid": 2500,
    "tags": {
      "amenity": "restaurant",
      "name": "Casa Maruja"
    }
  },
  {
    "type": "node",
    "id": 1613992356,
    "lat": 37.2833506,
    "lon": -5.9216138,
    "timestamp": "2021-12-09T15:30:58Z",
    "version": 3,
    "changeset": 114749007,
    "user": "kapazao_import",
    "uid": 8770019,
    "tags": {
      "addr:postcode": "41701",
      "addr:street": "Plaza de la Constitución",
      "amenity": "restaurant",
      "name": "La Esquinita de Javier",
      "nohousenumber": "yes"
    }
  },
  {
    "type": "node",
    "id": 1618804083,
    "lat": 37.4712876,
    "lon": -5.6352731,
    "timestamp": "2024-09-13T02:19:55Z",
    "version": 6,
    "changeset": 156551448,
    "user": "b-jazz-bot",
    "uid": 9451067,
    "tags": {
      "addr:housenumber": "8",
      "addr:postcode": "41410",
      "addr:street": "Calle Puerta de Marchena",
      "amenity": "restaurant",
      "cuisine": "regional",
      "email": "info@molinodelaromera.es",
      "name": "Mesón Molino de la Romera",
      "outdoor_seating": "yes",
      "phone": "+34 954 142000",
      "website": "https://www.molinodelaromera.es/"
    }
  },
  {
    "type": "node",
    "id": 1627742883,
    "lat": 37.277425,
    "lon": -5.9224531,
    "timestamp": "2012-02-11T02:16:44Z",
    "version": 1,
    "changeset": 10649102,
    "user": "Moises Garcia Ruiz",
    "uid": 601297,
    "tags": {
      "amenity": "restaurant",
      "name": "Bar Rafa"
    }
  },
  {
    "type": "node",
    "id": 1656586644,
    "lat": 37.2898559,
    "lon": -5.9131036,
    "timestamp": "2012-03-07T09:56:28Z",
    "version": 2,
    "changeset": 10898067,
    "user": "Rickydh",
    "uid": 335661,
    "tags": {
      "amenity": "restaurant",
      "name": "Bar El Tropiezo"
    }
  },
  {
    "type": "node",
    "id": 1656612167,
    "lat": 37.2924021,
    "lon": -5.9099573,
    "timestamp": "2012-05-05T17:28:50Z",
    "version": 2,
    "changeset": 11510346,
    "user": "Pinta Mapas",
    "uid": 368822,
    "tags": {
      "amenity": "restaurant",
      "cuisine": "spanish",
      "name": "Bar Baby"
    }
  },
  {
    "type": "node",
    "id": 1657998327,
    "lat": 37.3748624,
    "lon": -6.040551,
    "timestamp": "2019-08-07T19:47:50Z",
    "version": 3,
    "changeset": 73126407,
    "user": "Ro5597",
    "uid": 10063599,
    "tags": {
      "amenity": "restaurant",
      "name": "Casa Marquez"
    }
  },
  {
    "type": "node",
    "id": 1683159550,
    "lat": 37.2884851,
    "lon": -5.9415977,
    "timestamp": "2015-12-08T18:55:16Z",
    "version": 2,
    "changeset": 35832079,
    "user": "Evaristo GZ",
    "uid": 3442758,
    "tags": {
      "amenity": "restaurant",
      "name": "100 Montaditos"
    }
  },
  {
    "type": "node",
    "id": 1694327896,
    "lat": 37.4039965,
    "lon": -5.980645,
    "timestamp": "2024-07-05T09:09:06Z",
    "version": 7,
    "changeset": 153578824,
    "user": "m4sb",
    "uid": 20554405,
    "tags": {
      "addr:housenumber": "16",
      "addr:postcode": "41008",
      "addr:street": "C/ Doctor Jiménez Díaz",
      "amenity": "restaurant",
      "check_date:opening_hours": "2024-07-05",
      "cuisine": "regional;spanish",
      "name": "Blanco Cerrillo",
      "opening_hours:signed": "no",
      "phone": "+34954351008",
      "website": "https://blancocerrillopioxii.com/"
    }
  },
  {
    "type": "node",
    "id": 1697639818,
    "lat": 37.3333978,
    "lon": -5.8504848,
    "timestamp": "2020-02-25T22:43:37Z",
    "version": 3,
    "changeset": 81474705,
    "user": "cirdancarpintero",
    "uid": 2245342,
    "tags": {
      "amenity": "restaurant",
      "cuisine": "italian",
      "name": "Trattoria Fratelli"
    }
  },
  {
    "type": "node",
    "id": 1705470992,
    "lat": 37.2514292,
    "lon": -6.0072405,
    "timestamp": "2012-04-07T08:49:39Z",
    "version": 1,
    "changeset": 11210901,
    "user": "Rickydh",
    "uid": 335661,
    "tags": {
      "amenity": "restaurant",
      "name": "Casa Cachopo"
    }
  },
  {
    "type": "node",
    "id": 1709669100,
    "lat": 37.3841862,
    "lon": -6.0754545,
    "timestamp": "2017-06-04T18:18:01Z",
    "version": 3,
    "changeset": 49248675,
    "user": "avm",
    "uid": 99570,
    "tags": {
      "addr:city": "Gines",
      "addr:housenumber": "2",
      "addr:postcode": "41960",
      "addr:street": "Calle Narciso Mora",
      "amenity": "restaurant",
      "cuisine": "tapas",
      "name": "Aljarafe Tapas"
    }
  },
  {
    "type": "node",
    "id": 1715754969,
    "lat": 37.3907454,
    "lon": -5.9913457,
    "timestamp": "2023-10-25T03:51:26Z",
    "version": 2,
    "changeset": 143092315,
    "user": "b-jazz-bot",
    "uid": 9451067,
    "tags": {
      "addr:housenumber": "3",
      "addr:street": "Calle Golfo",
      "amenity": "restaurant",
      "name": "Habanita",
      "website": "https://www.habanita.es/"
    }
  },
  {
    "type": "node",
    "id": 1722415362,
    "lat": 37.3242251,
    "lon": -6.0601248,
    "timestamp": "2012-04-18T23:35:53Z",
    "version": 1,
    "changeset": 11349708,
    "user": "jamesks",
    "uid": 2500,
    "tags": {
      "amenity": "restaurant"
    }
  },
  {
    "type": "node",
    "id": 1722415401,
    "lat": 37.3243189,
    "lon": -6.0600605,
    "timestamp": "2012-04-18T23:35:55Z",
    "version": 1,
    "changeset": 11349708,
    "user": "jamesks",
    "uid": 2500,
    "tags": {
      "amenity": "restaurant"
    }
  },
  {
    "type": "node",
    "id": 1726237902,
    "lat": 37.3888789,
    "lon": -6.0321566,
    "timestamp": "2022-08-15T22:08:51Z",
    "version": 4,
    "changeset": 124947158,
    "user": "avm",
    "uid": 99570,
    "tags": {
      "amenity": "restaurant",
      "name": "Bodega La Pañoleta",
      "start_date": "1855"
    }
  },
  {
    "type": "node",
    "id": 1731000890,
    "lat": 37.3892314,
    "lon": -6.0010882,
    "timestamp": "2014-12-01T20:15:08Z",
    "version": 2,
    "changeset": 27164255,
    "user": "Andres Santor",
    "uid": 1520044,
    "tags": {
      "addr:city": "Sevilla",
      "addr:country": "ES",
      "amenity": "restaurant",
      "name": "Restarurante japonés KaKuri"
    }
  },
  {
    "type": "node",
    "id": 1731323463,
    "lat": 37.35438,
    "lon": -5.9854671,
    "timestamp": "2023-10-25T03:45:52Z",
    "version": 8,
    "changeset": 143092110,
    "user": "b-jazz-bot",
    "uid": 9451067,
    "tags": {
      "addr:city": "Sevilla",
      "addr:postcode": "41012",
      "addr:street": "Calle Ebro",
      "amenity": "restaurant",
      "cuisine": "fish;regional;grill;spanish;diner;local",
      "email": "reservas@dclara.com",
      "internet_access": "wlan",
      "name": "Doña Clara",
      "note": "NetDev1.1",
      "opening_hours": "Tu-Sa 13:30-23:30; Mo 13:30-16:30; Su 13:30-16:30",
      "phone": "+34 954628852",
      "website": "https://www.dclara.com/"
    }
  },
  {
    "type": "node",
    "id": 1731328379,
    "lat": 37.2865696,
    "lon": -5.9433036,
    "timestamp": "2015-12-08T18:55:16Z",
    "version": 3,
    "changeset": 35832079,
    "user": "Evaristo GZ",
    "uid": 3442758,
    "tags": {
      "amenity": "restaurant",
      "cuisine": "international",
      "name": "La oveja negra"
    }
  },
  {
    "type": "node",
    "id": 1731328619,
    "lat": 37.2866615,
    "lon": -5.9428356,
    "timestamp": "2019-11-01T00:39:23Z",
    "version": 2,
    "changeset": 76471478,
    "user": "Rickydh",
    "uid": 335661,
    "tags": {
      "amenity": "restaurant",
      "name": "La jarrita tapas"
    }
  },
  {
    "type": "node",
    "id": 1733155382,
    "lat": 37.3441369,
    "lon": -5.9768349,
    "timestamp": "2018-04-08T01:07:34Z",
    "version": 4,
    "changeset": 57903391,
    "user": "AtomMapper",
    "uid": 87062,
    "tags": {
      "addr:street": "Avenida de Finlandia",
      "amenity": "restaurant",
      "cuisine": "spanish",
      "name": "Cervecería 100 Montaditos",
      "outdoor_seating": "yes",
      "wheelchair": "yes"
    }
  },
  {
    "type": "node",
    "id": 1735752868,
    "lat": 37.2631131,
    "lon": -5.9981916,
    "timestamp": "2012-04-29T21:15:26Z",
    "version": 1,
    "changeset": 11454268,
    "user": "Esteban Sánchez",
    "uid": 670749,
    "tags": {
      "amenity": "restaurant",
      "name": "El Peregrino"
    }
  },
  {
    "type": "node",
    "id": 1736097676,
    "lat": 37.4162078,
    "lon": -5.7456579,
    "timestamp": "2012-04-30T09:22:26Z",
    "version": 1,
    "changeset": 11457721,
    "user": "jacksparrow",
    "uid": 235316,
    "tags": {
      "amenity": "restaurant",
      "cuisine": "spanish",
      "name": "Hacienda Veracruz"
    }
  },
  {
    "type": "node",
    "id": 1738801834,
    "lat": 37.293055,
    "lon": -5.9398812,
    "timestamp": "2024-08-19T12:02:04Z",
    "version": 3,
    "changeset": 155456837,
    "user": "Rickydh",
    "uid": 335661,
    "tags": {
      "amenity": "restaurant",
      "cuisine": "japanese",
      "name": "Sushi Time"
    }
  },
  {
    "type": "node",
    "id": 1741757353,
    "lat": 37.2729142,
    "lon": -5.9288535,
    "timestamp": "2012-05-05T17:35:00Z",
    "version": 1,
    "changeset": 11510346,
    "user": "Pinta Mapas",
    "uid": 368822,
    "tags": {
      "addr:street": "Calle Cisne",
      "amenity": "restaurant",
      "cuisine": "spanish",
      "name": "Bar Ancio"
    }
  },
  {
    "type": "node",
    "id": 1747021126,
    "lat": 37.6385872,
    "lon": -6.0714548,
    "timestamp": "2015-11-03T16:29:58Z",
    "version": 4,
    "changeset": 35059784,
    "user": "Juan Pedro Ruiz",
    "uid": 277648,
    "tags": {
      "amenity": "restaurant",
      "name": "La Cantina"
    }
  },
  {
    "type": "node",
    "id": 1750951659,
    "lat": 37.388438,
    "lon": -6.0018102,
    "timestamp": "2014-12-01T20:15:05Z",
    "version": 2,
    "changeset": 27164255,
    "user": "Andres Santor",
    "uid": 1520044,
    "tags": {
      "addr:city": "Sevilla",
      "addr:country": "ES",
      "addr:street": "Calle Arjona",
      "amenity": "restaurant",
      "cuisine": "chinese",
      "name": "Ciudad de Pequín"
    }
  },
  {
    "type": "node",
    "id": 1752218570,
    "lat": 37.3715122,
    "lon": -6.1591749,
    "timestamp": "2019-03-22T05:19:31Z",
    "version": 3,
    "changeset": 68397273,
    "user": "b-jazz-bot",
    "uid": 9451067,
    "tags": {
      "addr:city": "Umbrete",
      "addr:housenumber": "1",
      "addr:postcode": "41806",
      "addr:street": "Calle Traspalacio",
      "amenity": "restaurant",
      "cuisine": "spanish",
      "name": "Casa Rufino",
      "phone": "+34 955 716 272",
      "website": "https://www.restaurantecasarufino.com/"
    }
  },
  {
    "type": "node",
    "id": 1753667415,
    "lat": 37.3491389,
    "lon": -5.8438346,
    "timestamp": "2012-05-15T07:17:31Z",
    "version": 1,
    "changeset": 11602238,
    "user": "Rickydh",
    "uid": 335661,
    "tags": {
      "amenity": "restaurant",
      "name": "Bar La Cochera"
    }
  },
  {
    "type": "node",
    "id": 1753688540,
    "lat": 37.347657,
    "lon": -5.8441967,
    "timestamp": "2012-05-15T07:47:12Z",
    "version": 1,
    "changeset": 11602423,
    "user": "Rickydh",
    "uid": 335661,
    "tags": {
      "amenity": "restaurant"
    }
  },
  {
    "type": "node",
    "id": 1755966498,
    "lat": 37.4237024,
    "lon": -5.9843263,
    "timestamp": "2012-05-17T11:11:46Z",
    "version": 1,
    "changeset": 11622394,
    "user": "Rickydh",
    "uid": 335661,
    "tags": {
      "amenity": "restaurant",
      "name": "Casa Chema"
    }
  },
  {
    "type": "node",
    "id": 1768663911,
    "lat": 37.241234,
    "lon": -6.2937161,
    "timestamp": "2012-05-28T13:58:04Z",
    "version": 1,
    "changeset": 11726235,
    "user": "jamesks",
    "uid": 2500,
    "tags": {
      "amenity": "restaurant"
    }
  },
  {
    "type": "node",
    "id": 1770632133,
    "lat": 37.276229,
    "lon": -5.9284827,
    "timestamp": "2024-08-21T21:25:14Z",
    "version": 2,
    "changeset": 155579257,
    "user": "Rickydh",
    "uid": 335661,
    "tags": {
      "amenity": "restaurant",
      "name": "Bar Ignacio"
    }
  },
  {
    "type": "node",
    "id": 1775359504,
    "lat": 37.9939354,
    "lon": -5.6535439,
    "timestamp": "2012-06-03T20:24:21Z",
    "version": 1,
    "changeset": 11790714,
    "user": "Rickydh",
    "uid": 335661,
    "tags": {
      "amenity": "restaurant",
      "name": "La Plaza"
    }
  },
  {
    "type": "node",
    "id": 1775376676,
    "lat": 37.9946716,
    "lon": -5.6688335,
    "timestamp": "2012-06-03T20:38:27Z",
    "version": 1,
    "changeset": 11790845,
    "user": "Rickydh",
    "uid": 335661,
    "tags": {
      "amenity": "restaurant",
      "name": "Restaurante El Martinete"
    }
  },
  {
    "type": "node",
    "id": 1779045209,
    "lat": 37.3409878,
    "lon": -5.8300607,
    "timestamp": "2012-06-07T10:41:24Z",
    "version": 2,
    "changeset": 11823782,
    "user": "Rickydh",
    "uid": 335661,
    "tags": {
      "amenity": "restaurant",
      "name": "Casa Palacio ZAMBRA"
    }
  },
  {
    "type": "node",
    "id": 1783563574,
    "lat": 37.2865412,
    "lon": -5.9428199,
    "timestamp": "2012-06-11T14:44:58Z",
    "version": 1,
    "changeset": 11865348,
    "user": "jacksparrow",
    "uid": 235316,
    "tags": {
      "amenity": "restaurant",
      "name": "Elisa Victoria Pizzería"
    }
  },
  {
    "type": "node",
    "id": 1802480546,
    "lat": 37.3878646,
    "lon": -6.0109721,
    "timestamp": "2014-03-18T19:05:56Z",
    "version": 2,
    "changeset": 21175939,
    "user": "wheelmap_android",
    "uid": 524500,
    "tags": {
      "amenity": "restaurant",
      "name": "Mesón Serranito",
      "wheelchair": "no"
    }
  },
  {
    "type": "node",
    "id": 1805006709,
    "lat": 37.4042616,
    "lon": -6.0767771,
    "timestamp": "2015-10-14T21:07:13Z",
    "version": 2,
    "changeset": 34641877,
    "user": "avm",
    "uid": 99570,
    "tags": {
      "amenity": "restaurant"
    }
  },
  {
    "type": "node",
    "id": 1853379427,
    "lat": 37.2853285,
    "lon": -5.9246336,
    "timestamp": "2016-04-06T19:18:54Z",
    "version": 2,
    "changeset": 38360875,
    "user": "beccaccino",
    "uid": 2810156,
    "tags": {
      "addr:city": "Dos Hermanas",
      "addr:postcode": "41701",
      "addr:street": "Calle Botica",
      "amenity": "restaurant",
      "cuisine": "regional",
      "name": "Bar León"
    }
  },
  {
    "type": "node",
    "id": 1869406666,
    "lat": 37.4008414,
    "lon": -5.9245009,
    "timestamp": "2020-04-21T12:23:48Z",
    "version": 3,
    "changeset": 83880695,
    "user": "lycosmaster",
    "uid": 11011166,
    "tags": {
      "addr:city": "Sevilla",
      "addr:housenumber": "1",
      "addr:street": "Calle Doctor González Caraballo",
      "amenity": "restaurant",
      "name": "Cafetería Portasevilla"
    }
  },
  {
    "type": "node",
    "id": 1869406684,
    "lat": 37.401519,
    "lon": -5.9247365,
    "timestamp": "2014-07-03T17:01:09Z",
    "version": 4,
    "changeset": 23839580,
    "user": "EduardoOrtega",
    "uid": 811690,
    "tags": {
      "addr:postcode": "41020",
      "addr:street": "Calle Doctor González Caraballo",
      "amenity": "restaurant",
      "cuisine": "spanish",
      "name": "Bar La Tapichuela",
      "smoking": "outside"
    }
  },
  {
    "type": "node",
    "id": 1904024348,
    "lat": 37.4096312,
    "lon": -5.9783838,
    "timestamp": "2024-05-01T09:44:27Z",
    "version": 2,
    "changeset": 150741243,
    "user": "DiegoRubio",
    "uid": 845114,
    "tags": {
      "addr:city": "Sevilla",
      "addr:housenumber": "2",
      "addr:postcode": "41009",
      "addr:street": "Calle Mayo",
      "amenity": "restaurant",
      "name": "Bar La Prima Vera",
      "phone": "698 95 39 59"
    }
  },
  {
    "type": "node",
    "id": 1904313404,
    "lat": 37.3693409,
    "lon": -6.0405638,
    "timestamp": "2023-05-28T10:36:09Z",
    "version": 4,
    "changeset": 136651332,
    "user": "yopaseopor",
    "uid": 500572,
    "tags": {
      "amenity": "restaurant",
      "brand": "100 Montaditos",
      "brand:wikidata": "Q8355805",
      "cuisine": "sandwich",
      "name": "100 Montaditos"
    }
  },
  {
    "type": "node",
    "id": 1905772847,
    "lat": 37.3966739,
    "lon": -5.9904943,
    "timestamp": "2025-03-24T20:35:03Z",
    "version": 4,
    "changeset": 164050559,
    "user": "Alexandrcfif",
    "uid": 103003,
    "tags": {
      "amenity": "restaurant",
      "indoor_seating": "yes",
      "name": "Delantal Negro",
      "outdoor_seating": "yes"
    }
  },
  {
    "type": "node",
    "id": 1907916955,
    "lat": 37.3926915,
    "lon": -5.9936805,
    "timestamp": "2024-05-29T11:14:39Z",
    "version": 3,
    "changeset": 151983596,
    "user": "CaldeiraG",
    "uid": 19716990,
    "tags": {
      "amenity": "restaurant",
      "check_date": "2024-05-29",
      "name": "Baco"
    }
  },
  {
    "type": "node",
    "id": 1916846898,
    "lat": 37.3187466,
    "lon": -5.85625,
    "timestamp": "2012-09-16T10:09:55Z",
    "version": 1,
    "changeset": 13128334,
    "user": "Rickydh",
    "uid": 335661,
    "tags": {
      "amenity": "restaurant",
      "name": "Venta Los Pinares"
    }
  },
  {
    "type": "node",
    "id": 1925647251,
    "lat": 37.3643593,
    "lon": -5.9830135,
    "timestamp": "2012-09-21T17:23:30Z",
    "version": 1,
    "changeset": 13198440,
    "user": "Paul The Archivist",
    "uid": 82783,
    "tags": {
      "amenity": "restaurant",
      "name": "Restaurante La Majorana",
      "note": "Part of hotel but open to the public"
    }
  },
  {
    "type": "node",
    "id": 1927191006,
    "lat": 37.3634798,
    "lon": -5.9827082,
    "timestamp": "2017-03-03T19:32:24Z",
    "version": 2,
    "changeset": 46556654,
    "user": "Alejandro DTP",
    "uid": 1992278,
    "tags": {
      "amenity": "restaurant",
      "name": "Salvador C. Rojo",
      "source": "survey",
      "wheelchair": "yes"
    }
  },
  {
    "type": "node",
    "id": 1927421822,
    "lat": 37.1169099,
    "lon": -5.4545791,
    "timestamp": "2022-11-15T11:32:02Z",
    "version": 2,
    "changeset": 128935100,
    "user": "MIGUEL ANGEL",
    "uid": 559491,
    "tags": {
      "addr:street": "Plaza de San Francisco",
      "amenity": "restaurant",
      "name": "Casa Paca"
    }
  },