[
  {
    "type": "node",
    "id": 759151431,
    "lat": 38.0142055,
    "lon": -7.8622019,
    "timestamp": "2023-10-11T17:12:14Z",
    "version": 3,
    "changeset": 142445842,
    "user": "FooFooBar",
    "uid": 10362413,
    "tags": {
      "amenity": "restaurant",
      "check_date": "2023-10-11",
      "name": "O Alemão"
    }
  },
  {
    "type": "node",
    "id": 760687492,
    "lat": 38.0083374,
    "lon": -7.8557646,
    "timestamp": "2010-05-31T20:29:59Z",
    "version": 1,
    "changeset": 4867851,
    "user": "Luis Coentro",
    "uid": 250187,
    "tags": {
      "amenity": "restaurant",
      "name": "O Belga"
    }
  },
  {
    "type": "node",
    "id": 768185945,
    "lat": 38.0100284,
    "lon": -7.862465,
    "timestamp": "2021-03-22T18:44:00Z",
    "version": 5,
    "changeset": 101523780,
    "user": "Alex_Mapper",
    "uid": 8242461,
    "tags": {
      "addr:housenumber": "6",
      "addr:street": "Praceta Rainha Dona Leonor",
      "amenity": "restaurant",
      "name": "Pulo do Lobo"
    }
  },
  {
    "type": "node",
    "id": 769390602,
    "lat": 38.0137721,
    "lon": -7.8615277,
    "timestamp": "2011-04-17T16:33:54Z",
    "version": 3,
    "changeset": 7888681,
    "user": "Luis Coentro",
    "uid": 250187,
    "tags": {
      "amenity": "restaurant",
      "name": "Tem Avondo"
    }
  },
  {
    "type": "node",
    "id": 794374366,
    "lat": 38.0086289,
    "lon": -7.8593468,
    "timestamp": "2021-03-09T13:33:05Z",
    "version": 6,
    "changeset": 100714551,
    "user": "Alex_Mapper",
    "uid": 8242461,
    "tags": {
      "amenity": "restaurant",
      "name": "Ilha do Peixe",
      "takeaway": "yes"
    }
  },
  {
    "type": "node",
    "id": 825206955,
    "lat": 38.5696631,
    "lon": -7.9124261,
    "timestamp": "2024-10-23T17:23:53Z",
    "version": 5,
    "changeset": 158264083,
    "user": "enrrari",
    "uid": 7126452,
    "tags": {
      "addr:city": "Évora",
      "addr:housenumber": "115",
      "addr:street": "Rua dos Mercadores",
      "amenity": "restaurant",
      "cuisine": "italian",
      "name": "L'Italiano",
      "opening_hours": "Tu-Sa 12:00-14:30,18:30-22:30; Su 18:30-22:00; Mo off",
      "phone": "+351 266 706 230"
    }
  },
  {
    "type": "node",
    "id": 831290005,
    "lat": 38.0186269,
    "lon": -7.8667267,
    "timestamp": "2021-02-20T15:10:13Z",
    "version": 4,
    "changeset": 99646503,
    "user": "Alex_Mapper",
    "uid": 8242461,
    "tags": {
      "amenity": "restaurant",
      "name": "O Futuro"
    }
  },
  {
    "type": "node",
    "id": 839996694,
    "lat": 38.015857,
    "lon": -7.8670391,
    "timestamp": "2023-10-12T08:33:03Z",
    "version": 5,
    "changeset": 142467613,
    "user": "FooFooBar",
    "uid": 10362413,
    "tags": {
      "addr:housenumber": "12",
      "addr:street": "Rua de Lisboa",
      "amenity": "restaurant",
      "check_date": "2023-10-12",
      "cuisine": "chicken;diner;steak_house;regional;portuguese;coffee_shop;local;grill",
      "name": "A Muralha",
      "opening_hours": "Mo-Sa 12:00-22:00; Su 15:00-19:00",
      "phone": "+351 284 389 236",
      "takeaway": "yes"
    }
  },
  {
    "type": "node",
    "id": 888811841,
    "lat": 38.0134834,
    "lon": -7.8654964,
    "timestamp": "2016-02-07T17:51:20Z",
    "version": 2,
    "changeset": 37064393,
    "user": "Luis Coentro",
    "uid": 250187,
    "tags": {
      "amenity": "restaurant"
    }
  },
  {
    "type": "node",
    "id": 888813478,
    "lat": 38.0151233,
    "lon": -7.865109,
    "timestamp": "2017-11-06T11:05:45Z",
    "version": 2,
    "changeset": 53551706,
    "user": "Luis Coentro",
    "uid": 250187,
    "tags": {
      "amenity": "restaurant"
    }
  },
  {
    "type": "node",
    "id": 888814008,
    "lat": 38.0155754,
    "lon": -7.8649352,
    "timestamp": "2014-09-13T19:15:40Z",
    "version": 5,
    "changeset": 25417971,
    "user": "Luis Coentro",
    "uid": 250187,
    "tags": {
      "amenity": "restaurant",
      "name": "JCCC Bar"
    }
  },
  {
    "type": "node",
    "id": 1032397616,
    "lat": 38.1655471,
    "lon": -7.8902695,
    "timestamp": "2024-09-03T23:03:48Z",
    "version": 4,
    "changeset": 156162455,
    "user": "_DomL",
    "uid": 21908281,
    "tags": {
      "addr:postcode": "7940-014",
      "addr:street": "Rua da Fonte dos Leões",
      "amenity": "restaurant",
      "name": "Adega da Casa de Monte Pedral",
      "opening_hours": "We-Mo 11:30-22:30",
      "outdoor_seating": "no",
      "phone": "+351 926 580 044",
      "website": "https://www.tripadvisor.de/Restaurant_Review-g4762377-d4741066-Reviews-Adega_da_Casa_de_Monte_Pedral-Cuba_Beja_District_Alentejo.html"
    }
  },
  {
    "type": "node",
    "id": 1033327854,
    "lat": 38.1652215,
    "lon": -7.8881516,
    "timestamp": "2010-12-11T15:08:51Z",
    "version": 1,
    "changeset": 6625325,
    "user": "dncpax",
    "uid": 231937,
    "tags": {
      "amenity": "restaurant",
      "name": "Restaurante Típico Lucas"
    }
  },
  {
    "type": "node",
    "id": 1069737195,
    "lat": 38.5716896,
    "lon": -7.9109985,
    "timestamp": "2017-11-15T19:06:55Z",
    "version": 2,
    "changeset": 53814011,
    "user": "luisforte",
    "uid": 3305165,
    "tags": {
      "amenity": "restaurant",
      "name": "Maria Severa"
    }
  },
  {
    "type": "node",
    "id": 1070925400,
    "lat": 38.590577,
    "lon": -7.9097352,
    "timestamp": "2010-12-29T15:15:03Z",
    "version": 1,
    "changeset": 6799737,
    "user": "gaidao",
    "uid": 388752,
    "tags": {
      "amenity": "restaurant",
      "name": "A Curva"
    }
  },
  {
    "type": "node",
    "id": 1248919043,
    "lat": 38.0236103,
    "lon": -7.7209649,
    "timestamp": "2015-12-14T11:40:25Z",
    "version": 2,
    "changeset": 35943276,
    "user": "Luis Coentro",
    "uid": 250187,
    "tags": {
      "amenity": "restaurant",
      "name": "Central"
    }
  },
  {
    "type": "node",
    "id": 1255699433,
    "lat": 38.5735651,
    "lon": -7.9127479,
    "timestamp": "2013-05-17T22:45:30Z",
    "version": 3,
    "changeset": 16173958,
    "user": "rtafav2",
    "uid": 602999,
    "tags": {
      "amenity": "restaurant",
      "cuisine": "regional",
      "name": "O Fialho"
    }
  },
  {
    "type": "node",
    "id": 1255699445,
    "lat": 38.5753279,
    "lon": -7.9137667,
    "timestamp": "2019-11-22T21:52:02Z",
    "version": 3,
    "changeset": 77446667,
    "user": "luisforte",
    "uid": 3305165,
    "tags": {
      "addr:city": "Évora",
      "addr:postcode": "7000-708",
      "addr:street": "Rua do Aqueduto",
      "amenity": "restaurant",
      "cuisine": "regional",
      "delivery": "no",
      "description": "Só funciona com reserva",
      "name": "Degust'Ar",
      "opening_hours": "Su-Sa 12:30-23:30",
      "outdoor_seating": "no",
      "phone": "+351 266 740 700",
      "smoking": "no",
      "takeaway": "no",
      "wheelchair": "yes"
    }
  },
  {
    "type": "node",
    "id": 1256691745,
    "lat": 38.2116964,
    "lon": -7.8016343,
    "timestamp": "2024-03-21T00:06:46Z",
    "version": 5,
    "changeset": 148938373,
    "user": "luisforte",
    "uid": 3305165,
    "tags": {
      "addr:city": "Vidigueira",
      "addr:housenumber": "6",
      "addr:postcode": "7960-216",
      "addr:street": "Largo da Cascata",
      "amenity": "restaurant",
      "contact:facebook": "https://www.facebook.com/restaurante.acascata/",
      "cuisine": "regional",
      "name": "A Cascata",
      "phone": "+351 284 434 180"
    }
  },
  {
    "type": "node",
    "id": 1256691750,
    "lat": 38.2121714,
    "lon": -7.8004353,
    "timestamp": "2021-11-08T00:08:43Z",
    "version": 5,
    "changeset": 113499991,
    "user": "luisforte",
    "uid": 3305165,
    "tags": {
      "addr:city": "Vidigueira",
      "addr:housenumber": "19",
      "addr:street": "Largo da Matriz",
      "amenity": "restaurant",
      "delivery": "yes",
      "facebook": "https://www.facebook.com/100moengas.vidigueira/",
      "name": "100 Moengas",
      "takeaway": "yes"
    }
  },
  {
    "type": "node",
    "id": 1314678130,
    "lat": 38.5739459,
    "lon": -7.9094197,
    "timestamp": "2024-04-04T19:25:28Z",
    "version": 17,
    "changeset": 149584615,
    "user": "Ieronimus",
    "uid": 4685540,
    "tags": {
      "addr:city": "Évora",
      "addr:housenumber": "18-18A",
      "addr:postcode": "7000-599",
      "addr:street": "Rua do Inverno",
      "alt_name": "Taberna Típica Quarta-Feira",
      "amenity": "restaurant",
      "check_date": "2024-04-04",
      "cuisine": "portuguese",
      "email": "tabernaquartafeira@gmail.com",
      "internet_access": "wlan",
      "name": "Taberna Típica Quarta Feira",
      "name:ru": "таверна Типика",
      "phone": "+351 266 707 530"
    }
  },
  {
    "type": "node",
    "id": 1314690935,
    "lat": 38.5611876,
    "lon": -7.9116995,
    "timestamp": "2011-06-07T00:52:10Z",
    "version": 1,
    "changeset": 8366124,
    "user": "Rui  Martins",
    "uid": 126886,
    "tags": {
      "amenity": "restaurant",
      "name": "Alforge"
    }
  },
  {
    "type": "node",
    "id": 1317305159,
    "lat": 38.333715,
    "lon": -7.9996273,
    "timestamp": "2017-04-13T21:39:41Z",
    "version": 3,
    "changeset": 47758236,
    "user": "luisforte",
    "uid": 3305165,
    "tags": {
      "amenity": "restaurant",
      "name": "Churrasqueira 3 Bicas"
    }
  },
  {
    "type": "node",
    "id": 1324997193,
    "lat": 38.3287087,
    "lon": -7.9974944,
    "timestamp": "2011-06-15T14:56:29Z",
    "version": 3,
    "changeset": 8447876,
    "user": "johnnycash",
    "uid": 243188,
    "tags": {
      "amenity": "restaurant",
      "name": "Restaurante O Mira"
    }
  },
  {
    "type": "node",
    "id": 1357092984,
    "lat": 38.8415502,
    "lon": -7.5915838,
    "timestamp": "2022-01-29T13:00:52Z",
    "version": 3,
    "changeset": 116743066,
    "user": "geonac",
    "uid": 8616766,
    "tags": {
      "amenity": "restaurant",
      "cuisine": "regional",
      "name": "A Cadeia Quinhentista"
    }
  },
  {
    "type": "node",
    "id": 1357092999,
    "lat": 38.9441548,
    "lon": -8.1668769,
    "timestamp": "2018-01-23T09:08:48Z",
    "version": 2,
    "changeset": 55677671,
    "user": "pittrichimica",
    "uid": 497524,
    "tags": {
      "addr:city": "Mora",
      "addr:housenumber": "8",
      "addr:postcode": "7490-236",
      "addr:street": "Rua de Santo António",
      "amenity": "restaurant",
      "cuisine": "regional",
      "name": "Solar dos Lilases",
      "phone": "+351 266 403 315",
      "tourism": "hotel",
      "website": "https://www.hotelsolardoslilases.com/"
    }
  },
  {
    "type": "node",
    "id": 1363049213,
    "lat": 38.0065865,
    "lon": -7.8685377,
    "timestamp": "2025-02-19T16:28:57Z",
    "version": 4,
    "changeset": 162708607,
    "user": "luisforte",
    "uid": 3305165,
    "tags": {
      "addr:city": "Beja",
      "addr:housenumber": "18",
      "addr:postcode": "7800-522",
      "addr:street": "Avenida Zeca Afonso",
      "amenity": "restaurant",
      "cuisine": "american;european;grill;coffee_shop;portuguese",
      "internet_access": "yes",
      "name": "Frango à Guia",
      "opening_hours": "Su 12:00-15:00;Mo-Sa 12:00-15:00,19:00-22:00",
      "phone": "+351 284 320 300",
      "reservation": "yes",
      "smoking": "no",
      "website": "https://frangoaguia.pt/"
    }
  },
  {
    "type": "node",
    "id": 1365542327,
    "lat": 38.7102793,
    "lon": -7.898814,
    "timestamp": "2022-05-21T18:23:18Z",
    "version": 3,
    "changeset": 121293439,
    "user": "topolusitania",
    "uid": 380552,
    "tags": {
      "amenity": "restaurant",
      "cuisine": "regional",
      "name": "Pateo da Aldeia"
    }
  },
  {
    "type": "node",
    "id": 1373935523,
    "lat": 38.5750677,
    "lon": -7.9116699,
    "timestamp": "2023-08-28T23:20:48Z",
    "version": 2,
    "changeset": 140515868,
    "user": "luisforte",
    "uid": 3305165,
    "tags": {
      "addr:city": "Évora",
      "addr:housenumber": "43",
      "addr:postcode": "7000-596",
      "addr:street": "Rua do Cano",
      "amenity": "restaurant",
      "cuisine": "regional",
      "name": "Restaurante Santa Fé",
      "old_name": "Restaurante Santa Fé",
      "website": "http://www.facebook.com/santafe.restaurante"
    }
  },
  {
    "type": "node",
    "id": 1566584386,
    "lat": 38.6109092,
    "lon": -7.9065557,
    "timestamp": "2021-05-12T21:13:29Z",
    "version": 2,
    "changeset": 104598015,
    "user": "lalolan",
    "uid": 11113526,
    "tags": {
      "amenity": "restaurant",
      "name": "O Cozinheiro"
    }
  },
  {
    "type": "node",
    "id": 1588285403,
    "lat": 38.7703291,
    "lon": -7.500765,
    "timestamp": "2012-01-13T12:22:17Z",
    "version": 1,
    "changeset": 10377637,
    "user": "cleitao62",
    "uid": 584432,
    "tags": {
      "amenity": "restaurant",
      "cuisine": "regional",
      "name": "Os dois irmãos"
    }
  },
  {
    "type": "node",
    "id": 1609046760,
    "lat": 38.5710377,
    "lon": -7.9088496,
    "timestamp": "2021-01-26T16:35:36Z",
    "version": 4,
    "changeset": 98173806,
    "user": "luisforte",
    "uid": 3305165,
    "tags": {
      "amenity": "restaurant",
      "name": "A Muralha",
      "opening_hours": "Mo-Sa 08:00-19:00",
      "phone": "+351 266 702 284",
      "smoking": "no",
      "source": "knowledge"
    }
  },
  {
    "type": "node",
    "id": 1698544695,
    "lat": 38.277258,
    "lon": -7.5319485,
    "timestamp": "2012-03-30T21:17:47Z",
    "version": 1,
    "changeset": 11160011,
    "user": "topolusitania",
    "uid": 380552,
    "tags": {
      "amenity": "restaurant",
      "name": "Restaurante da Marina"
    }
  },
  {
    "type": "node",
    "id": 1740806995,
    "lat": 38.5689647,
    "lon": -7.9102629,
    "timestamp": "2024-06-28T07:01:22Z",
    "version": 4,
    "changeset": 153277665,
    "user": "Reino Baptista",
    "uid": 2820801,
    "tags": {
      "amenity": "restaurant",
      "cuisine": "regional",
      "name": "Adega da Talha Velha",
      "opening_hours": "Mo-Sa 12:00-23:30; Su 12:00-23:00"
    }
  },
  {
    "type": "node",
    "id": 1740807002,
    "lat": 38.5695459,
    "lon": -7.9094976,
    "timestamp": "2018-11-05T14:34:17Z",
    "version": 3,
    "changeset": 64200037,
    "user": "luisforte",
    "uid": 3305165,
    "tags": {
      "addr:city": "Évora",
      "addr:housenumber": "37",
      "addr:postcode": "7000-671",
      "addr:street": "Rua Romão Ramalho",
      "amenity": "restaurant",
      "internet_access": "yes",
      "name": "Embrace Évora Hostel",
      "phone": "+351 266 705 418",
      "rooms": "4",
      "smoking": "isolated",
      "tourism": "hostel",
      "website": "http://www.embraceevorahostel.com/en-gb/contact.htm"
    }
  },
  {
    "type": "node",
    "id": 1740807012,
    "lat": 38.5695037,
    "lon": -7.9092195,
    "timestamp": "2021-01-26T16:35:36Z",
    "version": 4,
    "changeset": 98173806,
    "user": "luisforte",
    "uid": 3305165,
    "tags": {
      "addr:city": "Évora",
      "addr:housenumber": "19",
      "addr:postcode": "7000-650",
      "addr:street": "Praça 1º Maio",
      "amenity": "restaurant",
      "cuisine": "regional",
      "delivery": "no",
      "description": "Funciona apenas com reserva",
      "name": "Repas",
      "outdoor_seating": "yes",
      "phone": "+351 266 708 540",
      "smoking": "outside",
      "takeaway": "no",
      "wheelchair": "yes"
    }
  },
  {
    "type": "node",
    "id": 1740807017,
    "lat": 38.5640636,
    "lon": -7.9074493,
    "timestamp": "2012-05-04T22:09:11Z",
    "version": 1,
    "changeset": 11502672,
    "user": "MigB",
    "uid": 621582,
    "tags": {
      "amenity": "restaurant",
      "name": "Alkimia"
    }
  },
  {
    "type": "node",
    "id": 1740807023,
    "lat": 38.5722414,
    "lon": -7.9121579,
    "timestamp": "2023-08-28T23:20:48Z",
    "version": 3,
    "changeset": 140515868,
    "user": "luisforte",
    "uid": 3305165,
    "tags": {
      "addr:city": "Évora",
      "addr:housenumber": "21A",
      "addr:street": "Rua Gabriel Victor do Monte Pereira",
      "amenity": "restaurant",
      "cuisine": "regional",
      "name": "Adega do Alentejano"
    }
  },
  {
    "type": "node",
    "id": 1740807035,
    "lat": 38.569443,
    "lon": -7.9090249,
    "timestamp": "2025-03-26T08:03:30Z",
    "version": 6,
    "changeset": 164109700,
    "user": "enrrari",
    "uid": 7126452,
    "tags": {
      "addr:city": "Évora",
      "addr:housenumber": "14",
      "addr:postcode": "7000-650",
      "addr:street": "Praça 1º de Maio",
      "amenity": "restaurant",
      "name": "Hortelã"
    }
  },
  {
    "type": "node",
    "id": 1740807036,
    "lat": 38.5688913,
    "lon": -7.9081064,
    "timestamp": "2018-11-05T14:34:17Z",
    "version": 2,
    "changeset": 64200037,
    "user": "luisforte",
    "uid": 3305165,
    "tags": {
      "addr:city": "Évora",
      "addr:housenumber": "119",
      "addr:street": "Rua da Republica",
      "amenity": "restaurant",
      "name": "IPDJ",
      "opening_hours": "Mo-Sa 09:00-23:00"
    }
  },
  {
    "type": "node",
    "id": 1740807038,
    "lat": 38.5686816,
    "lon": -7.9108658,
    "timestamp": "2024-02-28T15:50:33Z",
    "version": 6,
    "changeset": 148018740,
    "user": "DiogoBaptista98",
    "uid": 1193685,
    "tags": {
      "addr:city": "Évora",
      "addr:street": "Rua Romão Ramalho",
      "amenity": "restaurant",
      "brand": "100 Montaditos",
      "brand:wikidata": "Q8355805",
      "cuisine": "sandwich",
      "name": "100 Montaditos"
    }
  },
  {
    "type": "node",
    "id": 1806515600,
    "lat": 38.6052335,
    "lon": -7.8767162,
    "timestamp": "2024-06-28T06:55:35Z",
    "version": 5,
    "changeset": 153277434,
    "user": "Reino Baptista",
    "uid": 2820801,
    "tags": {
      "amenity": "restaurant",
      "indoor_seating": "yes",
      "name": "Pina",
      "outdoor_seating": "no",
      "wheelchair": "limited"
    }
  },
  {
    "type": "node",
    "id": 2030932659,
    "lat": 38.8420973,
    "lon": -7.5871415,
    "timestamp": "2024-07-26T21:47:40Z",
    "version": 2,
    "changeset": 154462206,
    "user": "AxelF",
    "uid": 312432,
    "tags": {
      "addr:city": "Estremoz",
      "addr:housenumber": "13 a 16",
      "addr:place": "Rossio Marquês de Pombal",
      "addr:postcode": "7100-513",
      "amenity": "restaurant",
      "name": "Alentejano",
      "phone": "+351 268 337300"
    }
  },
  {
    "type": "node",
    "id": 2030932662,
    "lat": 38.8425282,
    "lon": -7.5870568,
    "timestamp": "2022-02-04T12:29:49Z",
    "version": 4,
    "changeset": 117004823,
    "user": "geonac",
    "uid": 8616766,
    "tags": {
      "amenity": "restaurant",
      "cuisine": "regional",
      "name": "Águias D'Ouro",
      "wikidata": "Q9672655"
    }
  },
  {
    "type": "node",
    "id": 2030979278,
    "lat": 38.8503177,
    "lon": -7.5909757,
    "timestamp": "2023-12-14T19:04:38Z",
    "version": 5,
    "changeset": 145124173,
    "user": "Carlos Merino",
    "uid": 11363320,
    "tags": {
      "amenity": "restaurant",
      "cuisine": "seafood"
    }
  },
  {
    "type": "node",
    "id": 2030979280,
    "lat": 38.8455912,
    "lon": -7.5876705,
    "timestamp": "2023-03-07T01:03:28Z",
    "version": 2,
    "changeset": 133384369,
    "user": "topolusitania",
    "uid": 380552,
    "tags": {
      "amenity": "restaurant",
      "name": "Kimbo"
    }
  },
  {
    "type": "node",
    "id": 2030979327,
    "lat": 38.8470475,
    "lon": -7.5880152,
    "timestamp": "2017-12-03T21:42:40Z",
    "version": 2,
    "changeset": 54310637,
    "user": "OdinPT",
    "uid": 7142226,
    "tags": {
      "amenity": "restaurant",
      "name": "Combatentes"
    }
  },
  {
    "type": "node",
    "id": 2031117455,
    "lat": 38.8478863,
    "lon": -7.5889377,
    "timestamp": "2012-11-25T01:09:07Z",
    "version": 1,
    "changeset": 14022279,
    "user": "Keke18",
    "uid": 1069790,
    "tags": {
      "amenity": "restaurant",
      "name": "Solar do Leão"
    }
  },
  {
    "type": "node",
    "id": 2187702479,
    "lat": 38.7991951,
    "lon": -7.660115,
    "timestamp": "2013-03-05T21:26:30Z",
    "version": 1,
    "changeset": 15263817,
    "user": "topolusitania",
    "uid": 380552,
    "tags": {
      "amenity": "restaurant"
    }
  },
  {
    "type": "node",
    "id": 2187702557,
    "lat": 38.800675,
    "lon": -7.6610887,
    "timestamp": "2013-03-05T21:26:31Z",
    "version": 1,
    "changeset": 15263817,
    "user": "topolusitania",
    "uid": 380552,
    "tags": {
      "amenity": "restaurant"
    }
  },
  {
    "type": "node",
    "id": 2187762555,
    "lat": 38.6172819,
    "lon": -8.0811071,
    "timestamp": "2021-08-28T23:16:47Z",
    "version": 2,
    "changeset": 110396333,
    "user": "Tr4sK",
    "uid": 154757,
    "tags": {
      "amenity": "restaurant",
      "name": "Area do servico Montemor-O-Novo"
    }
  },
  {
    "type": "node",
    "id": 2187762633,
    "lat": 38.6182858,
    "lon": -8.078728,
    "timestamp": "2013-03-05T22:26:04Z",
    "version": 1,
    "changeset": 15264170,
    "user": "topolusitania",
    "uid": 380552,
    "tags": {
      "amenity": "restaurant"
    }
  },
  {
    "type": "node",
    "id": 2241926411,
    "lat": 38.463,
    "lon": -7.4006973,
    "timestamp": "2013-04-01T11:40:23Z",
    "version": 1,
    "changeset": 15566581,
    "user": "richi",
    "uid": 566575,
    "tags": {
      "amenity": "restaurant"
    }
  },
  {
    "type": "node",
    "id": 2356330218,
    "lat": 38.8434133,
    "lon": -7.5886671,
    "timestamp": "2023-03-06T23:58:16Z",
    "version": 2,
    "changeset": 133383416,
    "user": "topolusitania",
    "uid": 380552,
    "tags": {
      "addr:housenumber": "48",
      "addr:street": "Largo General Graça",
      "amenity": "restaurant",
      "cuisine": "pizza",
      "name": "Pizzaria JP"
    }
  },
  {
    "type": "node",
    "id": 2371152489,
    "lat": 38.5707143,
    "lon": -7.9096075,
    "timestamp": "2023-09-03T16:55:53Z",
    "version": 5,
    "changeset": 140768035,
    "user": "luisforte",
    "uid": 3305165,
    "tags": {
      "amenity": "restaurant",
      "name": "Restaurante Giraldo"
    }
  },
  {
    "type": "node",
    "id": 2406778514,
    "lat": 38.9174178,
    "lon": -7.3207163,
    "timestamp": "2020-11-16T21:05:07Z",
    "version": 3,
    "changeset": 94227434,
    "user": "luisforte",
    "uid": 3305165,
    "tags": {
      "amenity": "restaurant",
      "name": "Bar Alentejano"
    }
  },
  {
    "type": "node",
    "id": 2440235555,
    "lat": 38.0146458,
    "lon": -7.8654308,
    "timestamp": "2025-02-19T18:50:27Z",
    "version": 7,
    "changeset": 162713490,
    "user": "luisforte",
    "uid": 3305165,
    "tags": {
      "addr:housenumber": "23",
      "addr:postcode": "7800-464",
      "addr:street": "Rua da Moeda",
      "amenity": "restaurant",
      "check_date": "2023-10-12",
      "cuisine": "portuguese",
      "diet:gluten_free": "yes",
      "internet_access": "wlan",
      "name": "Adega tipica 25 de Abril",
      "opening_hours": "Su 12:00-15:00;Tu-Sa 12:00-15:00,19:30-22:00",
      "payment:cash": "yes",
      "payment:mastercard": "yes",
      "payment:visa": "yes",
      "phone": "+351 284 325 960",
      "website": "https://adega25deabril.pt/"
    }
  },
  {
    "type": "node",
    "id": 2587286666,
    "lat": 38.5415507,
    "lon": -8.1687355,
    "timestamp": "2024-08-28T22:41:31Z",
    "version": 4,
    "changeset": 155903382,
    "user": "nafergo",
    "uid": 3899376,
    "tags": {
      "addr:city": "Santiago do Escoural",
      "addr:housenumber": "12",
      "addr:postcode": "7050-556",
      "addr:street": "Rua Bernardino Machado",
      "amenity": "restaurant",
      "cuisine": "regional",
      "indoor_seating": "yes",
      "name": "A Ferrenha",
      "outdoor_seating": "no"
    }
  },
  {
    "type": "node",
    "id": 2587286668,
    "lat": 38.5422228,
    "lon": -8.1680548,
    "timestamp": "2024-08-28T22:36:58Z",
    "version": 2,
    "changeset": 155903382,
    "user": "nafergo",
    "uid": 3899376,
    "tags": {
      "amenity": "restaurant",
      "cuisine": "regional",
      "indoor_seating": "yes",
      "name": "Rabino's",
      "outdoor_seating": "no"
    }
  },
  {
    "type": "node",
    "id": 2587286669,
    "lat": 38.5424557,
    "lon": -8.1681679,
    "timestamp": "2024-08-28T22:36:30Z",
    "version": 3,
    "changeset": 155903382,
    "user": "nafergo",
    "uid": 3899376,
    "tags": {
      "amenity": "restaurant",
      "cuisine": "regional",
      "indoor_seating": "yes",
      "name": "Manuel Azinheirinha",
      "outdoor_seating": "no"
    }
  },
  {
    "type": "node",
    "id": 2587286673,
    "lat": 38.5403117,
    "lon": -8.1680691,
    "timestamp": "2024-08-30T09:40:28Z",
    "version": 3,
    "changeset": 155963696,
    "user": "nafergo",
    "uid": 3899376,
    "tags": {
      "amenity": "restaurant",
      "indoor_seating": "yes",
      "name": "O Cholinha",
      "outdoor_seating": "yes"
    }
  },
  {
    "type": "node",
    "id": 2587325801,
    "lat": 38.6492526,
    "lon": -8.2165878,
    "timestamp": "2018-02-05T21:26:07Z",
    "version": 2,
    "changeset": 56097827,
    "user": "luisforte",
    "uid": 3305165,
    "tags": {
      "amenity": "restaurant",
      "name": "Monte Alentejano"
    }
  },
  {
    "type": "node",
    "id": 3107168929,
    "lat": 38.4350684,
    "lon": -7.3881132,
    "timestamp": "2014-10-02T13:53:39Z",
    "version": 1,
    "changeset": 25810709,
    "user": "topolusitania",
    "uid": 380552,
    "tags": {
      "amenity": "restaurant",
      "name": "Feitiço da Lua"
    }
  },
  {
    "type": "node",
    "id": 3120362755,
    "lat": 38.0067468,
    "lon": -7.8549654,
    "timestamp": "2025-01-28T10:45:57Z",
    "version": 4,
    "changeset": 161852387,
    "user": "topolusitania",
    "uid": 380552,
    "tags": {
      "amenity": "restaurant",
      "cuisine": "portuguese",
      "name": "Restaurante o Espeto"
    }
  },
  {
    "type": "node",
    "id": 3143571892,
    "lat": 38.5763916,
    "lon": -7.9103484,
    "timestamp": "2024-04-05T10:28:25Z",
    "version": 5,
    "changeset": 149607971,
    "user": "Ieronimus",
    "uid": 4685540,
    "tags": {
      "addr:housenumber": "149",
      "addr:street": "Rua de Avis",
      "amenity": "restaurant",
      "check_date": "2024-04-05",
      "contact:phone": "+351 266 703 354",
      "internet_access": "wlan",
      "internet_access:fee": "customers",
      "name": "Restaurante Largo de Aviz",
      "opening_hours": "Mo-Su 07:30-02:00",
      "payment:cash": "no",
      "payment:mastercard": "yes",
      "payment:visa": "yes"
    }
  },
  {
    "type": "node",
    "id": 3143573534,
    "lat": 38.575308,
    "lon": -7.9118136,
    "timestamp": "2023-07-01T11:21:37Z",
    "version": 2,
    "changeset": 137988500,
    "user": "topolusitania",
    "uid": 380552,
    "tags": {
      "amenity": "restaurant",
      "cuisine": "regional",
      "name": "Rato Bicho"
    }
  },
  {
    "type": "node",
    "id": 3143585036,
    "lat": 38.5865721,
    "lon": -7.9133788,
    "timestamp": "2021-06-16T11:18:16Z",
    "version": 3,
    "changeset": 106462420,
    "user": "lalolan",
    "uid": 11113526,
    "tags": {
      "amenity": "restaurant",
      "name": "Restaurante O Cruzeiro"
    }
  },
  {
    "type": "node",
    "id": 3143588206,
    "lat": 38.5682435,
    "lon": -7.9123052,
    "timestamp": "2024-10-22T12:05:34Z",
    "version": 3,
    "changeset": 158208627,
    "user": "enrrari",
    "uid": 7126452,
    "tags": {
      "amenity": "restaurant",
      "indoor_seating": "yes",
      "name": "Restaurante A Mata",
      "opening_hours": "Mo-Sa 09:30-15:30,18:00-22:00; Su off",
      "outdoor_seating": "no"
    }
  },
  {
    "type": "node",
    "id": 3143588244,
    "lat": 38.5931133,
    "lon": -7.9083879,
    "timestamp": "2022-11-17T23:23:58Z",
    "version": 2,
    "changeset": 129063387,
    "user": "luisforte",
    "uid": 3305165,
    "tags": {
      "addr:city": "Évora",
      "addr:housenumber": "6",
      "addr:postcode": "7005-427",
      "addr:street": "Rua do Eucaliptal",
      "amenity": "restaurant",
      "name": "Restaurante A Curva do Bacelo"
    }
  },
  {
    "type": "node",
    "id": 3143981182,
    "lat": 38.5623938,
    "lon": -7.9255866,
    "timestamp": "2024-10-23T17:24:10Z",
    "version": 2,
    "changeset": 158264083,
    "user": "enrrari",
    "uid": 7126452,
    "tags": {
      "amenity": "restaurant",
      "name": "Restaurante Marisqueira Delgado",
      "opening_hours": "Tu-Sa 12:00-15:00,19:00-22:00; Su,Mo off"
    }
  },
  {
    "type": "node",
    "id": 3143988329,
    "lat": 38.5623832,
    "lon": -7.9186675,
    "timestamp": "2014-10-22T15:28:59Z",
    "version": 1,
    "changeset": 26258133,
    "user": "Higino Silva David",
    "uid": 2415019,
    "tags": {
      "amenity": "restaurant"
    }
  },
  {
    "type": "node",
    "id": 3145611878,
    "lat": 38.5576047,
    "lon": -7.9189208,
    "timestamp": "2023-06-18T23:24:14Z",
    "version": 2,
    "changeset": 137495423,
    "user": "topolusitania",
    "uid": 380552,
    "tags": {
      "amenity": "restaurant"
    }
  },
  {
    "type": "node",
    "id": 3145625558,
    "lat": 38.5551429,
    "lon": -7.9167987,
    "timestamp": "2024-09-26T19:51:38Z",
    "version": 5,
    "changeset": 157144813,
    "user": "luisforte",
    "uid": 3305165,
    "tags": {
      "addr:city": "Évora",
      "addr:housenumber": "2A",
      "addr:postcode": "7005-401",
      "addr:street": "Rua de Santo André",
      "amenity": "restaurant",
      "cuisine": "regional",
      "name": "O Moinho do Cu Torto",
      "phone": "+351 266 771 060"
    }
  },
  {
    "type": "node",
    "id": 3145634172,
    "lat": 38.5559118,
    "lon": -7.915352,
    "timestamp": "2024-09-26T19:51:38Z",
    "version": 4,
    "changeset": 157144813,
    "user": "luisforte",
    "uid": 3305165,
    "tags": {
      "addr:city": "Évora",
      "addr:street": "Rua da Horta das Figueiras",
      "amenity": "restaurant",
      "name": "O Parque"
    }
  },
  {
    "type": "node",
    "id": 3147402686,
    "lat": 38.5675249,
    "lon": -7.9556959,
    "timestamp": "2017-11-13T09:08:46Z",
    "version": 2,
    "changeset": 53733841,
    "user": "5R-MFT",
    "uid": 3417876,
    "tags": {
      "amenity": "restaurant",
      "name": "Barraca de Pau"
    }
  },
  {
    "type": "node",
    "id": 3147451383,
    "lat": 38.5665567,
    "lon": -7.9131948,
    "timestamp": "2021-05-12T22:10:16Z",
    "version": 2,
    "changeset": 104599538,
    "user": "lalolan",
    "uid": 11113526,
    "tags": {
      "amenity": "restaurant",
      "name": "O Caçador"
    }
  },
  {
    "type": "node",
    "id": 3151734158,
    "lat": 38.5761774,
    "lon": -7.9096086,
    "timestamp": "2021-05-12T20:33:13Z",
    "version": 3,
    "changeset": 104596695,
    "user": "lalolan",
    "uid": 11113526,
    "tags": {
      "addr:city": "Évora",
      "addr:housenumber": "156",
      "addr:postcode": "7000-574",
      "addr:street": "Rua de Aviz",
      "amenity": "restaurant",
      "cuisine": "regional",
      "delivery": "no",
      "name": "Cozinha da Catarina",
      "opening_hours": "10:30 ás 23:45 fecha á segunda - feira",
      "outdoor_seating": "no",
      "phone": "+351 924 422 203",
      "smoking": "no",
      "takeaway": "yes",
      "wheelchair": "yes"
    }
  },
  {
    "type": "node",
    "id": 3157707552,
    "lat": 38.5700857,
    "lon": -7.9102015,
    "timestamp": "2018-12-07T15:46:42Z",
    "version": 2,
    "changeset": 65271839,
    "user": "luisforte",
    "uid": 3305165,
    "tags": {
      "amenity": "restaurant",
      "name": "Medieval"
    }
  },
  {
    "type": "node",
    "id": 3157707553,
    "lat": 38.5705263,
    "lon": -7.9095549,
    "timestamp": "2021-05-18T16:35:46Z",
    "version": 5,
    "changeset": 104903603,
    "user": "lalolan",
    "uid": 11113526,
    "tags": {
      "addr:city": "Évora",
      "addr:housenumber": "5",
      "addr:postcode": "7000-661",
      "addr:street": "Rua do Raimundo",
      "amenity": "restaurant",
      "name": "Café Alentejo",
      "opening_hours": "Su-Sa 07:00-23:00, 19:30-22:45",
      "phone": "+351 266 706 296"
    }
  },
  {
    "type": "node",
    "id": 3157716336,
    "lat": 38.5706336,
    "lon": -7.9099618,
    "timestamp": "2023-08-31T21:38:19Z",
    "version": 3,
    "changeset": 140654646,
    "user": "luisforte",
    "uid": 3305165,
    "tags": {
      "addr:city": "Évora",
      "addr:housenumber": "20",
      "addr:postcode": "7000-661",
      "addr:street": "Rua dos Mercadores",
      "amenity": "restaurant",
      "name": "A Choupana",
      "phone": "+351 266 704 427"
    }
  },
  {
    "type": "node",
    "id": 3157716337,
    "lat": 38.5708289,
    "lon": -7.9098763,
    "timestamp": "2021-05-12T21:23:49Z",
    "version": 2,
    "changeset": 104598323,
    "user": "lalolan",
    "uid": 11113526,
    "tags": {
      "amenity": "restaurant",
      "name": "Tik Tak"
    }
  },
  {
    "type": "node",
    "id": 3157716338,
    "lat": 38.5707559,
    "lon": -7.9101776,
    "timestamp": "2019-10-04T15:06:45Z",
    "version": 3,
    "changeset": 75292143,
    "user": "luisforte",
    "uid": 3305165,
    "tags": {
      "amenity": "restaurant",
      "name": "Cozinha Santo Humberto"
    }
  },
  {
    "type": "node",
    "id": 3157716339,
    "lat": 38.5710115,
    "lon": -7.9144964,
    "timestamp": "2018-11-05T01:02:15Z",
    "version": 3,
    "changeset": 64182212,
    "user": "luisforte",
    "uid": 3305165,
    "tags": {
      "addr:city": "Évora",
      "addr:housenumber": "6",
      "addr:postcode": "7000-531",
      "addr:street": "Rua dos Penedos",
      "amenity": "restaurant",
      "cuisine": "regional",
      "delivery": "no",
      "description": "Romântico, Grupos grandes, Gastronomia regional, Ocasiões especiais, Reuniões de negócios, Crianças, Famílias com crianças",
      "email": "restaurantedomjoaquim@gmail.com",
      "name": "Dom Joaquim",
      "opening_hours": "Tu-Su 12:00-22:45",
      "outdoor_seating": "no",
      "phone": "+351 266 731 105",
      "smoking": "no",
      "takeaway": "yes",
      "wheelchair": "yes"
    }
  },
  {
    "type": "node",
    "id": 3157728265,
    "lat": 38.5686992,
    "lon": -7.9182672,
    "timestamp": "2014-10-30T11:18:32Z",
    "version": 1,
    "changeset": 26433462,
    "user": "Higino Silva David",
    "uid": 2415019,
    "tags": {
      "amenity": "restaurant",
      "name": "Braza"
    }
  },
  {
    "type": "node",
    "id": 3157762066,
    "lat": 38.5615735,
    "lon": -7.911725,
    "timestamp": "2021-06-16T11:18:16Z",
    "version": 3,
    "changeset": 106462420,
    "user": "lalolan",
    "uid": 11113526,
    "tags": {
      "amenity": "restaurant",
      "name": "O Melhor Petisco"
    }
  },
  {
    "type": "node",
    "id": 3468119776,
    "lat": 38.3824201,
    "lon": -7.3439397,
    "timestamp": "2015-05-15T11:48:22Z",
    "version": 2,
    "changeset": 31169705,
    "user": "RuiReynaud",
    "uid": 903919,
    "tags": {
      "amenity": "restaurant",
      "capacity": "30",
      "cuisine": "regional",
      "delivery": "yes",
      "name": "A Chaminé",
      "smoking": "no",
      "takeaway": "yes"
    }
  },
  {
    "type": "node",
    "id": 3548868296,
    "lat": 38.383378,
    "lon": -7.3418661,
    "timestamp": "2023-07-19T22:56:27Z",
    "version": 5,
    "changeset": 138738021,
    "user": "carlosefonseca",
    "uid": 11236672,
    "tags": {
      "addr:housenumber": "13",
      "addr:street": "Rua Joaquim José Vasconcelos Gusmão",
      "amenity": "restaurant",
      "check_date": "2023-07-19",
      "cuisine": "regional",
      "internet_access": "no",
      "name": "Adega velha",
      "opening_hours": "Tu-Sa 11:00-15:00,18:00-22:00; Su 11:00-15:00",
      "payment:cards": "yes",
      "payment:cash": "yes",
      "payment:mastercard": "yes",
      "payment:visa": "yes",
      "phone": "+351 266 586 443",
      "reservation": "recommended",
      "toilets": "yes"
    }
  },
  {
    "type": "node",
    "id": 3554540717,
    "lat": 38.382927,
    "lon": -7.3449048,
    "timestamp": "2015-05-28T16:22:43Z",
    "version": 1,
    "changeset": 31535325,
    "user": "RuiReynaud",
    "uid": 903919,
    "tags": {
      "amenity": "restaurant",
      "name": "Beiral"
    }
  },
  {
    "type": "node",
    "id": 3554540719,
    "lat": 38.3822007,
    "lon": -7.3452464,
    "timestamp": "2015-05-28T16:23:14Z",
    "version": 1,
    "changeset": 31535347,
    "user": "RuiReynaud",
    "uid": 903919,
    "tags": {
      "amenity": "restaurant",
      "name": "Bragança"
    }
  },
  {
    "type": "node",
    "id": 3554541802,
    "lat": 38.3801493,
    "lon": -7.3417309,
    "timestamp": "2015-05-28T16:23:48Z",
    "version": 1,
    "changeset": 31535372,
    "user": "RuiReynaud",
    "uid": 903919,
    "tags": {
      "amenity": "restaurant",
      "name": "Chafariz"
    }
  },
  {
    "type": "node",
    "id": 3555810981,
    "lat": 38.3830788,
    "lon": -7.3436646,
    "timestamp": "2015-05-29T08:41:23Z",
    "version": 1,
    "changeset": 31557018,
    "user": "RuiReynaud",
    "uid": 903919,
    "tags": {
      "amenity": "restaurant",
      "cuisine": "regional",
      "name": "Pateo da Oliveira"
    }
  },
  {
    "type": "node",
    "id": 3575234185,
    "lat": 38.5747593,
    "lon": -7.9113457,
    "timestamp": "2015-06-05T18:56:40Z",
    "version": 1,
    "changeset": 31753251,
    "user": "morray",
    "uid": 91790,
    "tags": {
      "amenity": "restaurant",
      "name": "O Portão do Pastor"
    }
  },
  {
    "type": "node",
    "id": 3575234301,
    "lat": 38.5719505,
    "lon": -7.9112547,
    "timestamp": "2015-06-05T18:56:48Z",
    "version": 1,
    "changeset": 31753251,
    "user": "morray",
    "uid": 91790,
    "tags": {
      "amenity": "restaurant",
      "name": "O Garfo"
    }
  },
  {
    "type": "node",
    "id": 3575235858,
    "lat": 38.5741049,
    "lon": -7.9109499,
    "timestamp": "2023-11-13T12:40:42Z",
    "version": 4,
    "changeset": 143969048,
    "user": "topolusitania",
    "uid": 380552,
    "tags": {
      "addr:city": "Évora",
      "addr:housenumber": "13A",
      "addr:street": "Rua do Cano",
      "amenity": "restaurant",
      "name": "O Aqueduto"
    }
  },
  {
    "type": "node",
    "id": 3575235931,
    "lat": 38.5721946,
    "lon": -7.9048903,
    "timestamp": "2016-12-22T17:43:29Z",
    "version": 3,
    "changeset": 44596583,
    "user": "PATRÍCIA ANICETO",
    "uid": 4977179,
    "tags": {
      "addr:city": "Évora",
      "addr:housenumber": "32",
      "addr:street": "Rua do Conde da Serra da Tourega",
      "amenity": "restaurant",
      "cuisine": "regional",
      "name": "Cantinho da Tyko",
      "smoking": "outside",
      "source": "https://www.facebook.com/restaurantecantinhodatyco/"
    }
  },
  {
    "type": "node",
    "id": 3575236094,
    "lat": 38.5700029,
    "lon": -7.9098262,
    "timestamp": "2020-04-12T00:42:21Z",
    "version": 2,
    "changeset": 83414440,
    "user": "hvalentim",
    "uid": 705092,
    "tags": {
      "amenity": "restaurant",
      "name": "São Francisco"
    }
  },
  {
    "type": "node",
    "id": 3613005542,
    "lat": 38.0163396,
    "lon": -7.8600004,
    "timestamp": "2015-06-23T15:27:10Z",
    "version": 1,
    "changeset": 32164158,
    "user": "Luis Coentro",
    "uid": 250187,
    "tags": {
      "amenity": "restaurant",
      "name": "Brissos"
    }
  },
  {
    "type": "node",
    "id": 3695628139,
    "lat": 38.6514388,
    "lon": -7.5495346,
    "timestamp": "2015-08-13T16:50:42Z",
    "version": 1,
    "changeset": 33317603,
    "user": "fv2",
    "uid": 3146584,
    "tags": {
      "amenity": "restaurant"
    }
  },
  {
    "type": "node",
    "id": 3695628145,
    "lat": 38.6497255,
    "lon": -7.546437,
    "timestamp": "2021-06-08T12:50:51Z",
    "version": 2,
    "changeset": 106036631,
    "user": "lalolan",
    "uid": 11113526,
    "tags": {
      "amenity": "restaurant",
      "name": "Pôr do Sol"
    }
  },
  {
    "type": "node",
    "id": 3695628146,
    "lat": 38.6501622,
    "lon": -7.5461008,
    "timestamp": "2015-08-13T16:50:42Z",
    "version": 1,
    "changeset": 33317603,
    "user": "fv2",
    "uid": 3146584,
    "tags": {
      "amenity": "restaurant",
      "name": "O Marujo"
    }
  },
  {
    "type": "node",
    "id": 3695628147,
    "lat": 38.6487109,
    "lon": -7.5436631,
    "timestamp": "2015-08-13T16:50:43Z",
    "version": 1,
    "changeset": 33317603,
    "user": "fv2",
    "uid": 3146584,
    "tags": {
      "amenity": "restaurant",
      "name": "A Torre"
    }
  },
  {
    "type": "node",
    "id": 3695628172,
    "lat": 38.6447519,
    "lon": -7.5475659,
    "timestamp": "2021-06-27T15:46:54Z",
    "version": 2,
    "changeset": 107041821,
    "user": "Afonso Azaruja",
    "uid": 13487703,
    "tags": {
      "amenity": "restaurant",
      "name": "Sergio"
    }
  },
  {
    "type": "node",
    "id": 3695628173,
    "lat": 38.6459661,
    "lon": -7.5443002,
    "timestamp": "2015-08-13T16:50:43Z",
    "version": 1,
    "changeset": 33317603,
    "user": "fv2",
    "uid": 3146584,
    "tags": {
      "amenity": "restaurant",
      "name": "Celeiro do Pinto"
    }
  },
  {
    "type": "node",
    "id": 3695628174,
    "lat": 38.648996,
    "lon": -7.5442597,
    "timestamp": "2015-08-13T16:50:43Z",
    "version": 1,
    "changeset": 33317603,
    "user": "fv2",
    "uid": 3146584,
    "tags": {
      "amenity": "restaurant",
      "name": "O Barro"
    }
  },
  {
    "type": "node",
    "id": 3695628175,
    "lat": 38.6501414,
    "lon": -7.5458898,
    "timestamp": "2015-08-13T16:50:43Z",
    "version": 1,
    "changeset": 33317603,
    "user": "fv2",
    "uid": 3146584,
    "tags": {
      "amenity": "restaurant",
      "name": "Rei dos Frangos"
    }
  },
  {
    "type": "node",
    "id": 3712253697,
    "lat": 38.0163282,
    "lon": -7.8656618,
    "timestamp": "2015-08-24T16:23:41Z",
    "version": 1,
    "changeset": 33551037,
    "user": "Luis Coentro",
    "uid": 250187,
    "tags": {
      "amenity": "restaurant",
      "name": "Brissos"
    }
  },
  {
    "type": "node",
    "id": 3765423438,
    "lat": 38.7124519,
    "lon": -7.5677599,
    "timestamp": "2020-10-19T21:38:56Z",
    "version": 3,
    "changeset": 92729926,
    "user": "topolusitania",
    "uid": 380552,
    "tags": {
      "addr:city": "Redondo",
      "addr:hamlet": "Aldeia da Serra",
      "addr:postcode": "7170-120",
      "amenity": "restaurant",
      "cuisine": "regional",
      "name": "O Chana do Bernardino",
      "phone": "+351 266 909 414"
    }
  },
  {
    "type": "node",
    "id": 3790386275,
    "lat": 38.5752353,
    "lon": -7.9096079,
    "timestamp": "2015-10-17T15:21:12Z",
    "version": 1,
    "changeset": 34695925,
    "user": "zEEs",
    "uid": 79933,
    "tags": {
      "amenity": "restaurant",
      "name": "Luar de Janeiro"
    }
  },
  {
    "type": "node",
    "id": 3811230318,
    "lat": 38.2962598,
    "lon": -8.2251749,
    "timestamp": "2024-10-27T18:22:42Z",
    "version": 3,
    "changeset": 158425713,
    "user": "luisforte",
    "uid": 3305165,
    "tags": {
      "addr:city": "Torrão",
      "addr:housenumber": "9",
      "addr:postcode": "7595-125",
      "addr:street": "Rua de Beja",
      "amenity": "restaurant",
      "cuisine": "regional",
      "name": "O Tordo",
      "smoking": "separated"
    }
  },
  {
    "type": "node",
    "id": 3827680366,
    "lat": 38.2898089,
    "lon": -8.0367013,
    "timestamp": "2019-12-15T16:29:46Z",
    "version": 4,
    "changeset": 78433932,
    "user": "luisforte",
    "uid": 3305165,
    "tags": {
      "addr:city": "Vila Nova da Baronia",
      "addr:housenumber": "15",
      "addr:postcode": "7920-368",
      "addr:street": "Rua 5 de Outubro",
      "amenity": "restaurant",
      "capacity": "120",
      "contact:facebook": "https://www.facebook.com/www.restaurantecamoes.pt/",
      "cuisine": "regional",
      "name": "O Camões",
      "opening_hours": "Tu-Su 12:00-22:00",
      "phone": "+351 284 475 209",
      "takeaway": "yes"
    }
  },
  {
    "type": "node",
    "id": 3827680367,
    "lat": 38.2906851,
    "lon": -8.03726,
    "timestamp": "2019-12-15T16:29:46Z",
    "version": 4,
    "changeset": 78433932,
    "user": "luisforte",
    "uid": 3305165,
    "tags": {
      "addr:city": "Vila Nova da Baronia",
      "addr:housenumber": "4",
      "addr:postcode": "7920-382",
      "addr:street": "Rua Joaquim Henrique da Silva",
      "amenity": "restaurant",
      "contact:facebook": "https://www.facebook.com/Restaurante-O-Casão-132902117217619/",
      "cuisine": "regional",
      "name": "O Casão",
      "opening_hours": "Mo-Sa 10:00-22:00; Su 10:00-16:00",
      "phone": "+351 284 475 307",
      "takeaway": "yes"
    }
  },
  {
    "type": "node",
    "id": 3827701340,
    "lat": 38.287971,
    "lon": -8.037473,
    "timestamp": "2023-11-21T18:34:58Z",
    "version": 6,
    "changeset": 144298771,
    "user": "luisforte",
    "uid": 3305165,
    "tags": {
      "addr:city": "Vila Nova da Baronia",
      "addr:housenumber": "35",
      "addr:street": "Rua Pinto de Melo",
      "amenity": "restaurant",
      "name": "Sabores da Baronia"
    }
  },
  {
    "type": "node",
    "id": 3827756044,
    "lat": 38.2161998,
    "lon": -7.53864,
    "timestamp": "2015-11-10T00:14:24Z",
    "version": 1,
    "changeset": 35205425,
    "user": "Humberto Nixon",
    "uid": 389473,
    "tags": {
      "amenity": "restaurant",
      "cuisine": "regional",
      "name": "O Artur"
    }
  },
  {
    "type": "node",
    "id": 3827756045,
    "lat": 38.2134546,
    "lon": -7.5397245,
    "timestamp": "2015-11-10T00:14:24Z",
    "version": 1,
    "changeset": 35205425,
    "user": "Humberto Nixon",
    "uid": 389473,
    "tags": {
      "amenity": "restaurant",
      "capacity": "96",
      "cuisine": "regional",
      "name": "Costa do Sol",
      "smoking": "outside"
    }
  },
  {
    "type": "node",
    "id": 3827756048,
    "lat": 38.2162992,
    "lon": -7.5378301,
    "timestamp": "2015-11-10T00:14:24Z",
    "version": 1,
    "changeset": 35205425,
    "user": "Humberto Nixon",
    "uid": 389473,
    "tags": {
      "amenity": "restaurant",
      "cuisine": "regional",
      "name": "O Ceara"
    }
  },
  {
    "type": "node",
    "id": 3827822158,
    "lat": 38.1403881,
    "lon": -7.4515363,
    "timestamp": "2021-11-26T16:24:30Z",
    "version": 2,
    "changeset": 114241653,
    "user": "wheelmap_visitor",
    "uid": 290680,
    "tags": {
      "amenity": "restaurant",
      "cuisine": "regional",
      "name": "O Vermelhudo",
      "wheelchair": "limited"
    }
  },
  {
    "type": "node",
    "id": 3827822159,
    "lat": 38.1426589,
    "lon": -7.451719,
    "timestamp": "2024-01-09T16:35:21Z",
    "version": 3,
    "changeset": 146073437,
    "user": "luisforte",
    "uid": 3305165,
    "tags": {
      "addr:housenumber": "3",
      "addr:postcode": "7860-103",
      "addr:street": "Rua da Mouraria",
      "amenity": "restaurant",
      "name": "Taberna O Liberato",
      "wheelchair": "limited"
    }
  },
  {
    "type": "node",
    "id": 3827822160,
    "lat": 38.1412144,
    "lon": -7.4489877,
    "timestamp": "2025-04-20T16:43:37Z",
    "version": 4,
    "changeset": 165203382,
    "user": "DanielAgos",
    "uid": 20972402,
    "tags": {
      "addr:city": "Moura",
      "addr:housenumber": "5",
      "addr:postcode": "7860-013",
      "addr:street": "Rua 5 de Outubro",
      "amenity": "restaurant",
      "cuisine": "chinese;japanese",
      "name": "Sakura",
      "opening_hours": "Tu-Su 11:30-15:00,18:30-23:00",
      "outdoor_seating": "no",
      "phone": "+351 285 254 757",
      "wheelchair": "limited"
    }
  },
  {
    "type": "node",
    "id": 3827822161,
    "lat": 38.1389569,
    "lon": -7.447819,
    "timestamp": "2015-11-10T01:06:00Z",
    "version": 1,
    "changeset": 35205792,
    "user": "Humberto Nixon",
    "uid": 389473,
    "tags": {
      "amenity": "restaurant",
      "cuisine": "regional",
      "name": "O Arco"
    }
  },
  {
    "type": "node",
    "id": 3827822162,
    "lat": 38.1393949,
    "lon": -7.4526516,
    "timestamp": "2021-11-26T16:24:12Z",
    "version": 3,
    "changeset": 114241653,
    "user": "wheelmap_visitor",
    "uid": 290680,
    "tags": {
      "amenity": "restaurant",
      "name": "A Roda (Fechado)",
      "wheelchair": "limited"
    }
  },
  {
    "type": "node",
    "id": 3827822163,
    "lat": 38.1373612,
    "lon": -7.4555566,
    "timestamp": "2021-11-26T17:00:26Z",
    "version": 2,
    "changeset": 114241653,
    "user": "wheelmap_visitor",
    "uid": 290680,
    "tags": {
      "amenity": "restaurant",
      "cuisine": "regional",
      "name": "Tropicália",
      "wheelchair": "limited"
    }
  },
  {
    "type": "node",
    "id": 3827822164,
    "lat": 38.1371654,
    "lon": -7.4469149,
    "timestamp": "2021-11-26T16:59:50Z",
    "version": 2,
    "changeset": 114241653,
    "user": "wheelmap_visitor",
    "uid": 290680,
    "tags": {
      "amenity": "restaurant",
      "name": "O Patinho",
      "wheelchair": "limited"
    }
  },
  {
    "type": "node",
    "id": 3827822170,
    "lat": 38.1413281,
    "lon": -7.4505608,
    "timestamp": "2015-11-10T01:06:00Z",
    "version": 1,
    "changeset": 35205792,
    "user": "Humberto Nixon",
    "uid": 389473,
    "tags": {
      "amenity": "restaurant",
      "cuisine": "regional",
      "name": "O Ideal"
    }
  },
  {
    "type": "node",
    "id": 3827838663,
    "lat": 38.1418002,
    "lon": -7.451336,
    "timestamp": "2015-11-10T01:27:36Z",
    "version": 1,
    "changeset": 35205902,
    "user": "Humberto Nixon",
    "uid": 389473,
    "tags": {
      "amenity": "restaurant",
      "cuisine": "regional",
      "name": "Taverna dos Enguiços"
    }
  },
  {
    "type": "node",
    "id": 3829379971,
    "lat": 38.2927111,
    "lon": -8.0357406,
    "timestamp": "2018-05-27T16:01:08Z",
    "version": 3,
    "changeset": 59316654,
    "user": "luisforte",
    "uid": 3305165,
    "tags": {
      "amenity": "restaurant",
      "name": "GDC Baronia"
    }
  },
  {
    "type": "node",
    "id": 3829776585,
    "lat": 38.1396446,
    "lon": -7.4537773,
    "timestamp": "2025-02-21T22:03:00Z",
    "version": 3,
    "changeset": 162797799,
    "user": "luisforte",
    "uid": 3305165,
    "tags": {
      "amenity": "restaurant",
      "delivery": "no",
      "name": "A Cave",
      "opening_hours": "Sun off",
      "smoking": "outside",
      "takeaway": "yes",
      "wheelchair": "no"
    }
  },
  {
    "type": "node",
    "id": 3829833470,
    "lat": 38.1428598,
    "lon": -7.4474659,
    "timestamp": "2021-11-26T16:55:41Z",
    "version": 3,
    "changeset": 114241653,
    "user": "wheelmap_visitor",
    "uid": 290680,
    "tags": {
      "amenity": "restaurant",
      "name": "O Béu",
      "wheelchair": "no"
    }
  },
  {
    "type": "node",
    "id": 3829833477,
    "lat": 38.1421582,
    "lon": -7.4500053,
    "timestamp": "2021-11-26T15:23:38Z",
    "version": 2,
    "changeset": 114241653,
    "user": "wheelmap_visitor",
    "uid": 290680,
    "tags": {
      "amenity": "restaurant",
      "name": "O Malato",
      "wheelchair": "limited"
    }
  },
  {
    "type": "node",
    "id": 3829833478,
    "lat": 38.142823,
    "lon": -7.4505107,
    "timestamp": "2021-11-26T16:56:33Z",
    "version": 2,
    "changeset": 114241653,
    "user": "wheelmap_visitor",
    "uid": 290680,
    "tags": {
      "amenity": "restaurant",
      "name": "Café Central",
      "wheelchair": "limited"
    }
  },
  {
    "type": "node",
    "id": 3829833479,
    "lat": 38.1428568,
    "lon": -7.4502948,
    "timestamp": "2021-11-26T15:17:59Z",
    "version": 2,
    "changeset": 114241653,
    "user": "wheelmap_visitor",
    "uid": 290680,
    "tags": {
      "amenity": "restaurant",
      "name": "Pérgula",
      "wheelchair": "yes"
    }
  },
  {
    "type": "node",
    "id": 3829833551,
    "lat": 38.1399864,
    "lon": -7.4554413,
    "timestamp": "2021-11-26T16:23:48Z",
    "version": 2,
    "changeset": 114241653,
    "user": "wheelmap_visitor",
    "uid": 290680,
    "tags": {
      "amenity": "restaurant",
      "name": "A Rampa",
      "wheelchair": "limited"
    }
  },
  {
    "type": "node",
    "id": 3841854137,
    "lat": 38.2396039,
    "lon": -7.5656977,
    "timestamp": "2017-01-07T20:04:38Z",
    "version": 2,
    "changeset": 44985918,
    "user": "5R-MFT",
    "uid": 3417876,
    "tags": {
      "amenity": "restaurant",
      "delivery": "no",
      "name": "Avestruz - Mundo Rural"
    }
  },
  {
    "type": "node",
    "id": 3882173133,
    "lat": 38.9443154,
    "lon": -8.1652825,
    "timestamp": "2015-12-07T17:40:26Z",
    "version": 1,
    "changeset": 35811341,
    "user": "bapman",
    "uid": 249243,
    "tags": {
      "addr:city": "Mora",
      "addr:housenumber": "1",
      "addr:street": "Rua de Pavia",
      "alt_name": "Café Afonso",
      "amenity": "restaurant",
      "cuisine": "regional",
      "name": "Restaurante Afonso"
    }
  },
  {
    "type": "node",
    "id": 3883622204,
    "lat": 38.2593232,
    "lon": -7.993993,
    "timestamp": "2019-12-15T16:29:46Z",
    "version": 4,
    "changeset": 78433932,
    "user": "luisforte",
    "uid": 3305165,
    "tags": {
      "addr:city": "Alvito",
      "addr:housenumber": "32",
      "addr:postcode": "7920-032",
      "addr:street": "Rua Almeida Garret",
      "amenity": "restaurant",
      "contact:facebook": "https://www.facebook.com/O-Francês-Alvito-1029098837119482/",
      "name": "O Francês",
      "opening_hours": "Su-Sa 10:00-22:00",
      "outdoor_seating": "yes",
      "phone": "+351 284 485 934"
    }
  },
  {
    "type": "node",
    "id": 3885956005,
    "lat": 38.2565773,
    "lon": -7.9905593,
    "timestamp": "2023-12-12T19:17:51Z",
    "version": 4,
    "changeset": 145050473,
    "user": "luisforte",
    "uid": 3305165,
    "tags": {
      "addr:city": "Alvito",
      "addr:housenumber": "49",
      "addr:postcode": "7920-027",
      "addr:street": "Largo General Humberto Delgado",
      "amenity": "restaurant",
      "cuisine": "regional",
      "name": "Café Restaurante O Feio",
      "opening_hours": "Th-Su 09:00-22:00",
      "phone": "+351 284 485 123"
    }
  },
  {
    "type": "node",
    "id": 3885967381,
    "lat": 38.2558232,
    "lon": -7.9925629,
    "timestamp": "2018-11-06T16:19:07Z",
    "version": 2,
    "changeset": 64235827,
    "user": "luisforte",
    "uid": 3305165,
    "tags": {
      "addr:city": "Alvito",
      "addr:housenumber": "7",
      "addr:street": "Rua dos Lobos",
      "amenity": "restaurant",
      "cuisine": "regional",
      "name": "O Fernando",
      "opening_hours": "Mo-Sa 12:00-22:00",
      "phone": "+351 284 485 551"
    }
  },
  {
    "type": "node",
    "id": 3889759558,
    "lat": 38.5665455,
    "lon": -7.9096065,
    "timestamp": "2021-01-26T16:35:36Z",
    "version": 4,
    "changeset": 98173806,
    "user": "luisforte",
    "uid": 3305165,
    "tags": {
      "addr:city": "Évora",
      "addr:housenumber": "2",
      "addr:postcode": "7005-158",
      "addr:street": "Avenida General Humberto Delgado",
      "amenity": "restaurant",
      "cuisine": "regional",
      "delivery": "no",
      "name": "A Gruta",
      "opening_hours": "Mo-Sa 12:00-22:00",
      "outdoor_seating": "no",
      "phone": "+351 266 708 186",
      "smoking": "no",
      "takeaway": "yes"
    }
  },
  {
    "type": "node",
    "id": 3889762714,
    "lat": 38.5649813,
    "lon": -7.9062772,
    "timestamp": "2023-01-04T19:10:45Z",
    "version": 3,
    "changeset": 130879281,
    "user": "Đuro Jiří",
    "uid": 14617702,
    "tags": {
      "addr:city": "Évora",
      "addr:street": "Avenida dos Combatentes da Grande Guerra",
      "amenity": "restaurant",
      "cuisine": "regional",
      "delivery": "no",
      "indoor_seating": "yes",
      "name": "O Pitéu",
      "opening_hours": "Mo-Sa",
      "outdoor_seating": "no",
      "smoking": "no"
    }
  },
  {
    "type": "node",
    "id": 3907376491,
    "lat": 38.2576912,
    "lon": -7.9920116,
    "timestamp": "2018-11-06T16:19:07Z",
    "version": 3,
    "changeset": 64235827,
    "user": "luisforte",
    "uid": 3305165,
    "tags": {
      "addr:city": "Alvito",
      "addr:postcode": "7920-099",
      "addr:street": "Largo do Castelo",
      "amenity": "restaurant",
      "cuisine": "regional",
      "name": "Pousada de Alvito",
      "opening_hours": "Su-Sa 12:00-22:00",
      "phone": "+351 284 480 700",
      "takeaway": "no"
    }
  },
  {
    "type": "node",
    "id": 3907378693,
    "lat": 38.2572416,
    "lon": -7.9923184,
    "timestamp": "2018-11-06T16:19:07Z",
    "version": 3,
    "changeset": 64235827,
    "user": "luisforte",
    "uid": 3305165,
    "tags": {
      "addr:city": "Alvito",
      "addr:housenumber": "9",
      "addr:street": "Praça da República",
      "amenity": "restaurant",
      "cuisine": "regional",
      "name": "A Varanda",
      "phone": "+351 284 485 135"
    }
  },
  {
    "type": "node",
    "id": 3909803676,
    "lat": 38.1705624,
    "lon": -8.1472756,
    "timestamp": "2015-12-28T22:25:05Z",
    "version": 2,
    "changeset": 36230793,
    "user": "luisforte",
    "uid": 3305165,
    "tags": {
      "amenity": "restaurant",
      "cuisine": "regional",
      "name": "O Gato",
      "smoking": "no"
    }
  },
  {
    "type": "node",
    "id": 3909808962,
    "lat": 38.1824633,
    "lon": -8.1018235,
    "timestamp": "2015-12-25T22:35:32Z",
    "version": 1,
    "changeset": 36167218,
    "user": "luisforte",
    "uid": 3305165,
    "tags": {
      "amenity": "restaurant",
      "name": "Markadia"
    }
  },
  {
    "type": "node",
    "id": 3913700457,
    "lat": 38.1427837,
    "lon": -7.4472355,
    "timestamp": "2024-10-19T22:40:05Z",
    "version": 5,
    "changeset": 158109222,
    "user": "DanielAgos",
    "uid": 20972402,
    "tags": {
      "addr:city": "Moura",
      "addr:housenumber": "2",
      "addr:postcode": "7860-129",
      "addr:street": "Rua Bica dos Quartéis",
      "amenity": "restaurant",
      "name": "Enche o Papo",
      "wheelchair": "limited"
    }
  },
  {
    "type": "node",
    "id": 3933937876,
    "lat": 38.0050258,
    "lon": -7.8535252,
    "timestamp": "2016-01-08T14:48:12Z",
    "version": 1,
    "changeset": 36446270,
    "user": "Luis Coentro",
    "uid": 250187,
    "tags": {
      "amenity": "restaurant"
    }
  },
  {
    "type": "node",
    "id": 3937497757,
    "lat": 38.2562281,
    "lon": -7.9922088,
    "timestamp": "2023-12-11T12:25:11Z",
    "version": 3,
    "changeset": 144997794,
    "user": "luisforte",
    "uid": 3305165,
    "tags": {
      "addr:city": "Alvito",
      "addr:housenumber": "7",
      "addr:street": "Largo do Relógio",
      "amenity": "restaurant",
      "cuisine": "regional",
      "name": "O Américo",
      "opening_hours": "We-Mo 12:00-22:00",
      "phone": "+351 284 485 125"
    }
  },
  {
    "type": "node",
    "id": 3948047384,
    "lat": 38.0172562,
    "lon": -7.8660378,
    "timestamp": "2025-02-19T14:47:18Z",
    "version": 5,
    "changeset": 162704448,
    "user": "luisforte",
    "uid": 3305165,
    "tags": {
      "addr:city": "Beja",
      "addr:housenumber": "11",
      "addr:postcode": "7800-305",
      "addr:street": "Rua Dom Dinis",
      "amenity": "restaurant",
      "check_date": "2025-02-19",
      "cuisine": "barbecue;grill;european;portuguese;mediterranean",
      "diet:gluten_free": "yes",
      "internet_access": "yes",
      "name": "Restaurante Dom Dinis",
      "opening_hours": "Th-Mo 12:15-15:00,19:15-22:00;Tu 12:15-15:00",
      "phone": "+351 965 337 578",
      "reservation": "yes",
      "website": "https://www.facebook.com/restauranteddinis",
      "wheelchair": "yes"
    }
  },
  {
    "type": "node",
    "id": 3948059949,
    "lat": 38.0134672,
    "lon": -7.8635269,
    "timestamp": "2016-01-15T13:56:38Z",
    "version": 1,
    "changeset": 36593498,
    "user": "Luis Coentro",
    "uid": 250187,
    "tags": {
      "amenity": "restaurant",
      "name": "O Imperial"
    }
  },
  {
    "type": "node",
    "id": 3989091177,
    "lat": 38.2955962,
    "lon": -8.2270869,
    "timestamp": "2016-02-05T00:09:24Z",
    "version": 1,
    "changeset": 37010893,
    "user": "luisforte",
    "uid": 3305165,
    "tags": {
      "amenity": "restaurant",
      "cuisine": "regional",
      "name": "Café Restaurante o Besugo"
    }
  },
  {
    "type": "node",
    "id": 3993330103,
    "lat": 38.0126432,
    "lon": -7.8649669,
    "timestamp": "2023-10-12T09:12:59Z",
    "version": 2,
    "changeset": 142469250,
    "user": "FooFooBar",
    "uid": 10362413,
    "tags": {
      "amenity": "restaurant",
      "check_date": "2023-10-12",
      "cuisine": "regional",
      "name": "c'tradição",
      "note": "charcutaria e tapas",
      "opening_hours": "Mo-Sa 10:30-15:00,17:30-24:00; Su off"
    }
  },
  {
    "type": "node",
    "id": 3993945183,
    "lat": 38.0132751,
    "lon": -7.8635143,
    "timestamp": "2016-02-07T17:51:20Z",
    "version": 1,
    "changeset": 37064393,
    "user": "Luis Coentro",
    "uid": 250187,
    "tags": {
      "amenity": "restaurant",
      "name": "Vovó Joaquina"
    }
  },
  {
    "type": "node",
    "id": 4002279891,
    "lat": 38.0092501,
    "lon": -7.8614588,
    "timestamp": "2018-02-23T01:07:13Z",
    "version": 2,
    "changeset": 56596118,
    "user": "Dri91",
    "uid": 7262393,
    "tags": {
      "amenity": "restaurant",
      "name": "Gula"
    }
  },
  {
    "type": "node",
    "id": 4004816490,
    "lat": 38.2930293,
    "lon": -8.2248915,
    "timestamp": "2024-10-28T16:47:04Z",
    "version": 3,
    "changeset": 158464513,
    "user": "luisforte",
    "uid": 3305165,
    "tags": {
      "addr:city": "Torrão",
      "addr:housenumber": "65",
      "addr:postcode": "7595-139",
      "addr:street": "Rua dos Lavradores",
      "amenity": "restaurant",
      "name": "Polo Norte"
    }
  },
  {
    "type": "node",
    "id": 4046592935,
    "lat": 38.5642114,
    "lon": -7.9117657,
    "timestamp": "2021-06-16T11:18:14Z",
    "version": 10,
    "changeset": 106462420,
    "user": "lalolan",
    "uid": 11113526,
    "tags": {
      "addr:city": "Évora",
      "addr:housenumber": "2",
      "addr:postcode": "7005",
      "addr:street": "Rua Pedro de Sousa",
      "amenity": "restaurant",
      "cuisine": "regional",
      "delivery": "no",
      "name": "O Parque dos Leitões",
      "opening_hours": "Tu-Su 12:00-22:00",
      "phone": "+351 266 705 031",
      "smoking": "no",
      "takeaway": "yes"
    }
  },
  {
    "type": "node",
    "id": 4058691235,
    "lat": 38.5875248,
    "lon": -7.9020003,
    "timestamp": "2022-11-18T13:45:10Z",
    "version": 6,
    "changeset": 129087874,
    "user": "luisforte",
    "uid": 3305165,
    "tags": {
      "addr:city": "Évora",
      "addr:housenumber": "2",
      "addr:postcode": "7005-466",
      "addr:street": "Avenida Fernando Pessoa",
      "amenity": "restaurant",
      "name": "Vai ao Zé",
      "opening_hours": "Tu-Su 11:00-16:00,18:00-23:30",
      "phone": "+351 266 043 511 ; +351 960 262 086"
    }
  },
  {
    "type": "node",
    "id": 4085704610,
    "lat": 38.391613,
    "lon": -7.9652929,
    "timestamp": "2018-07-15T21:53:27Z",
    "version": 3,
    "changeset": 60741539,
    "user": "luisforte",
    "uid": 3305165,
    "tags": {
      "amenity": "restaurant",
      "cuisine": "regional",
      "name": "A Romeirinha"
    }
  },
  {
    "type": "node",
    "id": 4143599696,
    "lat": 38.5731137,
    "lon": -7.9105314,
    "timestamp": "2023-08-28T23:20:48Z",
    "version": 7,
    "changeset": 140515868,
    "user": "luisforte",
    "uid": 3305165,
    "tags": {
      "addr:city": "Évora",
      "addr:housenumber": "4",
      "addr:street": "Travessa das Nunes",
      "amenity": "restaurant",
      "cuisine": "regional",
      "delivery": "no",
      "name": "A Tasquinha do Zé",
      "opening_hours": "Tu-Su 10:00-14:00",
      "outdoor_seating": "yes",
      "phone": "+351 966 066 972",
      "smoking": "outside",
      "takeaway": "yes"
    }
  },
  {
    "type": "node",
    "id": 4143600300,
    "lat": 38.5732536,
    "lon": -7.9106686,
    "timestamp": "2024-03-01T17:56:19Z",
    "version": 3,
    "changeset": 148106136,
    "user": "Prague5373828",
    "uid": 9531272,
    "tags": {
      "addr:city": "Évora",
      "addr:housenumber": "11",
      "addr:street": "Rua de Pedro Simões",
      "amenity": "restaurant",
      "check_date": "2024-03-01",
      "cuisine": "regional",
      "name": "1/4 para as Nove"
    }
  },
  {
    "type": "node",
    "id": 4143601535,
    "lat": 38.5733403,
    "lon": -7.9105501,
    "timestamp": "2018-11-05T01:02:15Z",
    "version": 3,
    "changeset": 64182212,
    "user": "luisforte",
    "uid": 3305165,
    "tags": {
      "addr:city": "Évora",
      "addr:housenumber": "15",
      "addr:street": "Rua de Pedro Simões",
      "amenity": "restaurant",
      "cuisine": "regional",
      "name": "A Lareira"
    }
  },
  {
    "type": "node",
    "id": 4149127092,
    "lat": 38.5331862,
    "lon": -8.0200064,
    "timestamp": "2024-06-28T06:54:39Z",
    "version": 4,
    "changeset": 153277409,
    "user": "Reino Baptista",
    "uid": 2820801,
    "tags": {
      "addr:housenumber": "4",
      "addr:street": "Rua General Humberto Delgado",
      "amenity": "restaurant",
      "name": "Laranjinha de Valverde",
      "opening_hours": "Mo-Sa 07:00-00:00"
    }
  },
  {
    "type": "node",
    "id": 4209711204,
    "lat": 38.5705028,
    "lon": -7.9138449,
    "timestamp": "2025-04-08T19:24:21Z",
    "version": 10,
    "changeset": 164695032,
    "user": "enrrari",
    "uid": 7126452,
    "tags": {
      "addr:city": "Évora",
      "addr:postcode": "7000-537",
      "addr:street": "Rua de Serpa Pinto",
      "amenity": "restaurant",
      "name": "Bianka A Carioca"
    }
  },
  {
    "type": "node",
    "id": 4228091889,
    "lat": 38.6487499,
    "lon": -7.5439021,
    "timestamp": "2021-06-08T12:50:57Z",
    "version": 2,
    "changeset": 106036631,
    "user": "lalolan",
    "uid": 11113526,
    "tags": {
      "addr:housenumber": "27",
      "addr:postcode": "7170-054",
      "addr:street": "Praça D.Dinis",
      "amenity": "restaurant",
      "cuisine": "sausage;tapas;portuguese;arab;oriental;fish;regional;mediterranean;thai;local;curry;asian",
      "email": "tichicaredondo@gmail.com",
      "internet_access": "wlan",
      "name": "Ti Chica",
      "opening_hours": "Mo-Su 11:00-02:00",
      "phone": "+351 266 095 146"
    }
  },
  {
    "type": "node",
    "id": 4246254803,
    "lat": 38.572096,
    "lon": -7.9024403,
    "timestamp": "2023-04-18T02:59:07Z",
    "version": 7,
    "changeset": 135038463,
    "user": "HubMiner",
    "uid": 238419,
    "tags": {
      "addr:city": "Évora",
      "addr:housenumber": "2",
      "addr:postcode": "7005-967",
      "addr:street": "Travessa de São Pedro",
      "amenity": "restaurant",
      "cuisine": "regional",
      "delivery": "no",
      "description": "Funciona apenas com reserva",
      "name": "Dona Inês",
      "opening_hours": "Tu-Su 12:00-15:00,19:00-23:00",
      "outdoor_seating": "no",
      "phone": "+351 266 704 741; +351 962 392 558",
      "smoking": "no",
      "takeaway": "yes"
    }
  },
  {
    "type": "node",
    "id": 4247598581,
    "lat": 38.5729842,
    "lon": -7.9105478,
    "timestamp": "2018-11-05T01:02:15Z",
    "version": 4,
    "changeset": 64182212,
    "user": "luisforte",
    "uid": 3305165,
    "tags": {
      "addr:city": "Évora",
      "amenity": "restaurant",
      "name": "Martinho"
    }
  },
  {
    "type": "node",
    "id": 4272170993,
    "lat": 38.5756127,
    "lon": -7.9051425,
    "timestamp": "2024-02-18T10:30:03Z",
    "version": 10,
    "changeset": 147602399,
    "user": "enrrari",
    "uid": 7126452,
    "tags": {
      "addr:city": "Évora",
      "addr:housenumber": "3A",
      "addr:postcode": "7005-467",
      "addr:street": "Avenida Lino de Carvalho",
      "amenity": "restaurant",
      "contact:phone": "+351 266 701 055",
      "cuisine": "burger",
      "delivery": "no",
      "description": "Triangular, é uma marca com identidade própria onde estão reflectidos os valores do Alentejo, Estes valores estão intrinsecamente presentes na designação atribuída aos nomes dos nossos produtos e na decoração requintada do nosso espaço.\nMENU\nhttps://drive",
      "email": "geral.triangular@gmail.com",
      "name": "Triangular",
      "opening_hours": "Mo-Sa 12:00-15:00,18:30-21:30; Su off",
      "outdoor_seating": "yes",
      "parking": "yes",
      "phone": "+351 266 701 055",
      "smoking": "outside",
      "takeaway": "yes",
      "wheelchair": "yes"
    }
  },
  {
    "type": "node",
    "id": 4277136025,
    "lat": 38.5637938,
    "lon": -7.9113191,
    "timestamp": "2016-07-13T22:56:50Z",
    "version": 3,
    "changeset": 40726006,
    "user": "luisforte",
    "uid": 3305165,
    "tags": {
      "amenity": "restaurant",
      "name": "Quinta do Bispo"
    }
  },
  {
    "type": "node",
    "id": 4281237103,
    "lat": 38.5660962,
    "lon": -7.9098594,
    "timestamp": "2023-04-18T02:59:07Z",
    "version": 6,
    "changeset": 135038463,
    "user": "HubMiner",
    "uid": 238419,
    "tags": {
      "amenity": "restaurant",
      "cuisine": "regional",
      "diet:mediterranean": "yes",
      "name": "Adega Típica Vinho e Noz",
      "opening_hours": "12:00-15:00,19:00-22:00",
      "phone": "+351266747310",
      "website": "http://vinhoenoz.blogspot.com/2009/08/o-vinho-e-noz-ca-de-fora.html"
    }
  },
  {
    "type": "node",
    "id": 4306053586,
    "lat": 38.5710753,
    "lon": -7.9089867,
    "timestamp": "2024-05-03T00:21:23Z",
    "version": 2,
    "changeset": 150815377,
    "user": "luisforte",
    "uid": 3305165,
    "tags": {
      "addr:city": "Évora",
      "addr:housenumber": "3",
      "addr:postcode": "7000-842",
      "addr:street": "Alcárcova de Cima",
      "amenity": "restaurant",
      "name": "Mr Pickwick"
    }
  },
  {
    "type": "node",
    "id": 4319442993,
    "lat": 38.5736974,
    "lon": -7.9115422,
    "timestamp": "2021-05-12T20:33:14Z",
    "version": 5,
    "changeset": 104596695,
    "user": "lalolan",
    "uid": 11113526,
    "tags": {
      "addr:city": "Évora",
      "addr:housenumber": "8",
      "addr:street": "Travessa do Mangalaça",
      "alt_name": "Restaurante S. Domingos",
      "amenity": "restaurant",
      "cuisine": "regional",
      "name": "Restaurante São Domingos",
      "opening_hours": "Fr-We 12:30-21:30"
    }
  },
  {
    "type": "node",
    "id": 4353237877,
    "lat": 38.5721321,
    "lon": -7.9076724,
    "timestamp": "2017-11-17T14:42:53Z",
    "version": 3,
    "changeset": 53876985,
    "user": "parukhin",
    "uid": 519501,
    "tags": {
      "addr:city": "Évora",
      "addr:housenumber": "15",
      "addr:street": "Rua de Vasco da Gama",
      "amenity": "restaurant",
      "cuisine": "regional",
      "name": "Enoteca da Cartuxa",
      "opening_hours": "Mo-Sa 10:00-22:00"
    }
  },
  {
    "type": "node",
    "id": 4367754389,
    "lat": 38.4438899,
    "lon": -7.3801804,
    "timestamp": "2022-12-14T02:24:54Z",
    "version": 7,
    "changeset": 130055837,
    "user": "topolusitania",
    "uid": 380552,
    "tags": {
      "amenity": "restaurant",
      "email": "ostemplarios.taverna@gmail.com",
      "internet_access": "wlan",
      "name": "Taverna Os Templários",
      "phone": "+351 266 557 166"
    }
  },
  {
    "type": "node",
    "id": 4382623993,
    "lat": 38.5749135,
    "lon": -7.910114,
    "timestamp": "2019-08-21T17:51:37Z",
    "version": 3,
    "changeset": 73591578,
    "user": "luisforte",
    "uid": 3305165,
    "tags": {
      "addr:city": "Évora",
      "addr:housenumber": "91",
      "addr:street": "Rua de Aviz",
      "alt_name": "Le coeur Bistrô",
      "amenity": "restaurant",
      "name": "Molhóbico",
      "opening_hours": "Mo-Su 12:00-03:00"
    }
  },
  {
    "type": "node",
    "id": 4407108694,
    "lat": 38.5745084,
    "lon": -7.9122325,
    "timestamp": "2023-08-28T23:20:48Z",
    "version": 4,
    "changeset": 140515868,
    "user": "luisforte",
    "uid": 3305165,
    "tags": {
      "addr:city": "Évora",
      "addr:housenumber": "1",
      "addr:street": "Largo Severim de Faria",
      "amenity": "restaurant",
      "delivery": "yes",
      "name": "A Mostadeira",
      "opening_hours": "Tu-Su 09:00-02:00",
      "phone": "+351 266 707 772"
    }
  },
  {
    "type": "node",
    "id": 4413087759,
    "lat": 38.7026915,
    "lon": -7.4022109,
    "timestamp": "2025-02-13T12:15:36Z",
    "version": 7,
    "changeset": 162464491,
    "user": "luisforte",
    "uid": 3305165,
    "tags": {
      "addr:city": "Alandroal",
      "addr:housenumber": "2",
      "addr:postcode": "7250-113",
      "addr:street": "Largo Major Roçadas",
      "amenity": "restaurant",
      "cuisine": "regional",
      "name": "Adega dos Ramalhos",
      "phone": "+351 268 449 490",
      "website": "https://www.visitportugal.com/pt-pt/content/adega-dos-ramalhos-4"
    }
  },
  {
    "type": "node",
    "id": 4413093278,
    "lat": 38.7026391,
    "lon": -7.4024618,
    "timestamp": "2018-01-14T20:57:04Z",
    "version": 2,
    "changeset": 55443175,
    "user": "pittrichimica",
    "uid": 497524,
    "tags": {
      "addr:city": "Alandroal",
      "addr:housenumber": "26",
      "addr:postcode": "7250-125",
      "addr:street": "Rua Olivenca",
      "amenity": "restaurant",
      "cuisine": "regional",
      "name": "Restaurante Zé do Alto",
      "phone": "+351 268 449 574"
    }
  },
  {
    "type": "node",
    "id": 4421669690,
    "lat": 38.5735339,
    "lon": -7.9097729,
    "timestamp": "2021-01-26T16:35:36Z",
    "version": 4,
    "changeset": 98173806,
    "user": "luisforte",
    "uid": 3305165,
    "tags": {
      "addr:city": "Évora",
      "addr:housenumber": "16E",
      "addr:postcode": "7000-585",
      "addr:street": "Rua da Mouraria",
      "amenity": "restaurant",
      "capacity": "8",
      "cuisine": "regional",
      "delivery": "no",
      "name": "Botequim da Mouraria",
      "opening_hours": "Mo-Fr 12:30-22:00",
      "outdoor_seating": "no",
      "phone": "+351 266 746 775",
      "smoking": "no",
      "takeaway": "no"
    }
  },
  {
    "type": "node",
    "id": 4424007889,
    "lat": 38.8443355,
    "lon": -7.5882991,
    "timestamp": "2023-03-07T01:03:28Z",
    "version": 4,
    "changeset": 133384369,
    "user": "topolusitania",
    "uid": 380552,
    "tags": {
      "amenity": "restaurant",
      "name": "Gadanha Mercearia e Restaurante"
    }
  },
  {
    "type": "node",
    "id": 4478980548,
    "lat": 38.344801,
    "lon": -7.3762504,
    "timestamp": "2024-11-04T18:48:04Z",
    "version": 3,
    "changeset": 158753012,
    "user": "luisforte",
    "uid": 3305165,
    "tags": {
      "addr:city": "Luz",
      "addr:housenumber": "5",
      "addr:postcode": "7240-100",
      "addr:street": "Rua Doutor Sá Carneiro",
      "amenity": "restaurant",
      "cuisine": "regional",
      "name": "Café Lousa"
    }
  },
  {
    "type": "node",
    "id": 4539753189,
    "lat": 38.5746733,
    "lon": -7.9078878,
    "timestamp": "2023-08-28T23:20:48Z",
    "version": 3,
    "changeset": 140515868,
    "user": "luisforte",
    "uid": 3305165,
    "tags": {
      "addr:city": "Évora",
      "addr:housenumber": "1",
      "addr:street": "Rua das Alcaçarias",
      "amenity": "restaurant",
      "cuisine": "portuguese",
      "internet_access": "wlan",
      "name": "BL Lounge"
    }
  },
  {
    "type": "node",
    "id": 4556888057,
    "lat": 38.5704106,
    "lon": -7.9137288,
    "timestamp": "2023-09-01T22:31:06Z",
    "version": 7,
    "changeset": 140698745,
    "user": "luisforte",
    "uid": 3305165,
    "tags": {
      "addr:city": "Évora",
      "addr:postcode": "7000-537",
      "addr:street": "Rua de Serpa Pinto",
      "amenity": "restaurant",
      "cuisine": "japanese;sushi",
      "delivery": "no",
      "name": "Samurai",
      "opening_hours": "Su-Sa 12:00-23:00",
      "outdoor_seating": "no",
      "phone": "+351 266 041 423",
      "smoking": "no",
      "takeaway": "yes",
      "website": "samurai.com.pt",
      "wheelchair": "yes"
    }
  },
  {
    "type": "node",
    "id": 4557012965,
    "lat": 38.5730166,
    "lon": -7.9103869,
    "timestamp": "2024-08-29T08:56:06Z",
    "version": 5,
    "changeset": 155914562,
    "user": "nafergo",
    "uid": 3899376,
    "tags": {
      "addr:city": "Évora",
      "addr:housenumber": "31",
      "addr:street": "Largo Luís de Camões",
      "amenity": "restaurant",
      "indoor_seating": "yes",
      "name": "O Gandim",
      "opening_hours": "We-Su 12:30-15:30,19:30-22:30",
      "outdoor_seating": "no",
      "phone": "+351 966 320 183"
    }
  },
  {
    "type": "node",
    "id": 4557933272,
    "lat": 38.5701298,
    "lon": -7.9091264,
    "timestamp": "2016-12-17T00:43:30Z",
    "version": 1,
    "changeset": 44461239,
    "user": "luisforte",
    "uid": 3305165,
    "tags": {
      "amenity": "restaurant",
      "name": "Bifanas de Vendas Novas"
    }
  },
  {
    "type": "node",
    "id": 4562200886,
    "lat": 38.5699322,
    "lon": -7.9069265,
    "timestamp": "2021-06-08T13:54:14Z",
    "version": 4,
    "changeset": 106039846,
    "user": "lalolan",
    "uid": 11113526,
    "tags": {
      "addr:city": "Évora",
      "addr:housenumber": "46",
      "addr:street": "Rua Miguel Bombarda",
      "amenity": "restaurant",
      "cuisine": "sopas",
      "email": "sopasdaterra@gmail.com",
      "name": "Sabores da Terra",
      "opening_hours": "Mo-Su 09:00-19:00",
      "outdoor_seating": "yes"
    }
  },
  {
    "type": "node",
    "id": 4567216927,
    "lat": 38.5729923,
    "lon": -7.9072294,
    "timestamp": "2024-04-04T22:08:55Z",
    "version": 8,
    "changeset": 149589447,
    "user": "Mind Booster Noori",
    "uid": 1391380,
    "tags": {
      "addr:street": "Rua Augusto Felipe Simões",
      "amenity": "restaurant",
      "changing_table": "yes",
      "changing_table:location": "female_toilet",
      "cuisine": "regional",
      "name": "Cavalariça",
      "opening_hours": "We 19:00-22:30; Th-Sa 13:00-14:30,19:00-22:30; Su 13:00-17:30",
      "smoking": "outside"
    }
  },
  {
    "type": "node",
    "id": 4579954256,
    "lat": 38.5714733,
    "lon": -7.9087218,
    "timestamp": "2023-12-24T12:08:04Z",
    "version": 5,
    "changeset": 145466655,
    "user": "luisforte",
    "uid": 3305165,
    "tags": {
      "addr:city": "Évora",
      "addr:housenumber": "10",
      "addr:postcode": "7000-863",
      "addr:street": "Rua de Burgos",
      "amenity": "restaurant",
      "cuisine": "regional",
      "delivery": "no",
      "name": "Origens",
      "opening_hours": "Mo-Sa 12:30-22:00",
      "outdoor_seating": "no",
      "phone": "+351 964 220 790",
      "smoking": "no"
    }
  },
  {
    "type": "node",
    "id": 4585966233,
    "lat": 38.8052756,
    "lon": -7.4552445,
    "timestamp": "2021-01-26T16:35:36Z",
    "version": 4,
    "changeset": 98173806,
    "user": "luisforte",
    "uid": 3305165,
    "tags": {
      "addr:city": "Borba",
      "addr:street": "Avenida 25 de Abril",
      "amenity": "restaurant",
      "cuisine": "regional",
      "name": "Cafetaria Arado \"O Chico\"",
      "outdoor_seating": "yes",
      "phone": "+351 268 890 203"
    }
  },
  {
    "type": "node",
    "id": 4585966234,
    "lat": 38.8036535,
    "lon": -7.4568287,
    "timestamp": "2021-01-26T16:35:36Z",
    "version": 3,
    "changeset": 98173806,
    "user": "luisforte",
    "uid": 3305165,
    "tags": {
      "addr:city": "Borba",
      "addr:street": "Rua de Mateus Pais",
      "amenity": "restaurant",
      "cuisine": "regional",
      "name": "Lisbeto",
      "outdoor_seating": "no",
      "phone": "+351 268 894 332"
    }
  },
  {
    "type": "node",
    "id": 4585966235,
    "lat": 38.8059412,
    "lon": -7.4558689,
    "timestamp": "2022-03-14T16:50:47Z",
    "version": 4,
    "changeset": 118477589,
    "user": "geonac",
    "uid": 8616766,
    "tags": {
      "addr:city": "Borba",
      "addr:street": "Avenida do Povo",
      "amenity": "restaurant",
      "cuisine": "regional",
      "name": "Vila Branca",
      "phone": "+351 268 841 291"
    }
  },
  {
    "type": "node",
    "id": 4585966236,
    "lat": 38.8064912,
    "lon": -7.4564613,
    "timestamp": "2022-03-21T16:58:48Z",
    "version": 4,
    "changeset": 118744360,
    "user": "geonac",
    "uid": 8616766,
    "tags": {
      "addr:city": "Borba",
      "addr:street": "Rua Silveira Menezes",
      "amenity": "restaurant",
      "cuisine": "regional",
      "name": "O Espiga",
      "outdoor_seating": "no",
      "phone": "+351 268 894 244"
    }
  },
  {
    "type": "node",
    "id": 4621190094,
    "lat": 38.569521,
    "lon": -7.909293,
    "timestamp": "2024-10-23T17:23:43Z",
    "version": 7,
    "changeset": 158264083,
    "user": "enrrari",
    "uid": 7126452,
    "tags": {
      "addr:city": "Évora",
      "addr:housenumber": "20",
      "addr:postcode": "7000-650",
      "addr:street": "Praça 1º de Maio",
      "amenity": "restaurant",
      "cuisine": "regional",
      "delivery": "no",
      "name": "A Tábua do Naldo",
      "opening_hours": "Th-Mo 12:30-24:00",
      "outdoor_seating": "yes",
      "phone": "+351 965 063 200",
      "reservation": "required",
      "wheelchair": "yes"
    }
  },
  {
    "type": "node",
    "id": 4698240488,
    "lat": 38.5729356,
    "lon": -7.9114129,
    "timestamp": "2024-08-29T08:39:43Z",
    "version": 4,
    "changeset": 155914562,
    "user": "nafergo",
    "uid": 3899376,
    "tags": {
      "addr:city": "Évora",
      "addr:housenumber": "9",
      "addr:street": "Travessa da Cancella",
      "amenity": "restaurant",
      "cuisine": "kebab",
      "indoor_seating": "yes",
      "name": "Doner Kebab Ali Baba",
      "opening_hours": "Su-Sa 10:30-23:00",
      "outdoor_seating": "no",
      "phone": "+351 266 781 070"
    }
  },
  {
    "type": "node",
    "id": 4698254120,
    "lat": 38.5729685,
    "lon": -7.9113341,
    "timestamp": "2024-08-29T08:40:16Z",
    "version": 4,
    "changeset": 155914562,
    "user": "nafergo",
    "uid": 3899376,
    "tags": {
      "addr:city": "Évora",
      "addr:street": "Travessa da Cancella",
      "alt_name": "D. Miguel",
      "amenity": "restaurant",
      "cuisine": "regional",
      "indoor_seating": "yes",
      "name": "Dom Miguel",
      "outdoor_seating": "no"
    }
  },
  {
    "type": "node",
    "id": 4702530196,
    "lat": 38.5716666,
    "lon": -7.9102416,
    "timestamp": "2024-08-29T08:15:20Z",
    "version": 6,
    "changeset": 155914562,
    "user": "nafergo",
    "uid": 3899376,
    "tags": {
      "addr:city": "Évora",
      "addr:housenumber": "5",
      "addr:postcode": "7000-534",
      "addr:street": "Rua João de Deus",
      "amenity": "restaurant",
      "cuisine": "regional",
      "delivery": "no",
      "description": "Só funciona com marcação",
      "indoor_seating": "yes",
      "name": "O Antão",
      "opening_hours": "Tu-Su 12:00-23:00",
      "outdoor_seating": "no",
      "phone": "+351 266 706 459",
      "smoking": "no",
      "takeaway": "no"
    }
  },
  {
    "type": "node",
    "id": 4738112293,
    "lat": 38.7015027,
    "lon": -7.403605,
    "timestamp": "2024-07-19T07:22:19Z",
    "version": 4,
    "changeset": 154130369,
    "user": "CaldeiraG",
    "uid": 19716990,
    "tags": {
      "addr:housenumber": "12",
      "addr:street": "Rua João de Deus",
      "amenity": "restaurant",
      "cuisine": "regional",
      "name": "A Maria",
      "phone": "+351 268 431 143",
      "website": "https://www.visitportugal.com/pt-pt/content/maria"
    }
  },
  {
    "type": "node",
    "id": 4738112347,
    "lat": 38.7011203,
    "lon": -7.4045998,
    "timestamp": "2021-06-16T17:14:48Z",
    "version": 2,
    "changeset": 106482077,
    "user": "lalolan",
    "uid": 11113526,
    "tags": {
      "amenity": "restaurant",
      "name": "Chaminé"
    }
  },
  {
    "type": "node",
    "id": 4738679852,
    "lat": 38.4436726,
    "lon": -7.3803459,
    "timestamp": "2022-10-17T13:16:24Z",
    "version": 2,
    "changeset": 127673004,
    "user": "topolusitania",
    "uid": 380552,
    "tags": {
      "amenity": "restaurant",
      "cuisine": "regional",
      "name": "Lumumba",
      "phone": "+351266557121"
    }
  },
  {
    "type": "node",
    "id": 4738680802,
    "lat": 38.4434393,
    "lon": -7.3808052,
    "timestamp": "2017-05-19T10:46:36Z",
    "version": 2,
    "changeset": 48817607,
    "user": "5R-MFT",
    "uid": 3417876,
    "tags": {
      "amenity": "restaurant",
      "name": "Casa do Forno"
    }
  },
  {
    "type": "node",
    "id": 4738682683,
    "lat": 38.4435164,
    "lon": -7.3806802,
    "timestamp": "2023-08-28T11:05:26Z",
    "version": 2,
    "changeset": 140489067,
    "user": "_etset_",
    "uid": 17235467,
    "tags": {
      "amenity": "restaurant",
      "indoor_seating": "yes",
      "name": "Casa Modesta",
      "outdoor_seating": "yes"
    }
  },
  {
    "type": "node",
    "id": 4738694073,
    "lat": 38.6240871,
    "lon": -7.3444898,
    "timestamp": "2022-06-02T22:11:40Z",
    "version": 2,
    "changeset": 121870154,
    "user": "luisforte",
    "uid": 3305165,
    "tags": {
      "amenity": "restaurant",
      "cuisine": "regional",
      "name": "Paraiso"
    }
  },
  {
    "type": "node",
    "id": 4740555058,
    "lat": 38.4455497,
    "lon": -7.3789195,
    "timestamp": "2022-12-14T12:27:18Z",
    "version": 4,
    "changeset": 130074052,
    "user": "topolusitania",
    "uid": 380552,
    "tags": {
      "amenity": "restaurant",
      "name": "Sabores de Monsaraz",
      "opening_hours": "We-Su 12:30-15:30, Tu-Su 19:30-22:30",
      "phone": "+351969217800",
      "website": "www.saboresdemonsaraz.com"
    }
  },
  {
    "type": "node",
    "id": 4741280721,
    "lat": 38.4341468,
    "lon": -7.3507626,
    "timestamp": "2021-06-08T12:50:34Z",
    "version": 2,
    "changeset": 106036631,
    "user": "lalolan",
    "uid": 11113526,
    "tags": {
      "amenity": "restaurant",
      "name": "Centro Náutico"
    }
  },
  {
    "type": "node",
    "id": 4765043223,
    "lat": 38.5713863,
    "lon": -7.9080687,
    "timestamp": "2024-11-26T13:28:29Z",
    "version": 5,
    "changeset": 159616375,
    "user": "enrrari",
    "uid": 7126452,
    "tags": {
      "addr:city": "Évora",
      "addr:housenumber": "61B",
      "addr:postcode": "7000-854",
      "addr:street": "Rua 5 de Outubro",
      "amenity": "restaurant",
      "cuisine": "regional",
      "delivery": "no",
      "description": "Só funciona com reservas",
      "name": "Momentos",
      "opening_hours": "Mo,We-Fr 18:00-22:30; Sa,Su 12:30-15:30,18:00-22:30; Tu off",
      "outdoor_seating": "no",
      "phone": "+351 925 161 423",
      "smoking": "no",
      "takeaway": "no"
    }
  },
  {
    "type": "node",
    "id": 4771774581,
    "lat": 38.5906974,
    "lon": -7.9093322,
    "timestamp": "2017-04-02T20:58:29Z",
    "version": 1,
    "changeset": 47393300,
    "user": "luisforte",
    "uid": 3305165,
    "tags": {
      "addr:city": "Évora",
      "addr:housenumber": "1",
      "addr:postcode": "7005-152",
      "addr:street": "Avenida Fernando Pessoa",
      "amenity": "restaurant",
      "cuisine": "regional",
      "name": "Chocolate Polivalente do Bacêlo",
      "opening_hours": "9:00-23:45"
    }
  },
  {
    "type": "node",
    "id": 4773318494,
    "lat": 38.570877,
    "lon": -7.9077587,
    "timestamp": "2023-08-12T12:13:58Z",
    "version": 4,
    "changeset": 139785432,
    "user": "luisforte",
    "uid": 3305165,
    "tags": {
      "addr:city": "Évora",
      "addr:housenumber": "22",
      "addr:postcode": "7000-872",
      "addr:street": "Rua de Diogo Cão",
      "amenity": "restaurant",
      "cuisine": "pizza",
      "name": "Pane & Vino",
      "opening_hours": "Tu-Mo",
      "phone": "+351 266 746 960"
    }
  },
  {
    "type": "node",
    "id": 4789852564,
    "lat": 38.2577328,
    "lon": -7.9941009,
    "timestamp": "2017-04-12T11:34:36Z",
    "version": 1,
    "changeset": 47691022,
    "user": "luisforte",
    "uid": 3305165,
    "tags": {
      "amenity": "restaurant",
      "cuisine": "pizza",
      "name": "Esplanada"
    }
  },
  {
    "type": "node",
    "id": 4795787124,
    "lat": 38.781507,
    "lon": -7.4196156,
    "timestamp": "2019-10-14T23:22:42Z",
    "version": 3,
    "changeset": 75691265,
    "user": "luisforte",
    "uid": 3305165,
    "tags": {
      "amenity": "restaurant",
      "name": "O Alqueva"
    }
  },
  {
    "type": "node",
    "id": 4795791922,
    "lat": 38.7810118,
    "lon": -7.4203068,
    "timestamp": "2017-04-15T21:14:26Z",
    "version": 1,
    "changeset": 47825048,
    "user": "AzoresPrime",
    "uid": 497173,
    "tags": {
      "amenity": "restaurant"
    }
  },
  {
    "type": "node",
    "id": 4843829671,
    "lat": 38.5692967,
    "lon": -7.9073478,
    "timestamp": "2023-11-24T08:53:15Z",
    "version": 3,
    "changeset": 144398649,
    "user": "Reino Baptista",
    "uid": 2820801,
    "tags": {
      "addr:city": "Évora",
      "addr:postcode": "7000-645",
      "addr:street": "Largo da Graça",
      "amenity": "restaurant",
      "military": "officers_mess",
      "name": "Messe Militar do Convento da Graça",
      "restaurant": "private"
    }
  },
  {
    "type": "node",
    "id": 4973636723,
    "lat": 38.6492788,
    "lon": -8.2158215,
    "timestamp": "2019-10-14T23:22:42Z",
    "version": 3,
    "changeset": 75691265,
    "user": "luisforte",
    "uid": 3305165,
    "tags": {
      "amenity": "restaurant",
      "name": "Casa das Empadas"
    }
  },
  {
    "type": "node",
    "id": 5073082422,
    "lat": 38.5681271,
    "lon": -7.912554,
    "timestamp": "2024-10-22T12:05:35Z",
    "version": 2,
    "changeset": 158208627,
    "user": "enrrari",
    "uid": 7126452,
    "tags": {
      "amenity": "restaurant",
      "cuisine": "chinese;asian",
      "name": "Palácio Dourado",
      "opening_hours": "Mo-Su 11:00-15:00,18:00-23:00"
    }
  },
  {
    "type": "node",
    "id": 5073175422,
    "lat": 38.5632886,
    "lon": -7.9121611,
    "timestamp": "2017-09-01T11:25:21Z",
    "version": 1,
    "changeset": 51640287,
    "user": "Xadees",
    "uid": 2049388,
    "tags": {
      "amenity": "restaurant"
    }
  },
  {
    "type": "node",
    "id": 5076201521,
    "lat": 38.7220812,
    "lon": -7.9844037,
    "timestamp": "2021-01-26T12:15:12Z",
    "version": 4,
    "changeset": 98164622,
    "user": "luisforte",
    "uid": 3305165,
    "tags": {
      "addr:housenumber": "2",
      "addr:postcode": "7040",
      "addr:street": "Rua da Fábrica",
      "amenity": "restaurant",
      "cuisine": "regional",
      "internet_access": "wlan",
      "name": "Restaurante A Moagem",
      "phone": "+351 266 499 646"
    }
  },
  {
    "type": "node",
    "id": 5143240731,
    "lat": 38.2896102,
    "lon": -8.0376736,
    "timestamp": "2021-06-08T10:03:35Z",
    "version": 6,
    "changeset": 106025761,
    "user": "lalolan",
    "uid": 11113526,
    "tags": {
      "addr:city": "Vila Nova da Baronia",
      "addr:street": "Rua Joaquim Henrique da Silva",
      "amenity": "restaurant",
      "contact:facebook": "https://www.facebook.com/flordesalcaferestaurante/",
      "name": "Flor de Sal",
      "phone": "+351 284 475 234",
      "takeaway": "yes"
    }
  },
  {
    "type": "node",
    "id": 5166540163,
    "lat": 38.5744284,
    "lon": -7.912961,
    "timestamp": "2024-04-05T13:00:08Z",
    "version": 5,
    "changeset": 149614115,
    "user": "Ieronimus",
    "uid": 4685540,
    "tags": {
      "addr:city": "Évora",
      "addr:housenumber": "45A",
      "addr:postcode": "7000-582",
      "addr:street": "Rua Cândido dos Reis",
      "amenity": "restaurant",
      "capacity": "12",
      "check_date": "2024-04-05",
      "cuisine": "regional",
      "delivery": "no",
      "description": "Só funciona com marcação",
      "name": "Tasquinha do Oliveira",
      "opening_hours": "Mo-Sa 12:30-15:00; Su off",
      "outdoor_seating": "no",
      "payment:cash": "yes",
      "payment:mastercard": "yes",
      "payment:visa": "yes",
      "phone": "+351 266 744 841",
      "smoking": "no",
      "takeaway": "no"
    }
  },
  {
    "type": "node",
    "id": 5187024496,
    "lat": 38.1423797,
    "lon": -7.4502257,
    "timestamp": "2021-11-26T15:17:38Z",
    "version": 2,
    "changeset": 114241653,
    "user": "wheelmap_visitor",
    "uid": 290680,
    "tags": {
      "amenity": "restaurant",
      "cuisine": "regional",
      "name": "O Túnel",
      "wheelchair": "limited"
    }
  },
  {
    "type": "node",
    "id": 5189688149,
    "lat": 38.4529454,
    "lon": -7.3751979,
    "timestamp": "2017-10-26T01:42:34Z",
    "version": 1,
    "changeset": 53250623,
    "user": "topolusitania",
    "uid": 380552,
    "tags": {
      "amenity": "restaurant",
      "cuisine": "regional",
      "name": "O Alcaide"
    }
  },
  {
    "type": "node",
    "id": 5214050511,
    "lat": 38.0150281,
    "lon": -7.864576,
    "timestamp": "2019-05-19T10:45:03Z",
    "version": 2,
    "changeset": 70406763,
    "user": "Luis Coentro",
    "uid": 250187,
    "tags": {
      "amenity": "restaurant",
      "cuisine": "regional",
      "name": "Henribar"
    }
  },
  {
    "type": "node",
    "id": 5215242226,
    "lat": 38.5705069,
    "lon": -7.9140249,
    "timestamp": "2023-09-01T22:31:06Z",
    "version": 3,
    "changeset": 140698745,
    "user": "luisforte",
    "uid": 3305165,
    "tags": {
      "addr:city": "Évora",
      "addr:housenumber": "17",
      "addr:postcode": "7000-502",
      "addr:street": "Largo das Alterações de Évora",
      "amenity": "restaurant",
      "name": "Pernilonga II"
    }
  },
  {
    "type": "node",
    "id": 5225458324,
    "lat": 38.8301209,
    "lon": -7.8363081,
    "timestamp": "2020-02-05T19:44:39Z",
    "version": 4,
    "changeset": 80605997,
    "user": "Filohipo",
    "uid": 74212,
    "tags": {
      "addr:city": "Vimieiro",
      "addr:housenumber": "1",
      "addr:postcode": "7040-621",
      "addr:street": "Largo do Areal",
      "amenity": "restaurant",
      "name": "Antiga Moagem"
    }
  },
  {
    "type": "node",
    "id": 5225653012,
    "lat": 38.594005,
    "lon": -7.8514047,
    "timestamp": "2021-04-21T14:14:16Z",
    "version": 2,
    "changeset": 103346466,
    "user": "luisforte",
    "uid": 3305165,
    "tags": {
      "amenity": "restaurant",
      "name": "A Ponte do Degebe",
      "phone": "+351 266 700 320"
    }
  },
  {
    "type": "node",
    "id": 5227215890,
    "lat": 38.6546558,
    "lon": -7.9848397,
    "timestamp": "2019-09-06T07:11:10Z",
    "version": 2,
    "changeset": 74159810,
    "user": "ojoaoo",
    "uid": 10277952,
    "tags": {
      "amenity": "restaurant",
      "cuisine": "regional",
      "name": "Bexiga"
    }
  },
  {
    "type": "node",
    "id": 5249607594,
    "lat": 38.5689745,
    "lon": -7.9177858,
    "timestamp": "2017-11-26T23:38:33Z",
    "version": 1,
    "changeset": 54108094,
    "user": "luisforte",
    "uid": 3305165,
    "tags": {
      "addr:city": "Évora´",
      "addr:street": "Avenida de São Sebastião",
      "amenity": "restaurant",
      "name": "Avenida"
    }
  },
  {
    "type": "node",
    "id": 5282854998,
    "lat": 38.95525,
    "lon": -8.0788929,
    "timestamp": "2017-12-13T22:20:52Z",
    "version": 1,
    "changeset": 54609464,
    "user": "PATRÍCIA ANICETO",
    "uid": 4977179,
    "tags": {
      "addr:city": "Cabeção",
      "addr:housenumber": "17",
      "addr:street": "Rua da Liberdade",
      "amenity": "restaurant",
      "cuisine": "regional",
      "name": "Solar da Vila"
    }
  },
  {
    "type": "node",
    "id": 5282854999,
    "lat": 38.9540312,
    "lon": -8.0773013,
    "timestamp": "2017-12-13T22:20:52Z",
    "version": 1,
    "changeset": 54609464,
    "user": "PATRÍCIA ANICETO",
    "uid": 4977179,
    "tags": {
      "addr:city": "Cabeção",
      "addr:housenumber": "46",
      "addr:street": "Rua 25 de Abril",
      "amenity": "restaurant",
      "cuisine": "regional",
      "name": "Restaurante O Palmeira"
    }
  },
  {
    "type": "node",
    "id": 5282855001,
    "lat": 38.9542319,
    "lon": -8.0730183,
    "timestamp": "2017-12-13T22:20:52Z",
    "version": 1,
    "changeset": 54609464,
    "user": "PATRÍCIA ANICETO",
    "uid": 4977179,
    "tags": {
      "addr:city": "Cabeção",
      "addr:housenumber": "10",
      "addr:street": "Rua 31 de Janeiro",
      "amenity": "restaurant",
      "cuisine": "regional",
      "name": "Os Arcos"
    }
  },
  {
    "type": "node",
    "id": 5303619472,
    "lat": 38.1678045,
    "lon": -7.8896282,
    "timestamp": "2021-06-08T12:50:08Z",
    "version": 3,
    "changeset": 106036631,
    "user": "lalolan",
    "uid": 11113526,
    "tags": {
      "amenity": "restaurant",
      "name": "Churrascaria A Brasa",
      "outdoor_seating": "yes",
      "takeaway": "yes"
    }
  },
  {
    "type": "node",
    "id": 5305119328,
    "lat": 38.5742597,
    "lon": -7.9130332,
    "timestamp": "2024-11-05T12:57:09Z",
    "version": 3,
    "changeset": 158778064,
    "user": "enrrari",
    "uid": 7126452,
    "tags": {
      "addr:city": "Évora",
      "addr:housenumber": "2b",
      "addr:street": "Rua do Escrivão da Câmara",
      "amenity": "restaurant",
      "internet_access": "wlan",
      "name": "O Templo",
      "opening_hours": "Mo,Fr 12:30-15:00, Mo-We,Fr 18:30-22:00, Tu-Th,Sa 12:00-15:00, Sa 19:00-22:00; Su off"
    }
  },
  {
    "type": "node",
    "id": 5305127571,
    "lat": 38.1647241,
    "lon": -7.8952428,
    "timestamp": "2021-05-15T20:33:47Z",
    "version": 3,
    "changeset": 104748349,
    "user": "luisforte",
    "uid": 3305165,
    "tags": {
      "addr:city": "Cuba",
      "addr:housenumber": "22",
      "addr:postcode": "7940-121",
      "addr:street": "Rua 1º de Maio",
      "amenity": "restaurant",
      "name": "Casa de Pasto Lula"
    }
  },
  {
    "type": "node",
    "id": 5305541510,
    "lat": 38.1653953,
    "lon": -7.8942441,
    "timestamp": "2018-06-30T01:22:48Z",
    "version": 2,
    "changeset": 60290257,
    "user": "topolusitania",
    "uid": 380552,
    "tags": {
      "amenity": "restaurant",
      "cuisine": "regional",
      "name": "Chave D'ouro",
      "takeaway": "yes"
    }
  },
  {
    "type": "node",
    "id": 5305541524,
    "lat": 38.167088,
    "lon": -7.8928135,
    "timestamp": "2021-05-05T18:16:03Z",
    "version": 2,
    "changeset": 104201742,
    "user": "luisforte",
    "uid": 3305165,
    "tags": {
      "amenity": "restaurant",
      "cuisine": "regional",
      "name": "Adega da Lua"
    }
  },
  {
    "type": "node",
    "id": 5305541525,
    "lat": 38.1672107,
    "lon": -7.8929709,
    "timestamp": "2017-12-26T23:55:39Z",
    "version": 1,
    "changeset": 54943093,
    "user": "João Bicho",
    "uid": 4977151,
    "tags": {
      "amenity": "restaurant",
      "cuisine": "regional",
      "name": "Taberna do Arrufa"
    }
  },
  {
    "type": "node",
    "id": 5305541544,
    "lat": 38.165026,
    "lon": -7.8882854,
    "timestamp": "2017-12-26T23:55:40Z",
    "version": 1,
    "changeset": 54943093,
    "user": "João Bicho",
    "uid": 4977151,
    "tags": {
      "amenity": "restaurant",
      "name": "Estrela"
    }
  },