[
  {
    "type": "node",
    "id": 245422340,
    "lat": 38.3526493,
    "lon": -0.4833981,
    "timestamp": "2024-03-29T19:58:07Z",
    "version": 4,
    "changeset": 149328422,
    "user": "robertogeb",
    "uid": 491515,
    "tags": {
      "amenity": "restaurant",
      "name": "Valencia 11"
    }
  },
  {
    "type": "node",
    "id": 245781056,
    "lat": 38.3598232,
    "lon": -0.468365,
    "timestamp": "2008-09-23T12:38:26Z",
    "version": 2,
    "changeset": 684247,
    "user": "j3m",
    "uid": 9250,
    "tags": {
      "amenity": "restaurant",
      "created_by": "JOSM",
      "name": "casa Salvi",
      "source": "field_work"
    }
  },
  {
    "type": "node",
    "id": 254668362,
    "lat": 38.8318852,
    "lon": -0.4969566,
    "timestamp": "2008-03-29T17:41:30Z",
    "version": 1,
    "changeset": 420792,
    "user": "Ases",
    "uid": 20267,
    "tags": {
      "amenity": "restaurant",
      "created_by": "JOSM",
      "name": "Bar El Parc"
    }
  },
  {
    "type": "node",
    "id": 256979098,
    "lat": 38.3660534,
    "lon": -0.4308318,
    "timestamp": "2024-07-31T17:49:16Z",
    "version": 11,
    "changeset": 154661916,
    "user": "jemily1",
    "uid": 11155676,
    "tags": {
      "amenity": "restaurant",
      "name": "Torre Mauro",
      "wheelchair": "yes"
    }
  },
  {
    "type": "node",
    "id": 257880173,
    "lat": 38.3699207,
    "lon": -0.4700606,
    "timestamp": "2024-05-16T14:08:41Z",
    "version": 4,
    "changeset": 151410557,
    "user": "jemily1",
    "uid": 11155676,
    "tags": {
      "amenity": "restaurant",
      "name": "Salones Juan XXIII"
    }
  },
  {
    "type": "node",
    "id": 270744472,
    "lat": 38.3468766,
    "lon": -0.494505,
    "timestamp": "2024-04-23T19:43:35Z",
    "version": 3,
    "changeset": 150413120,
    "user": "robertogeb",
    "uid": 491515,
    "tags": {
      "amenity": "restaurant",
      "name": "restaurante astorga"
    }
  },
  {
    "type": "node",
    "id": 277692723,
    "lat": 38.3517361,
    "lon": -0.666322,
    "timestamp": "2024-10-20T18:45:35Z",
    "version": 3,
    "changeset": 158141506,
    "user": "arte2002",
    "uid": 662113,
    "tags": {
      "amenity": "restaurant"
    }
  },
  {
    "type": "node",
    "id": 278173189,
    "lat": 38.2720239,
    "lon": -0.9415466,
    "timestamp": "2019-07-17T16:11:14Z",
    "version": 3,
    "changeset": 72356036,
    "user": "Juan_Carlos_G_F-imports",
    "uid": 2802925,
    "tags": {
      "amenity": "restaurant",
      "name": "El Flare"
    }
  },
  {
    "type": "node",
    "id": 279180789,
    "lat": 38.3050666,
    "lon": -0.9353881,
    "timestamp": "2008-07-17T20:39:47Z",
    "version": 1,
    "changeset": 517508,
    "user": "j3m",
    "uid": 9250,
    "tags": {
      "amenity": "restaurant",
      "created_by": "Potlatch 0.9c"
    }
  },
  {
    "type": "node",
    "id": 280577593,
    "lat": 38.3686514,
    "lon": -0.4334877,
    "timestamp": "2024-07-07T14:20:21Z",
    "version": 7,
    "changeset": 153664238,
    "user": "jemily1",
    "uid": 11155676,
    "tags": {
      "addr:city": "Alicante",
      "addr:housenumber": "31",
      "addr:postcode": "03540",
      "addr:street": "Avenida de Ansaldo",
      "amenity": "restaurant",
      "cuisine": "regional",
      "name": "Restaurante Baeza & Rufete"
    }
  },
  {
    "type": "node",
    "id": 280577600,
    "lat": 38.3629134,
    "lon": -0.4304898,
    "timestamp": "2023-02-06T20:23:23Z",
    "version": 5,
    "changeset": 132174671,
    "user": "Jordi MF",
    "uid": 8278438,
    "tags": {
      "amenity": "restaurant",
      "cuisine": "italian",
      "name": "La Tagliatella"
    }
  },
  {
    "type": "node",
    "id": 280577605,
    "lat": 38.3687039,
    "lon": -0.4348772,
    "timestamp": "2008-09-23T16:06:31Z",
    "version": 2,
    "changeset": 685315,
    "user": "j3m",
    "uid": 9250,
    "tags": {
      "amenity": "restaurant",
      "created_by": "JOSM",
      "name": "cervecería Max",
      "source": "field_work"
    }
  },
  {
    "type": "node",
    "id": 280585313,
    "lat": 38.3654754,
    "lon": -0.4322083,
    "timestamp": "2024-07-31T17:49:16Z",
    "version": 5,
    "changeset": 154661916,
    "user": "jemily1",
    "uid": 11155676,
    "tags": {
      "amenity": "restaurant",
      "name": "L'arruz"
    }
  },
  {
    "type": "node",
    "id": 281153588,
    "lat": 38.3676002,
    "lon": -0.4272925,
    "timestamp": "2024-08-11T07:46:42Z",
    "version": 4,
    "changeset": 155088823,
    "user": "jemily1",
    "uid": 11155676,
    "tags": {
      "amenity": "restaurant",
      "name": "Bayari"
    }
  },
  {
    "type": "node",
    "id": 281153589,
    "lat": 38.3676363,
    "lon": -0.4272065,
    "timestamp": "2024-08-11T07:46:42Z",
    "version": 5,
    "changeset": 155088823,
    "user": "jemily1",
    "uid": 11155676,
    "tags": {
      "amenity": "restaurant",
      "name": "La Lonja de Andrino"
    }
  },
  {
    "type": "node",
    "id": 286622156,
    "lat": 38.3626861,
    "lon": -0.4314512,
    "timestamp": "2012-07-15T13:44:31Z",
    "version": 4,
    "changeset": 12229103,
    "user": "OSMF Redaction Account",
    "uid": 722137,
    "tags": {
      "amenity": "restaurant",
      "name": "Restaurante Nan-King"
    }
  },
  {
    "type": "node",
    "id": 300087130,
    "lat": 38.3672345,
    "lon": -0.4251845,
    "timestamp": "2024-07-31T17:34:34Z",
    "version": 4,
    "changeset": 154661354,
    "user": "jemily1",
    "uid": 11155676,
    "tags": {
      "amenity": "restaurant",
      "name": "Bayari"
    }
  },
  {
    "type": "node",
    "id": 300088165,
    "lat": 38.3667719,
    "lon": -0.4292934,
    "timestamp": "2010-09-30T11:08:03Z",
    "version": 6,
    "changeset": 5918943,
    "user": "j3m",
    "uid": 9250,
    "tags": {
      "amenity": "restaurant",
      "name": "Touch",
      "source": "field_work"
    }
  },
  {
    "type": "node",
    "id": 300088166,
    "lat": 38.3663084,
    "lon": -0.4304591,
    "timestamp": "2017-10-16T01:15:45Z",
    "version": 5,
    "changeset": 52969653,
    "user": "ciclista_ilusionado",
    "uid": 6800980,
    "tags": {
      "amenity": "restaurant",
      "cuisine": "thai",
      "name": "Restaurante Tailandés Sabatika",
      "source": "field_work",
      "wheelchair": "yes"
    }
  },
  {
    "type": "node",
    "id": 300799736,
    "lat": 38.3644441,
    "lon": -0.4314241,
    "timestamp": "2009-10-26T12:13:55Z",
    "version": 2,
    "changeset": 2955565,
    "user": "hulius",
    "uid": 24940,
    "tags": {
      "amenity": "restaurant",
      "name": "La Gamba"
    }
  },
  {
    "type": "node",
    "id": 306577139,
    "lat": 38.4021602,
    "lon": -0.521291,
    "timestamp": "2022-12-10T15:38:53Z",
    "version": 4,
    "changeset": 129937505,
    "user": "jmaspons",
    "uid": 11725140,
    "tags": {
      "amenity": "restaurant",
      "name": "Kebab",
      "name:ca": "Kebab"
    }
  },
  {
    "type": "node",
    "id": 307184994,
    "lat": 38.7406672,
    "lon": -0.4360248,
    "timestamp": "2022-11-27T11:10:09Z",
    "version": 2,
    "changeset": 129430144,
    "user": "jmaspons",
    "uid": 11725140,
    "tags": {
      "amenity": "restaurant",
      "name": "La Bodega",
      "name:ca": "La Bodega"
    }
  },
  {
    "type": "node",
    "id": 309773339,
    "lat": 38.1898879,
    "lon": -0.5526113,
    "timestamp": "2021-09-25T20:45:21Z",
    "version": 7,
    "changeset": 111701158,
    "user": "gpesquero",
    "uid": 3584,
    "tags": {
      "amenity": "restaurant",
      "name": "El Cisne",
      "source": "survey"
    }
  },
  {
    "type": "node",
    "id": 314564925,
    "lat": 38.3925186,
    "lon": -0.5222702,
    "timestamp": "2014-01-22T16:21:27Z",
    "version": 5,
    "changeset": 20144379,
    "user": "hulius",
    "uid": 24940,
    "tags": {
      "amenity": "restaurant",
      "name": "Cervecería Al-Andalus"
    }
  },
  {
    "type": "node",
    "id": 314569120,
    "lat": 38.3842809,
    "lon": -0.516341,
    "timestamp": "2012-12-09T12:09:40Z",
    "version": 3,
    "changeset": 14211770,
    "user": "parukhin",
    "uid": 519501,
    "tags": {
      "amenity": "restaurant",
      "wheelchair": "yes"
    }
  },
  {
    "type": "node",
    "id": 314569314,
    "lat": 38.3831102,
    "lon": -0.5133283,
    "timestamp": "2012-12-09T12:09:40Z",
    "version": 2,
    "changeset": 14211770,
    "user": "parukhin",
    "uid": 519501,
    "tags": {
      "amenity": "restaurant"
    }
  },
  {
    "type": "node",
    "id": 314570966,
    "lat": 38.387147,
    "lon": -0.5114401,
    "timestamp": "2012-12-09T12:09:40Z",
    "version": 3,
    "changeset": 14211770,
    "user": "parukhin",
    "uid": 519501,
    "tags": {
      "amenity": "restaurant",
      "wheelchair": "yes"
    }
  },
  {
    "type": "node",
    "id": 314571884,
    "lat": 38.3866689,
    "lon": -0.5094538,
    "timestamp": "2012-12-09T12:08:52Z",
    "version": 3,
    "changeset": 14211770,
    "user": "parukhin",
    "uid": 519501,
    "tags": {
      "amenity": "restaurant",
      "name": "Chino"
    }
  },
  {
    "type": "node",
    "id": 318861418,
    "lat": 38.6095547,
    "lon": -0.4722362,
    "timestamp": "2023-10-09T23:27:26Z",
    "version": 4,
    "changeset": 142369825,
    "user": "jmaspons",
    "uid": 11725140,
    "tags": {
      "amenity": "restaurant",
      "cuisine": "regional",
      "name": "Pou de la Neu",
      "name:ca": "Pou de la Neu"
    }
  },
  {
    "type": "node",
    "id": 319276779,
    "lat": 38.338395,
    "lon": -0.4869017,
    "timestamp": "2023-03-20T17:07:46Z",
    "version": 5,
    "changeset": 133907896,
    "user": "Jordi MF",
    "uid": 8278438,
    "tags": {
      "amenity": "restaurant",
      "cuisine": "regional",
      "name": "Restaurante Dársena",
      "phone": "+34 965 207 399",
      "website": "https://darsena.com/",
      "wheelchair": "yes"
    }
  },
  {
    "type": "node",
    "id": 334504496,
    "lat": 38.6987383,
    "lon": -0.3903979,
    "timestamp": "2022-12-24T23:31:47Z",
    "version": 6,
    "changeset": 130469548,
    "user": "jmaspons",
    "uid": 11725140,
    "tags": {
      "amenity": "restaurant",
      "name": "La Ponderosa",
      "name:ca": "La Ponderosa"
    }
  },
  {
    "type": "node",
    "id": 359924011,
    "lat": 38.3790808,
    "lon": -0.4392971,
    "timestamp": "2025-03-03T14:37:40Z",
    "version": 2,
    "changeset": 163164125,
    "user": "PacLe",
    "uid": 687266,
    "tags": {
      "amenity": "restaurant",
      "cuisine": "regional",
      "name": "Torre de Rejas"
    }
  },
  {
    "type": "node",
    "id": 374488957,
    "lat": 38.4003778,
    "lon": -0.5321733,
    "timestamp": "2023-01-08T14:32:58Z",
    "version": 3,
    "changeset": 131017494,
    "user": "jmaspons",
    "uid": 11725140,
    "tags": {
      "amenity": "restaurant",
      "name": "El Escorial",
      "name:ca": "L'Escorial"
    }
  },
  {
    "type": "node",
    "id": 375810956,
    "lat": 38.348479,
    "lon": -0.4816896,
    "timestamp": "2025-01-09T16:24:31Z",
    "version": 4,
    "changeset": 161176383,
    "user": "adrianmg13",
    "uid": 21808597,
    "tags": {
      "amenity": "restaurant",
      "cuisine": "international",
      "name": "La Ereta",
      "opening_hours:signed": "no"
    }
  },
  {
    "type": "node",
    "id": 376624211,
    "lat": 38.3390484,
    "lon": -0.487114,
    "timestamp": "2021-07-07T03:29:33Z",
    "version": 7,
    "changeset": 107528387,
    "user": "b-jazz-bot",
    "uid": 9451067,
    "tags": {
      "addr:postcode": "03003",
      "addr:street": "paseo almirante Guillén Tato",
      "amenity": "restaurant",
      "cuisine": "breakfast;fish;grill;local;regional;seafood;spanish",
      "email": "info@ponienterestaurante.com",
      "name": "Aldebarán",
      "name:es": "Poniente",
      "opening_hours": "Mo-Su 08:00-23:00",
      "phone": "+34 965123130",
      "website": "https://ponienterestaurante.es/"
    }
  },
  {
    "type": "node",
    "id": 378745686,
    "lat": 38.3568583,
    "lon": -0.4777002,
    "timestamp": "2009-04-17T09:59:05Z",
    "version": 1,
    "changeset": 599087,
    "user": "j3m",
    "uid": 9250,
    "tags": {
      "amenity": "restaurant",
      "cuisine": "regional",
      "name": "Racó del Plá"
    }
  },
  {
    "type": "node",
    "id": 378745688,
    "lat": 38.3602449,
    "lon": -0.4761015,
    "timestamp": "2009-04-17T09:59:05Z",
    "version": 1,
    "changeset": 599087,
    "user": "j3m",
    "uid": 9250,
    "tags": {
      "amenity": "restaurant",
      "name": "El rincón de la amistad"
    }
  },
  {
    "type": "node",
    "id": 386528155,
    "lat": 38.3443393,
    "lon": -0.525562,
    "timestamp": "2009-04-28T07:48:27Z",
    "version": 1,
    "changeset": 1000166,
    "user": "hulius",
    "uid": 24940,
    "tags": {
      "amenity": "restaurant",
      "name": "Asador 7 de Julio"
    }
  },
  {
    "type": "node",
    "id": 386528169,
    "lat": 38.3448778,
    "lon": -0.5271327,
    "timestamp": "2009-04-28T07:49:27Z",
    "version": 1,
    "changeset": 1000166,
    "user": "hulius",
    "uid": 24940,
    "tags": {
      "amenity": "restaurant",
      "name": "Bar Europa"
    }
  },
  {
    "type": "node",
    "id": 410961967,
    "lat": 38.1467511,
    "lon": -0.6447249,
    "timestamp": "2019-07-17T16:11:15Z",
    "version": 5,
    "changeset": 72356036,
    "user": "Juan_Carlos_G_F-imports",
    "uid": 2802925,
    "tags": {
      "addr:city": "Elche",
      "addr:housenumber": "2",
      "addr:street": "plaça Glea",
      "amenity": "restaurant",
      "name": "Bodeguilla de Paco"
    }
  },
  {
    "type": "node",
    "id": 410975934,
    "lat": 38.2663072,
    "lon": -0.7031354,
    "timestamp": "2019-07-17T16:11:29Z",
    "version": 9,
    "changeset": 72356082,
    "user": "Juan_Carlos_G_F-imports",
    "uid": 2802925,
    "tags": {
      "addr:city": "Elche/Elx",
      "addr:housenumber": "20",
      "addr:street": "Carrer Ruperto Chapí",
      "amenity": "restaurant",
      "name": "El Racó de Valentina"
    }
  },
  {
    "type": "node",
    "id": 410979621,
    "lat": 38.2535533,
    "lon": -0.7040499,
    "timestamp": "2019-07-17T16:11:34Z",
    "version": 9,
    "changeset": 72356082,
    "user": "Juan_Carlos_G_F-imports",
    "uid": 2802925,
    "tags": {
      "addr:city": "Elche",
      "addr:housenumber": "95AC",
      "addr:street": "carrer Pablo Picasso",
      "amenity": "restaurant",
      "cuisine": "burger",
      "name": "scaranos",
      "opening_hours": "We-Su 13:00-16:00,19:30-24:00"
    }
  },
  {
    "type": "node",
    "id": 410980334,
    "lat": 38.264186,
    "lon": -0.6974368,
    "timestamp": "2019-07-17T16:11:34Z",
    "version": 12,
    "changeset": 72356082,
    "user": "Juan_Carlos_G_F-imports",
    "uid": 2802925,
    "tags": {
      "addr:city": "Elche/Elx",
      "addr:housenumber": "5",
      "addr:street": "plaça del Salvador",
      "amenity": "restaurant",
      "cuisine": "italian",
      "diet:gluten_free": "yes",
      "name": "Caffe Gourmet",
      "opening_hours": "Mo-Su 12:30-15:4,19:30-23:00",
      "phone": "+34 965420725",
      "smoking": "outside",
      "wheelchair": "yes",
      "wheelchair:description": "Barra de bar no accecible"
    }
  },
  {
    "type": "node",
    "id": 410983475,
    "lat": 38.2657133,
    "lon": -0.6955509,
    "timestamp": "2024-10-21T12:35:33Z",
    "version": 8,
    "changeset": 158167896,
    "user": "rombik97",
    "uid": 9583643,
    "tags": {
      "addr:city": "Elche/Elx",
      "addr:housenumber": "15",
      "addr:street": "plaça de la Constitució",
      "amenity": "restaurant",
      "restaurant": "japanese"
    }
  },
  {
    "type": "node",
    "id": 410983996,
    "lat": 38.2721963,
    "lon": -0.6843888,
    "timestamp": "2024-05-12T18:47:38Z",
    "version": 9,
    "changeset": 151238144,
    "user": "Julian Lozano",
    "uid": 13324,
    "tags": {
      "addr:city": "Elche/Elx",
      "addr:housenumber": "35AC",
      "addr:postcode": "03202",
      "addr:street": "carrer Bisbe Winibal",
      "amenity": "restaurant",
      "check_date": "2024-05-12",
      "cuisine": "regional",
      "description": "Bar con comida tradicional a precios muy ajustados.\nViernes y sábados abren hasta la 1:00.",
      "name": "Bar Hermanos Zapata",
      "opening_hours": "Mo off; Tu-Th 06:30-23:00; Fr-Sa 06:30-24:00; Su 06:45-16:00",
      "phone": "+34965455279"
    }
  },
  {
    "type": "node",
    "id": 415643620,
    "lat": 38.264719,
    "lon": -0.6989365,
    "timestamp": "2019-07-17T16:11:57Z",
    "version": 6,
    "changeset": 72356091,
    "user": "Juan_Carlos_G_F-imports",
    "uid": 2802925,
    "tags": {
      "addr:city": "Elche/Elx",
      "addr:housenumber": "5",
      "addr:street": "carrer Mare de Déu del Carme",
      "amenity": "restaurant",
      "cuisine": "regional",
      "name": "Del Carmen",
      "wheelchair": "yes"
    }
  },
  {
    "type": "node",
    "id": 418621899,
    "lat": 38.4321321,
    "lon": -0.6533,
    "timestamp": "2020-09-17T14:41:20Z",
    "version": 2,
    "changeset": 91054787,
    "user": "impreza233",
    "uid": 11601745,
    "tags": {
      "amenity": "restaurant",
      "name": "Restaurante Don Camilo"
    }
  },
  {
    "type": "node",
    "id": 445901656,
    "lat": 38.1969137,
    "lon": -0.5743758,
    "timestamp": "2009-09-02T16:49:33Z",
    "version": 2,
    "changeset": 2350185,
    "user": "gpesquero",
    "uid": 3584,
    "tags": {
      "amenity": "restaurant",
      "name": "Wok Buffet"
    }
  },
  {
    "type": "node",
    "id": 450609717,
    "lat": 38.3397106,
    "lon": -0.4915656,
    "timestamp": "2019-04-28T10:30:04Z",
    "version": 3,
    "changeset": 69660048,
    "user": "Ornios",
    "uid": 733392,
    "tags": {
      "amenity": "restaurant",
      "cuisine": "chinese",
      "name": "La Bona Cuina"
    }
  },
  {
    "type": "node",
    "id": 452158548,
    "lat": 38.3424623,
    "lon": -0.4941313,
    "timestamp": "2009-07-30T22:15:28Z",
    "version": 1,
    "changeset": 1989396,
    "user": "j3m",
    "uid": 9250,
    "tags": {
      "amenity": "restaurant",
      "name": "Piripi"
    }
  },
  {
    "type": "node",
    "id": 460958056,
    "lat": 38.2926529,
    "lon": -0.8930615,
    "timestamp": "2024-11-03T18:38:41Z",
    "version": 5,
    "changeset": 158711852,
    "user": "Hugoren Martinako",
    "uid": 3392826,
    "tags": {
      "amenity": "restaurant",
      "name": "La Finca"
    }
  },
  {
    "type": "node",
    "id": 475014806,
    "lat": 38.4107649,
    "lon": -0.5635958,
    "timestamp": "2009-08-27T12:26:03Z",
    "version": 1,
    "changeset": 2276853,
    "user": "hulius",
    "uid": 24940,
    "tags": {
      "amenity": "restaurant",
      "name": "Restaurante Casamar"
    }
  },
  {
    "type": "node",
    "id": 506905402,
    "lat": 38.3413796,
    "lon": -0.7737243,
    "timestamp": "2010-09-21T12:54:38Z",
    "version": 2,
    "changeset": 5836911,
    "user": "hulius",
    "uid": 24940,
    "tags": {
      "amenity": "restaurant",
      "name": "Restaurante YA"
    }
  },
  {
    "type": "node",
    "id": 510405842,
    "lat": 38.2733646,
    "lon": -0.9278953,
    "timestamp": "2013-12-20T10:49:48Z",
    "version": 2,
    "changeset": 19547664,
    "user": "j3m",
    "uid": 9250,
    "tags": {
      "addr:city": "Hondón de los Frailes",
      "addr:country": "ES",
      "addr:housename": "restaurante 28",
      "addr:housenumber": "28",
      "addr:postcode": "03689",
      "addr:street": "calle Juan Carlos I",
      "amenity": "restaurant",
      "cuisine": "international",
      "name": "28"
    }
  },
  {
    "type": "node",
    "id": 518498625,
    "lat": 38.3452916,
    "lon": -0.4851219,
    "timestamp": "2009-10-03T09:44:09Z",
    "version": 1,
    "changeset": 2720923,
    "user": "j3m",
    "uid": 9250,
    "tags": {
      "amenity": "restaurant",
      "name": "Nou Manolín"
    }
  },
  {
    "type": "node",
    "id": 518498633,
    "lat": 38.3442953,
    "lon": -0.4815514,
    "timestamp": "2009-10-03T09:44:09Z",
    "version": 1,
    "changeset": 2720923,
    "user": "j3m",
    "uid": 9250,
    "tags": {
      "amenity": "restaurant",
      "name": "Monastrell"
    }
  },
  {
    "type": "node",
    "id": 518498642,
    "lat": 38.3471024,
    "lon": -0.487199,
    "timestamp": "2009-10-03T09:44:09Z",
    "version": 1,
    "changeset": 2720923,
    "user": "j3m",
    "uid": 9250,
    "tags": {
      "amenity": "restaurant",
      "name": "El jumillano"
    }
  },
  {
    "type": "node",
    "id": 531507873,
    "lat": 38.3840265,
    "lon": -0.7673114,
    "timestamp": "2024-06-13T08:38:25Z",
    "version": 3,
    "changeset": 152621208,
    "user": "Oxeelix",
    "uid": 8116181,
    "tags": {
      "amenity": "restaurant",
      "check_date": "2024-06-13",
      "name": "Bon Profit",
      "name:ca": "Bon Profit",
      "phone": "+965 6064 6429; +34 617 34 91 36"
    }
  },
  {
    "type": "node",
    "id": 535222309,
    "lat": 38.3841568,
    "lon": -0.7679172,
    "timestamp": "2024-06-13T08:27:51Z",
    "version": 2,
    "changeset": 152620727,
    "user": "Oxeelix",
    "uid": 8116181,
    "tags": {
      "amenity": "restaurant",
      "check_date": "2024-06-13",
      "cuisine": "regional",
      "name": "El Cucuch"
    }
  },
  {
    "type": "node",
    "id": 540682809,
    "lat": 38.3645179,
    "lon": -0.4313873,
    "timestamp": "2009-10-26T12:13:53Z",
    "version": 1,
    "changeset": 2955565,
    "user": "hulius",
    "uid": 24940,
    "tags": {
      "amenity": "restaurant",
      "cuisine": "regional",
      "name": "Cervecería Bayarri"
    }
  },
  {
    "type": "node",
    "id": 541608711,
    "lat": 38.3657462,
    "lon": -0.4401247,
    "timestamp": "2022-12-11T22:16:57Z",
    "version": 3,
    "changeset": 129977909,
    "user": "jmaspons",
    "uid": 11725140,
    "tags": {
      "amenity": "restaurant",
      "cuisine": "spanish",
      "name": "Lucentum",
      "name:ca": "Lucentum"
    }
  },
  {
    "type": "node",
    "id": 548443759,
    "lat": 38.368457,
    "lon": -0.4334196,
    "timestamp": "2013-11-13T17:13:41Z",
    "version": 2,
    "changeset": 18878027,
    "user": "geografo",
    "uid": 1731752,
    "tags": {
      "amenity": "restaurant",
      "cuisine": "kebab",
      "name": "Isla d'Jerba"
    }
  },
  {
    "type": "node",
    "id": 559415223,
    "lat": 38.3842813,
    "lon": -0.7694626,
    "timestamp": "2013-08-13T20:02:34Z",
    "version": 2,
    "changeset": 17336340,
    "user": "lesko987",
    "uid": 398086,
    "tags": {
      "amenity": "restaurant",
      "cuisine": "kebab",
      "name": "Kebap Novelda"
    }
  },
  {
    "type": "node",
    "id": 581057616,
    "lat": 38.344363,
    "lon": -0.767967,
    "timestamp": "2019-03-19T09:22:00Z",
    "version": 4,
    "changeset": 68286724,
    "user": "b-jazz-bot",
    "uid": 9451067,
    "tags": {
      "amenity": "restaurant",
      "name": "bar Aspense",
      "phone": "+34 965490002",
      "website": "https://www.restauranteaspense.com/"
    }
  },
  {
    "type": "node",
    "id": 588961553,
    "lat": 38.3470726,
    "lon": -0.488306,
    "timestamp": "2021-08-11T09:42:36Z",
    "version": 3,
    "changeset": 109506640,
    "user": "Note Control",
    "uid": 10953870,
    "tags": {
      "amenity": "restaurant",
      "brand": "Lizarrán",
      "brand:wikidata": "Q1866620",
      "brand:wikipedia": "de:Lizarran",
      "cuisine": "spanish",
      "name": "Lizarrán"
    }
  },
  {
    "type": "node",
    "id": 588981931,
    "lat": 38.3466428,
    "lon": -0.4894979,
    "timestamp": "2009-12-13T21:09:31Z",
    "version": 1,
    "changeset": 3367129,
    "user": "j3m",
    "uid": 9250,
    "tags": {
      "amenity": "restaurant",
      "name": "El Merengue"
    }
  },
  {
    "type": "node",
    "id": 589013331,
    "lat": 38.3458273,
    "lon": -0.4900207,
    "timestamp": "2010-11-08T09:01:51Z",
    "version": 2,
    "changeset": 6318701,
    "user": "hulius",
    "uid": 24940,
    "tags": {
      "amenity": "restaurant",
      "name": "La Taberna de Luceros"
    }
  },
  {
    "type": "node",
    "id": 589030903,
    "lat": 38.3454875,
    "lon": -0.489639,
    "timestamp": "2009-12-13T21:48:16Z",
    "version": 1,
    "changeset": 3367530,
    "user": "j3m",
    "uid": 9250,
    "tags": {
      "amenity": "restaurant",
      "cuisine": "chinese",
      "name": "Zhong Hua"
    }
  },
  {
    "type": "node",
    "id": 602832171,
    "lat": 38.3654519,
    "lon": -0.4256751,
    "timestamp": "2010-01-02T00:19:03Z",
    "version": 1,
    "changeset": 3515363,
    "user": "j3m",
    "uid": 9250,
    "tags": {
      "amenity": "restaurant",
      "cuisine": "regional",
      "name": "El bodegón"
    }
  },
  {
    "type": "node",
    "id": 604963260,
    "lat": 38.3710971,
    "lon": -0.4123308,
    "timestamp": "2010-01-04T19:04:56Z",
    "version": 1,
    "changeset": 3539809,
    "user": "j3m",
    "uid": 9250,
    "tags": {
      "amenity": "restaurant",
      "cuisine": "regional",
      "name": "restaurante Estrella"
    }
  },
  {
    "type": "node",
    "id": 612476432,
    "lat": 38.1276968,
    "lon": -0.6480631,
    "timestamp": "2025-01-22T01:02:07Z",
    "version": 6,
    "changeset": 161619936,
    "user": "robbietee",
    "uid": 217994,
    "tags": {
      "addr:city": "Elche",
      "addr:country": "ES",
      "amenity": "restaurant",
      "cuisine": "international",
      "drive_in": "no",
      "internet_access": "wlan",
      "internet_access:fee": "no",
      "name": "Costa 21",
      "not:brand:wikidata": "Q608845",
      "outdoor_seating": "yes",
      "smoking": "separated",
      "takeaway": "yes",
      "toilets": "yes",
      "wheelchair": "yes",
      "wifi": "no"
    }
  },
  {
    "type": "node",
    "id": 612577334,
    "lat": 38.1298511,
    "lon": -0.6492922,
    "timestamp": "2017-11-30T10:16:14Z",
    "version": 3,
    "changeset": 54200913,
    "user": "20171119",
    "uid": 7020858,
    "tags": {
      "amenity": "restaurant",
      "internet_access": "wlan",
      "internet_access:fee": "no",
      "level": "1",
      "outdoor_seating": "yes",
      "smoking": "separated",
      "takeaway": "yes",
      "wheelchair": "yes"
    }
  },
  {
    "type": "node",
    "id": 626216183,
    "lat": 38.1288717,
    "lon": -0.6497747,
    "timestamp": "2025-01-22T01:45:37Z",
    "version": 2,
    "changeset": 161620399,
    "user": "robbietee",
    "uid": 217994,
    "tags": {
      "amenity": "restaurant",
      "name": "El Frontón"
    }
  },
  {
    "type": "node",
    "id": 626216190,
    "lat": 38.1277319,
    "lon": -0.6481293,
    "timestamp": "2025-01-22T01:02:07Z",
    "version": 4,
    "changeset": 161619936,
    "user": "robbietee",
    "uid": 217994,
    "tags": {
      "amenity": "restaurant",
      "cuisine": "international",
      "internet_access": "wlan",
      "internet_access:fee": "no",
      "name": "Rivington's",
      "outdoor_seating": "yes",
      "smoking": "separated",
      "takeaway": "yes"
    }
  },
  {
    "type": "node",
    "id": 663334854,
    "lat": 38.3659956,
    "lon": -0.4104744,
    "timestamp": "2024-10-26T06:50:53Z",
    "version": 6,
    "changeset": 158363165,
    "user": "bikepiper",
    "uid": 166133,
    "tags": {
      "addr:city": "Alacant / Alicante",
      "addr:housenumber": "3",
      "addr:postcode": "03540",
      "addr:state": "VC",
      "addr:street": "Avinguda de Niça / Avenida de Niza",
      "amenity": "restaurant",
      "cuisine": "regional",
      "email": "chillbarbacoa@gmail.com",
      "name": "La Barbacoa",
      "name:ca": "La Barbacoa",
      "phone": "+34 865 78 87 06",
      "start_date": "2023"
    }
  },
  {
    "type": "node",
    "id": 663334859,
    "lat": 38.3687488,
    "lon": -0.4105808,
    "timestamp": "2024-08-12T13:31:03Z",
    "version": 3,
    "changeset": 155149440,
    "user": "jemily1",
    "uid": 11155676,
    "tags": {
      "amenity": "restaurant",
      "name": "Azul Playa"
    }
  },
  {
    "type": "node",
    "id": 663334863,
    "lat": 38.3675764,
    "lon": -0.4105199,
    "timestamp": "2023-01-01T14:49:07Z",
    "version": 2,
    "changeset": 130751261,
    "user": "polkillas",
    "uid": 42055,
    "tags": {
      "amenity": "restaurant",
      "cuisine": "italian",
      "name": "Il Fornello"
    }
  },
  {
    "type": "node",
    "id": 663682514,
    "lat": 38.3506317,
    "lon": -0.4971784,
    "timestamp": "2010-03-10T15:12:40Z",
    "version": 1,
    "changeset": 4090235,
    "user": "j3m",
    "uid": 9250,
    "tags": {
      "amenity": "restaurant",
      "name": "Nou Nerea"
    }
  },
  {
    "type": "node",
    "id": 664235542,
    "lat": 38.3627705,
    "lon": -0.467233,
    "timestamp": "2010-07-17T20:28:49Z",
    "version": 2,
    "changeset": 5245738,
    "user": "uboot",
    "uid": 26299,
    "tags": {
      "amenity": "restaurant",
      "cuisine": "argentinian",
      "name": "Lanús"
    }
  },
  {
    "type": "node",
    "id": 672921488,
    "lat": 38.3876401,
    "lon": -0.4129228,
    "timestamp": "2010-03-23T20:25:48Z",
    "version": 1,
    "changeset": 4215822,
    "user": "j3m",
    "uid": 9250,
    "tags": {
      "amenity": "restaurant",
      "name": "Rosa's"
    }
  },
  {
    "type": "node",
    "id": 674048526,
    "lat": 38.3438389,
    "lon": -0.4831336,
    "timestamp": "2022-12-24T23:06:13Z",
    "version": 4,
    "changeset": 130469158,
    "user": "jmaspons",
    "uid": 11725140,
    "tags": {
      "amenity": "restaurant",
      "name": "El mirador",
      "name:ca": "El mirador"
    }
  },
  {
    "type": "node",
    "id": 674064441,
    "lat": 38.345152,
    "lon": -0.4834815,
    "timestamp": "2021-08-10T22:30:30Z",
    "version": 2,
    "changeset": 109486156,
    "user": "Note Control",
    "uid": 10953870,
    "tags": {
      "amenity": "restaurant",
      "brand": "Lizarrán",
      "brand:wikidata": "Q1866620",
      "brand:wikipedia": "de:Lizarran",
      "cuisine": "spanish",
      "name": "Lizarrán"
    }
  },
  {
    "type": "node",
    "id": 674095332,
    "lat": 38.0320023,
    "lon": -0.8188698,
    "timestamp": "2021-03-09T16:39:42Z",
    "version": 8,
    "changeset": 100723049,
    "user": "hovelu",
    "uid": 2363504,
    "tags": {
      "addr:city": "Orihuela",
      "addr:place": "Entrenaranjos",
      "addr:postcode": "03319",
      "addr:province": "Alicante",
      "addr:street": "Calle Mandarino",
      "amenity": "restaurant",
      "name": "Cavanaghs Bar-Bistro",
      "phone": "+34 602 57 22 89",
      "website": "https://www.cavanaghbistro.eu"
    }
  },
  {
    "type": "node",
    "id": 715801466,
    "lat": 38.0811329,
    "lon": -0.945506,
    "timestamp": "2013-12-01T10:27:33Z",
    "version": 5,
    "changeset": 19207274,
    "user": "catastro_alicante",
    "uid": 617005,
    "tags": {
      "amenity": "restaurant",
      "name": "Restaurante Joaquín"
    }
  },
  {
    "type": "node",
    "id": 721565215,
    "lat": 38.0788929,
    "lon": -0.9450812,
    "timestamp": "2019-12-14T11:17:10Z",
    "version": 7,
    "changeset": 78405103,
    "user": "benjavalero",
    "uid": 122503,
    "tags": {
      "amenity": "restaurant",
      "name": "Bar El Sacrificio"
    }
  },
  {
    "type": "node",
    "id": 721565240,
    "lat": 38.0787034,
    "lon": -0.9450542,
    "timestamp": "2019-06-21T18:15:04Z",
    "version": 5,
    "changeset": 71491996,
    "user": "benjavalero",
    "uid": 122503,
    "tags": {
      "amenity": "restaurant",
      "name": "La Casica"
    }
  },
  {
    "type": "node",
    "id": 733806758,
    "lat": 38.0818141,
    "lon": -0.9483731,
    "timestamp": "2010-06-09T17:20:37Z",
    "version": 2,
    "changeset": 4947149,
    "user": "benjavalero",
    "uid": 122503,
    "tags": {
      "amenity": "restaurant",
      "cuisine": "pizza",
      "name": "Pizzería Italiana"
    }
  },
  {
    "type": "node",
    "id": 765559198,
    "lat": 38.3780219,
    "lon": -0.4101233,
    "timestamp": "2024-07-22T08:28:03Z",
    "version": 3,
    "changeset": 154250496,
    "user": "felGru",
    "uid": 59778,
    "tags": {
      "amenity": "restaurant",
      "name": "Restaurante Aitana"
    }
  },
  {
    "type": "node",
    "id": 774051186,
    "lat": 38.3415645,
    "lon": -0.4877254,
    "timestamp": "2010-06-17T11:10:12Z",
    "version": 3,
    "changeset": 5007876,
    "user": "j3m",
    "uid": 9250,
    "tags": {
      "amenity": "restaurant",
      "cuisine": "turkish",
      "name": "Kebap"
    }
  },
  {
    "type": "node",
    "id": 774051195,
    "lat": 38.342305,
    "lon": -0.4882779,
    "timestamp": "2010-06-16T23:33:23Z",
    "version": 2,
    "changeset": 5005351,
    "user": "fercamin",
    "uid": 203420,
    "tags": {
      "amenity": "restaurant",
      "cuisine": "chinese",
      "name": "Restaurante Oriente"
    }
  },
  {
    "type": "node",
    "id": 774051199,
    "lat": 38.3421199,
    "lon": -0.4881384,
    "timestamp": "2010-06-16T23:33:24Z",
    "version": 2,
    "changeset": 5005351,
    "user": "fercamin",
    "uid": 203420,
    "tags": {
      "amenity": "restaurant",
      "cuisine": "chinese",
      "name": "Orient Express"
    }
  },
  {
    "type": "node",
    "id": 778668669,
    "lat": 38.0326474,
    "lon": -1.1486669,
    "timestamp": "2021-12-30T11:14:51Z",
    "version": 2,
    "changeset": 115559569,
    "user": "kapazao_import",
    "uid": 8770019,
    "tags": {
      "amenity": "restaurant",
      "brand": "Pizza Hut",
      "brand:wikidata": "Q191615",
      "brand:wikipedia": "es:Pizza Hut",
      "cuisine": "pizza",
      "name": "Pizza Hut"
    }
  },
  {
    "type": "node",
    "id": 778668839,
    "lat": 38.0320812,
    "lon": -1.1489506,
    "timestamp": "2021-12-16T11:22:22Z",
    "version": 3,
    "changeset": 115003890,
    "user": "kapazao_import",
    "uid": 8770019,
    "tags": {
      "amenity": "restaurant",
      "brand": "Foster's Hollywood",
      "brand:wikidata": "Q5864366",
      "brand:wikipedia": "es:Foster's Hollywood",
      "cuisine": "american",
      "name": "Foster's Hollywood"
    }
  },
  {
    "type": "node",
    "id": 779958743,
    "lat": 38.0407334,
    "lon": -1.1480423,
    "timestamp": "2022-02-04T23:44:03Z",
    "version": 2,
    "changeset": 117027371,
    "user": "VLanzarote",
    "uid": 11441079,
    "tags": {
      "amenity": "restaurant",
      "name": "Rock 'n Ribs"
    }
  },
  {
    "type": "node",
    "id": 787316302,
    "lat": 38.104538,
    "lon": -0.9189986,
    "timestamp": "2010-06-24T14:53:14Z",
    "version": 1,
    "changeset": 5066680,
    "user": "benjavalero",
    "uid": 122503,
    "tags": {
      "amenity": "restaurant",
      "name": "Bar-Restaurante La Senia"
    }
  },
  {
    "type": "node",
    "id": 801936575,
    "lat": 38.4478943,
    "lon": -0.3641195,
    "timestamp": "2010-07-05T10:29:58Z",
    "version": 1,
    "changeset": 5140792,
    "user": "hulius",
    "uid": 24940,
    "tags": {
      "amenity": "restaurant",
      "cuisine": "regional",
      "name": "Chiringuito Morro Blanc"
    }
  },
  {
    "type": "node",
    "id": 829998253,
    "lat": 38.347595,
    "lon": -0.4851262,
    "timestamp": "2012-10-04T17:00:55Z",
    "version": 2,
    "changeset": 13361689,
    "user": "Syl",
    "uid": 224440,
    "tags": {
      "amenity": "restaurant",
      "cuisine": "traditional",
      "name": "Pilsen",
      "smoking": "yes"
    }
  },
  {
    "type": "node",
    "id": 902542868,
    "lat": 38.2652809,
    "lon": -0.696114,
    "timestamp": "2022-11-26T10:57:00Z",
    "version": 3,
    "changeset": 129397323,
    "user": "jmaspons",
    "uid": 11725140,
    "tags": {
      "amenity": "restaurant",
      "name": "Olivereta, 4",
      "name:ca": "Olivereta, 4"
    }
  },
  {
    "type": "node",
    "id": 911292928,
    "lat": 38.4094099,
    "lon": -0.4037763,
    "timestamp": "2010-09-13T22:09:45Z",
    "version": 1,
    "changeset": 5774273,
    "user": "denis111",
    "uid": 346449,
    "tags": {
      "amenity": "restaurant",
      "name": "Arosa"
    }
  },
  {
    "type": "node",
    "id": 914209009,
    "lat": 38.3642379,
    "lon": -0.4254982,
    "timestamp": "2024-09-22T16:09:23Z",
    "version": 7,
    "changeset": 156958912,
    "user": "sanchi",
    "uid": 170106,
    "tags": {
      "addr:city": "Alicante",
      "addr:housename": "Sol y Mar II",
      "addr:housenumber": "31",
      "addr:postcode": "03540",
      "addr:street": "Carrer del Trident / Calle Tridente",
      "amenity": "restaurant",
      "contact:phone": "+34 965 157 091",
      "cuisine": "regional",
      "name": "La paellica express",
      "opening_hours": "Sep-Jul: Fr,Sa,Su,PH 10:00-16:00; Mo-Th off; Aug: Mo-Su,PH 10:00-16:00"
    }
  },
  {
    "type": "node",
    "id": 915274893,
    "lat": 38.382932,
    "lon": -0.5134785,
    "timestamp": "2011-10-20T13:29:50Z",
    "version": 2,
    "changeset": 9604904,
    "user": "wheelmap_visitor",
    "uid": 290680,
    "tags": {
      "amenity": "restaurant",
      "name": "Los Arrayanes",
      "wheelchair": "yes"
    }
  },
  {
    "type": "node",
    "id": 919463286,
    "lat": 38.2658874,
    "lon": -0.6937119,
    "timestamp": "2016-01-14T19:48:59Z",
    "version": 5,
    "changeset": 36578816,
    "user": "mor",
    "uid": 220932,
    "tags": {
      "amenity": "restaurant",
      "cuisine": "regional",
      "name": "Cervecería Tabarca",
      "wheelchair": "yes"
    }
  },
  {
    "type": "node",
    "id": 920223707,
    "lat": 38.3467741,
    "lon": -0.7691157,
    "timestamp": "2024-02-24T16:17:40Z",
    "version": 5,
    "changeset": 147861820,
    "user": "kapazao_import",
    "uid": 8770019,
    "tags": {
      "addr:city": "Aspe",
      "addr:country": "ES",
      "addr:housenumber": "29",
      "addr:postcode": "03680",
      "addr:street": "Avda. Constitución",
      "amenity": "restaurant",
      "name": "Bar Restaurante 57"
    }
  },
  {
    "type": "node",
    "id": 921478868,
    "lat": 38.0101562,
    "lon": -0.6947406,
    "timestamp": "2019-07-17T16:11:57Z",
    "version": 7,
    "changeset": 72356091,
    "user": "Juan_Carlos_G_F-imports",
    "uid": 2802925,
    "tags": {
      "amenity": "restaurant",
      "cuisine": "chinese",
      "name": "Gran China",
      "wheelchair": "no"
    }
  },
  {
    "type": "node",
    "id": 922263987,
    "lat": 38.2653323,
    "lon": -0.693905,
    "timestamp": "2010-09-23T07:08:13Z",
    "version": 1,
    "changeset": 5851546,
    "user": "hulius",
    "uid": 24940,
    "tags": {
      "amenity": "restaurant",
      "cuisine": "italian",
      "name": "Restaurante Donnadry",
      "phone": "+34965424654"
    }
  },
  {
    "type": "node",
    "id": 922263992,
    "lat": 38.2652326,
    "lon": -0.6939436,
    "timestamp": "2015-08-24T14:15:40Z",
    "version": 3,
    "changeset": 33546912,
    "user": "k-einar",
    "uid": 1451799,
    "tags": {
      "addr:housenumber": "17",
      "addr:street": "calle Daoiz",
      "amenity": "restaurant",
      "cuisine": "italian",
      "name": "Restaurante Il Girasole Toscano",
      "phone": "+34966613824",
      "wheelchair": "limited"
    }
  },
  {
    "type": "node",
    "id": 922263993,
    "lat": 38.267452,
    "lon": -0.6950695,
    "timestamp": "2010-09-23T07:08:13Z",
    "version": 1,
    "changeset": 5851546,
    "user": "hulius",
    "uid": 24940,
    "tags": {
      "amenity": "restaurant",
      "cuisine": "italian",
      "name": "Alba - Restaurante Trattoria",
      "phone": "+34966242389"
    }
  },
  {
    "type": "node",
    "id": 922374849,
    "lat": 38.4067228,
    "lon": -0.5995175,
    "timestamp": "2010-09-23T08:29:04Z",
    "version": 1,
    "changeset": 5852070,
    "user": "hulius",
    "uid": 24940,
    "tags": {
      "amenity": "restaurant"
    }
  },
  {
    "type": "node",
    "id": 922374868,
    "lat": 38.4086689,
    "lon": -0.5998707,
    "timestamp": "2010-09-23T08:29:04Z",
    "version": 1,
    "changeset": 5852070,
    "user": "hulius",
    "uid": 24940,
    "tags": {
      "amenity": "restaurant"
    }
  },
  {
    "type": "node",
    "id": 932662917,
    "lat": 38.3478331,
    "lon": -0.7679207,
    "timestamp": "2010-10-01T08:42:02Z",
    "version": 1,
    "changeset": 5926037,
    "user": "hulius",
    "uid": 24940,
    "tags": {
      "amenity": "restaurant",
      "cuisine": "regional",
      "name": "O Rincón Galego"
    }
  },
  {
    "type": "node",
    "id": 932662920,
    "lat": 38.3480087,
    "lon": -0.7681354,
    "timestamp": "2010-10-01T08:42:02Z",
    "version": 1,
    "changeset": 5926037,
    "user": "hulius",
    "uid": 24940,
    "tags": {
      "amenity": "restaurant",
      "cuisine": "regional",
      "name": "Cervecería Solera"
    }
  },
  {
    "type": "node",
    "id": 932662946,
    "lat": 38.3481049,
    "lon": -0.7662683,
    "timestamp": "2010-10-01T08:42:03Z",
    "version": 1,
    "changeset": 5926037,
    "user": "hulius",
    "uid": 24940,
    "tags": {
      "amenity": "restaurant",
      "cuisine": "regional",
      "name": "Bar Ateneo"
    }
  },
  {
    "type": "node",
    "id": 932662955,
    "lat": 38.3460006,
    "lon": -0.7655986,
    "timestamp": "2010-10-01T08:42:03Z",
    "version": 1,
    "changeset": 5926037,
    "user": "hulius",
    "uid": 24940,
    "tags": {
      "amenity": "restaurant",
      "name": "Casa Jacinto"
    }
  },
  {
    "type": "node",
    "id": 939129659,
    "lat": 38.357494,
    "lon": -0.7729932,
    "timestamp": "2010-10-06T11:47:41Z",
    "version": 1,
    "changeset": 5968355,
    "user": "hulius",
    "uid": 24940,
    "tags": {
      "amenity": "restaurant",
      "name": "Motel-Restaurante Mayordomo"
    }
  },
  {
    "type": "node",
    "id": 945457552,
    "lat": 38.3630359,
    "lon": -0.4905824,
    "timestamp": "2010-10-11T22:09:38Z",
    "version": 1,
    "changeset": 6016619,
    "user": "j3m",
    "uid": 9250,
    "tags": {
      "amenity": "restaurant",
      "name": "Kebap Gran Via"
    }
  },
  {
    "type": "node",
    "id": 956322815,
    "lat": 38.3477245,
    "lon": -0.4895052,
    "timestamp": "2019-08-14T06:35:36Z",
    "version": 2,
    "changeset": 73333244,
    "user": "Ornios",
    "uid": 733392,
    "tags": {
      "amenity": "restaurant",
      "cuisine": "regional",
      "name": "De Cuchara La Cocina de Carmen",
      "opening_hours": "Mo-Sa 09:00-16:30",
      "phone": "+34 965 21 29 32"
    }
  },
  {
    "type": "node",
    "id": 959184164,
    "lat": 38.377224,
    "lon": -0.688249,
    "timestamp": "2015-10-19T23:58:11Z",
    "version": 3,
    "changeset": 34746193,
    "user": "arte2002",
    "uid": 662113,
    "tags": {
      "amenity": "restaurant",
      "name": "Bar Nuevo",
      "outdoor_seating": "yes"
    }
  },
  {
    "type": "node",
    "id": 966228250,
    "lat": 38.0613221,
    "lon": -0.6841454,
    "timestamp": "2010-10-26T20:08:56Z",
    "version": 1,
    "changeset": 6186286,
    "user": "stomperz",
    "uid": 363545,
    "tags": {
      "amenity": "restaurant",
      "name": "Stan and Ollie's"
    }
  },
  {
    "type": "node",
    "id": 977369556,
    "lat": 38.3453985,
    "lon": -0.4831402,
    "timestamp": "2015-08-08T20:39:23Z",
    "version": 2,
    "changeset": 33208246,
    "user": "snaut",
    "uid": 123131,
    "tags": {
      "amenity": "restaurant",
      "name": "El Ático"
    }
  },
  {
    "type": "node",
    "id": 1001971967,
    "lat": 38.3468006,
    "lon": -0.4835373,
    "timestamp": "2017-07-05T22:56:46Z",
    "version": 2,
    "changeset": 50070516,
    "user": "Weasel-Wiesel",
    "uid": 2414126,
    "tags": {
      "amenity": "restaurant",
      "cuisine": "italian",
      "old_name": "La Sidrería Escondida",
      "outdoor_seating": "yes"
    }
  },
  {
    "type": "node",
    "id": 1005271003,
    "lat": 38.2683534,
    "lon": -0.6877416,
    "timestamp": "2010-11-26T10:17:59Z",
    "version": 1,
    "changeset": 6460804,
    "user": "taulai",
    "uid": 371999,
    "tags": {
      "amenity": "restaurant",
      "name": "Restaurante Chino"
    }
  },
  {
    "type": "node",
    "id": 1005488342,
    "lat": 38.0953939,
    "lon": -1.1654925,
    "timestamp": "2012-10-06T14:51:22Z",
    "version": 4,
    "changeset": 13386022,
    "user": "Funk66",
    "uid": 374371,
    "tags": {
      "amenity": "restaurant",
      "name": "Travola Calda"
    }
  },
  {
    "type": "node",
    "id": 1070868562,
    "lat": 38.1590644,
    "lon": -0.9295012,
    "timestamp": "2010-12-29T14:49:04Z",
    "version": 1,
    "changeset": 6799473,
    "user": "benjavalero",
    "uid": 122503,
    "tags": {
      "amenity": "restaurant",
      "name": "Bar Tónica"
    }
  },
  {
    "type": "node",
    "id": 1096580954,
    "lat": 38.9884375,
    "lon": -0.5185321,
    "timestamp": "2020-03-17T11:12:51Z",
    "version": 2,
    "changeset": 82299771,
    "user": "felixi",
    "uid": 293845,
    "tags": {
      "amenity": "restaurant",
      "cuisine": "regional",
      "microbrewery": "no",
      "name": "Restaurante La Forca"
    }
  },
  {
    "type": "node",
    "id": 1096626385,
    "lat": 38.347675,
    "lon": -0.762268,
    "timestamp": "2014-03-07T08:02:29Z",
    "version": 4,
    "changeset": 20964546,
    "user": "torrespri",
    "uid": 23585,
    "tags": {
      "amenity": "restaurant",
      "name": "Casa Canales"
    }
  },
  {
    "type": "node",
    "id": 1096632757,
    "lat": 38.344475,
    "lon": -0.754907,
    "timestamp": "2019-03-19T09:21:59Z",
    "version": 2,
    "changeset": 68286724,
    "user": "b-jazz-bot",
    "uid": 9451067,
    "tags": {
      "amenity": "restaurant",
      "name": "Alfonso Mira",
      "website": "https://www.alfonsomira.com/"
    }
  },
  {
    "type": "node",
    "id": 1097187399,
    "lat": 38.345604,
    "lon": -0.768564,
    "timestamp": "2011-01-10T22:20:47Z",
    "version": 1,
    "changeset": 6931981,
    "user": "torrespri",
    "uid": 23585,
    "tags": {
      "amenity": "restaurant",
      "name": "El montadito"
    }
  },
  {
    "type": "node",
    "id": 1130845398,
    "lat": 38.3928479,
    "lon": -0.5167676,
    "timestamp": "2013-05-09T10:48:12Z",
    "version": 3,
    "changeset": 16045558,
    "user": "hulius",
    "uid": 24940,
    "tags": {
      "amenity": "restaurant",
      "cuisine": "spanish",
      "name": "La Taberna"
    }
  },
  {
    "type": "node",
    "id": 1141104677,
    "lat": 38.362568,
    "lon": -0.4480537,
    "timestamp": "2025-02-04T13:37:00Z",
    "version": 2,
    "changeset": 162125935,
    "user": "grumbly",
    "uid": 21732680,
    "tags": {
      "amenity": "restaurant",
      "name": "los troncos",
      "opening_hours": "We,Th,Su,Mo 13:30-14:00+; Fr,Sa 13:30-15:00+,20:30-22:00+"
    }
  },
  {
    "type": "node",
    "id": 1141106982,
    "lat": 38.4029495,
    "lon": -0.4398227,
    "timestamp": "2022-04-13T16:21:08Z",
    "version": 6,
    "changeset": 119667803,
    "user": "wheelmap_visitor",
    "uid": 290680,
    "tags": {
      "addr:city": "Sant Joan d'Alacant",
      "addr:housenumber": "27",
      "addr:postcode": "03550",
      "addr:street": "Juan Sebastián el Cano",
      "amenity": "restaurant",
      "contact:facebook": "https://www.facebook.com/Restaurante-Cafeteria-Bar-Quintin-608472605885423/",
      "cuisine": "mediterranean",
      "email": "roberto.rf@hotmail.es",
      "name": "Quintin",
      "opening_hours": "7:00-23:00",
      "phone": "+34 965650209",
      "wheelchair": "no"
    }
  },
  {
    "type": "node",
    "id": 1141113335,
    "lat": 38.3639224,
    "lon": -0.4426785,
    "timestamp": "2011-02-07T18:48:02Z",
    "version": 1,
    "changeset": 7219167,
    "user": "montmalo",
    "uid": 405762,
    "tags": {
      "amenity": "restaurant",
      "name": "Casa Jesus"
    }
  },
  {
    "type": "node",
    "id": 1141994104,
    "lat": 38.4820268,
    "lon": -0.4188675,
    "timestamp": "2022-12-31T18:58:01Z",
    "version": 2,
    "changeset": 130731396,
    "user": "rombik97",
    "uid": 9583643,
    "tags": {
      "amenity": "restaurant",
      "name": "Bar Rte. Molina"
    }
  },
  {
    "type": "node",
    "id": 1141998779,
    "lat": 38.4792826,
    "lon": -0.4238187,
    "timestamp": "2017-10-05T21:14:27Z",
    "version": 3,
    "changeset": 52666900,
    "user": "5R-MFT",
    "uid": 3417876,
    "tags": {
      "amenity": "restaurant",
      "name": "Rte. El Poli"
    }
  },
  {
    "type": "node",
    "id": 1142001905,
    "lat": 38.481195,
    "lon": -0.4197807,
    "timestamp": "2019-05-06T13:08:00Z",
    "version": 2,
    "changeset": 69935698,
    "user": "Ornios",
    "uid": 733392,
    "tags": {
      "amenity": "restaurant",
      "name": "Bar Rte. El Nou Carril"
    }
  },
  {
    "type": "node",
    "id": 1142022983,
    "lat": 38.4612613,
    "lon": -0.438063,
    "timestamp": "2017-10-05T21:05:54Z",
    "version": 2,
    "changeset": 52666625,
    "user": "5R-MFT",
    "uid": 3417876,
    "tags": {
      "amenity": "restaurant",
      "name": "Bar Rte. Naharro"
    }
  },
  {
    "type": "node",
    "id": 1142145517,
    "lat": 38.4982702,
    "lon": -0.4180113,
    "timestamp": "2024-11-21T23:15:19Z",
    "version": 4,
    "changeset": 159438547,
    "user": "arte2002",
    "uid": 662113,
    "tags": {
      "alt_name": "Restaurante Cinco hermanos",
      "amenity": "restaurant",
      "name": "Restaurante 5 Hermanos"
    }
  },
  {
    "type": "node",
    "id": 1145347235,
    "lat": 38.2664941,
    "lon": -0.6959596,
    "timestamp": "2024-10-29T09:58:54Z",
    "version": 5,
    "changeset": 158490007,
    "user": "kapazao_import",
    "uid": 8770019,
    "tags": {
      "amenity": "restaurant",
      "cuisine": "regional",
      "email": "taperiaelcarrer@gmail.com",
      "name": "Tapería El Carrer",
      "phone": "+34 965 45 83 33"
    }
  },
  {
    "type": "node",
    "id": 1221461693,
    "lat": 38.2310177,
    "lon": -0.5258365,
    "timestamp": "2016-06-15T23:07:57Z",
    "version": 2,
    "changeset": 40049821,
    "user": "Hains",
    "uid": 4123002,
    "tags": {
      "addr:postcode": "03130",
      "amenity": "restaurant",
      "cuisine": "steak_house;argentinian;pasta",
      "name": "La Paletta"
    }
  },
  {
    "type": "node",
    "id": 1300943979,
    "lat": 38.3896809,
    "lon": -0.5117069,
    "timestamp": "2023-09-21T20:23:53Z",
    "version": 3,
    "changeset": 141576724,
    "user": "Hugoren Martinako",
    "uid": 3392826,
    "tags": {
      "amenity": "restaurant",
      "cuisine": "regional",
      "microbrewery": "no",
      "name": "Arrayán",
      "phone": "+34 965671375"
    }
  },
  {
    "type": "node",
    "id": 1301693344,
    "lat": 38.3909533,
    "lon": -0.5199258,
    "timestamp": "2014-03-01T08:46:25Z",
    "version": 4,
    "changeset": 20841144,
    "user": "Josef73",
    "uid": 213831,
    "tags": {
      "amenity": "restaurant",
      "cuisine": "italian",
      "name": "El Rancho de la Patata",
      "opening_hours": "Th-Su,Mo 12:00-16:00,19:00-24:00; We 19:00-24:00"
    }
  },
  {
    "type": "node",
    "id": 1301693361,
    "lat": 38.391151,
    "lon": -0.520168,
    "timestamp": "2017-11-30T05:42:30Z",
    "version": 4,
    "changeset": 54195854,
    "user": "parukhin",
    "uid": 519501,
    "tags": {
      "amenity": "restaurant",
      "name": "La Hacienda del Jamón",
      "opening_hours": "Tu-Fr"
    }
  },
  {
    "type": "node",
    "id": 1301762318,
    "lat": 38.3919455,
    "lon": -0.5223421,
    "timestamp": "2012-11-12T15:04:41Z",
    "version": 2,
    "changeset": 13847781,
    "user": "hulius",
    "uid": 24940,
    "tags": {
      "amenity": "restaurant",
      "cuisine": "regional",
      "name": "El rincón del refranero",
      "smoking": "no",
      "wheelchair": "yes"
    }
  },
  {
    "type": "node",
    "id": 1307674571,
    "lat": 38.3936551,
    "lon": -0.5189961,
    "timestamp": "2016-04-29T17:06:56Z",
    "version": 3,
    "changeset": 38984514,
    "user": "hulius",
    "uid": 24940,
    "tags": {
      "addr:housenumber": "50",
      "addr:street": "calle Alicante",
      "amenity": "restaurant",
      "cuisine": "kebab",
      "name": "Euro Doner Kebap"
    }
  },
  {
    "type": "node",
    "id": 1307698750,
    "lat": 38.3944271,
    "lon": -0.515701,
    "timestamp": "2011-06-01T13:23:42Z",
    "version": 1,
    "changeset": 8310265,
    "user": "j3m",
    "uid": 9250,
    "tags": {
      "amenity": "restaurant",
      "cuisine": "chinese",
      "name": "Kin Du",
      "opening_hours": "Tu-Su 08:00-15:00;Sa 08:00-12:00"
    }
  },
  {
    "type": "node",
    "id": 1317197203,
    "lat": 38.349374,
    "lon": -0.4867714,
    "timestamp": "2024-02-03T19:47:39Z",
    "version": 6,
    "changeset": 147032139,
    "user": "kapazao_import",
    "uid": 8770019,
    "tags": {
      "addr:housenumber": "10",
      "addr:street": "Calle del Capitán Segarra",
      "amenity": "restaurant",
      "cuisine": "spanish",
      "name": "La Lonja",
      "opening_hours": "Mo-Sa 07:00-22:00; Su 08:00-16:30",
      "phone": "+34 965203433",
      "wheelchair": "yes",
      "wikidata": "Q111117479"
    }
  },
  {
    "type": "node",
    "id": 1323451350,
    "lat": 38.2640665,
    "lon": -0.6993281,
    "timestamp": "2015-03-15T13:34:51Z",
    "version": 2,
    "changeset": 29495352,
    "user": "Oninezumi8",
    "uid": 2757870,
    "tags": {
      "amenity": "restaurant",
      "name": "Café Praga",
      "wheelchair": "no"
    }
  },
  {
    "type": "node",
    "id": 1323451351,
    "lat": 38.2670326,
    "lon": -0.7011197,
    "timestamp": "2011-09-07T12:59:49Z",
    "version": 2,
    "changeset": 9236754,
    "user": "JaviCru",
    "uid": 256493,
    "tags": {
      "amenity": "restaurant",
      "cuisine": "spanish",
      "name": "Bar El Águila"
    }
  },
  {
    "type": "node",
    "id": 1334716797,
    "lat": 38.3413042,
    "lon": -0.514114,
    "timestamp": "2020-04-17T09:46:00Z",
    "version": 3,
    "changeset": 83697191,
    "user": "PRALINNE",
    "uid": 11042561,
    "tags": {
      "addr:postcode": "03007",
      "addr:street": "calle Tomás Aznar Domenech",
      "amenity": "restaurant",
      "cuisine": "spanish"
    }
  },
  {
    "type": "node",
    "id": 1339993160,
    "lat": 38.190953,
    "lon": -0.5840826,
    "timestamp": "2022-09-22T17:10:22Z",
    "version": 2,
    "changeset": 126514321,
    "user": "gpesquero",
    "uid": 3584,
    "tags": {
      "amenity": "restaurant",
      "name": "Tamarit"
    }
  },
  {
    "type": "node",
    "id": 1340575543,
    "lat": 38.1908747,
    "lon": -0.5595938,
    "timestamp": "2021-09-16T09:10:47Z",
    "version": 3,
    "changeset": 111280558,
    "user": "b-jazz-bot",
    "uid": 9451067,
    "tags": {
      "addr:housenumber": "6",
      "addr:street": "Avinguda de Fernando Pérez de Ojeda / Avenida de Fernando Pérez de Ojeda",
      "amenity": "restaurant",
      "cuisine": "regional",
      "mobile": "+34 636 549 735",
      "name": "Batiste",
      "phone": "+34 96 541 14 85",
      "website": "https://restaurantebatiste.es/"
    }
  },
  {
    "type": "node",
    "id": 1340576595,
    "lat": 38.1902293,
    "lon": -0.5574848,
    "timestamp": "2021-09-15T13:31:42Z",
    "version": 2,
    "changeset": 111245655,
    "user": "gpesquero",
    "uid": 3584,
    "tags": {
      "amenity": "restaurant",
      "cuisine": "regional",
      "name": "El Bronce",
      "old_name": "Porto Bello",
      "phone": "+34 621 27 30 38",
      "source": "survey",
      "website": "https://restauranteelbronce.com/"
    }
  },
  {
    "type": "node",
    "id": 1340576648,
    "lat": 38.1891908,
    "lon": -0.5564817,
    "timestamp": "2022-09-22T20:56:17Z",
    "version": 2,
    "changeset": 126521693,
    "user": "gpesquero",
    "uid": 3584,
    "tags": {
      "amenity": "restaurant",
      "name": "Los Curros",
      "phone": "+34 965 41 11 21",
      "source": "survey"
    }
  },
  {
    "type": "node",
    "id": 1357168533,
    "lat": 38.0907918,
    "lon": -0.6465884,
    "timestamp": "2020-02-17T13:15:42Z",
    "version": 5,
    "changeset": 81116604,
    "user": "Ornios",
    "uid": 733392,
    "tags": {
      "amenity": "restaurant",
      "cuisine": "rice",
      "name": "Arrocería Valentí",
      "phone": "+34 956 72 90 70",
      "source": "survey"
    }
  },
  {
    "type": "node",
    "id": 1375001514,
    "lat": 38.2687144,
    "lon": -0.7044244,
    "timestamp": "2011-07-26T17:26:32Z",
    "version": 1,
    "changeset": 8837873,
    "user": "JaviCru",
    "uid": 256493,
    "tags": {
      "amenity": "restaurant",
      "name": "Bar Piedad"
    }
  },
  {
    "type": "node",
    "id": 1375001515,
    "lat": 38.267209,
    "lon": -0.7048134,
    "timestamp": "2011-07-26T17:26:32Z",
    "version": 1,
    "changeset": 8837873,
    "user": "JaviCru",
    "uid": 256493,
    "tags": {
      "amenity": "restaurant",
      "name": "Mesón El Granaino"
    }
  },
  {
    "type": "node",
    "id": 1375006465,
    "lat": 38.2666356,
    "lon": -0.701134,
    "timestamp": "2011-09-07T12:59:50Z",
    "version": 2,
    "changeset": 9236754,
    "user": "JaviCru",
    "uid": 256493,
    "tags": {
      "amenity": "restaurant",
      "cuisine": "spanish",
      "name": "El Forjador"
    }
  },
  {
    "type": "node",
    "id": 1375006467,
    "lat": 38.2685473,
    "lon": -0.7016742,
    "timestamp": "2011-07-26T17:29:50Z",
    "version": 1,
    "changeset": 8837896,
    "user": "JaviCru",
    "uid": 256493,
    "tags": {
      "amenity": "restaurant",
      "name": "Persia"
    }
  },
  {
    "type": "node",
    "id": 1385923673,
    "lat": 38.3378137,
    "lon": -0.5082855,
    "timestamp": "2011-08-04T11:09:02Z",
    "version": 1,
    "changeset": 8918538,
    "user": "gila92",
    "uid": 451843,
    "tags": {
      "addr:street": "calle Méjico",
      "amenity": "restaurant",
      "cuisine": "kebab",
      "name": "Döner Kebab"
    }
  },
  {
    "type": "node",
    "id": 1386461112,
    "lat": 38.7300968,
    "lon": -0.364916,
    "timestamp": "2017-03-17T10:56:05Z",
    "version": 3,
    "changeset": 46924332,
    "user": "Kenobi-LJN",
    "uid": 3828090,
    "tags": {
      "addr:city": "Millena",
      "addr:housenumber": "18",
      "addr:postcode": "03812",
      "addr:street": "Calle San Roque",
      "amenity": "restaurant",
      "cuisine": "regional",
      "name": "Bar restaurante Millena"
    }
  },
  {
    "type": "node",
    "id": 1467602799,
    "lat": 38.1033677,
    "lon": -0.7025583,
    "timestamp": "2019-09-01T06:50:59Z",
    "version": 3,
    "changeset": 73964029,
    "user": "Ornios",
    "uid": 733392,
    "tags": {
      "amenity": "restaurant",
      "cuisine": "spanish",
      "name": "Restaurante Salón Paco"
    }
  },
  {
    "type": "node",
    "id": 1472997717,
    "lat": 38.5322441,
    "lon": -0.5803474,
    "timestamp": "2011-10-19T11:12:38Z",
    "version": 1,
    "changeset": 9598798,
    "user": "hulius",
    "uid": 24940,
    "tags": {
      "amenity": "restaurant",
      "cuisine": "regional",
      "name": "Restaurante Piscina"
    }
  },
  {
    "type": "node",
    "id": 1478347022,
    "lat": 38.0106969,
    "lon": -0.695106,
    "timestamp": "2019-09-01T09:24:35Z",
    "version": 6,
    "changeset": 73968360,
    "user": "Ornios",
    "uid": 733392,
    "tags": {
      "amenity": "restaurant",
      "cuisine": "chinese",
      "name": "Restaurante Casa Xu"
    }
  },
  {
    "type": "node",
    "id": 1504340541,
    "lat": 38.0855518,
    "lon": -0.944733,
    "timestamp": "2011-11-15T19:34:49Z",
    "version": 1,
    "changeset": 9838088,
    "user": "benjavalero",
    "uid": 122503,
    "tags": {
      "amenity": "restaurant",
      "name": "Restaurante El Cardenal"
    }
  },
  {
    "type": "node",
    "id": 1510026753,
    "lat": 38.3521315,
    "lon": -0.4662965,
    "timestamp": "2025-03-04T23:33:43Z",
    "version": 5,
    "changeset": 163223344,
    "user": "PacLe",
    "uid": 687266,
    "tags": {
      "amenity": "restaurant",
      "name": "Puntapiedra"
    }
  },
  {
    "type": "node",
    "id": 1515792900,
    "lat": 38.3490958,
    "lon": -0.4865989,
    "timestamp": "2019-11-22T15:23:05Z",
    "version": 3,
    "changeset": 77434856,
    "user": "Wim L",
    "uid": 223681,
    "tags": {
      "amenity": "restaurant",
      "name": "Damasol"
    }
  },
  {
    "type": "node",
    "id": 1562502597,
    "lat": 38.1362984,
    "lon": -1.009945,
    "timestamp": "2019-03-12T18:56:20Z",
    "version": 2,
    "changeset": 68074153,
    "user": "Ornios",
    "uid": 733392,
    "tags": {
      "addr:housenumber": "9A",
      "addr:street": "Calle La Parroquia",
      "amenity": "restaurant",
      "name": "Restaurante La Terraza"
    }
  },
  {
    "type": "node",
    "id": 1620592628,
    "lat": 38.2949128,
    "lon": -0.5824043,
    "timestamp": "2012-02-10T17:38:21Z",
    "version": 3,
    "changeset": 10640755,
    "user": "wheelmap_visitor",
    "uid": 290680,
    "tags": {
      "amenity": "restaurant",
      "name": "Restaurante Los Almendros",
      "wheelchair": "yes"
    }
  },
  {
    "type": "node",
    "id": 1620592668,
    "lat": 38.3966102,
    "lon": -0.5126696,
    "timestamp": "2020-03-21T11:56:50Z",
    "version": 3,
    "changeset": 82457807,
    "user": "Montse_Tarazona",
    "uid": 10885824,
    "tags": {
      "amenity": "restaurant",
      "name": "Ja Voràs",
      "wheelchair": "yes",
      "wifi": "no"
    }
  },
  {
    "type": "node",
    "id": 1628241304,
    "lat": 38.0384136,
    "lon": -0.8238743,
    "timestamp": "2012-10-05T08:23:37Z",
    "version": 2,
    "changeset": 13369308,
    "user": "chrisinthebus",
    "uid": 436859,
    "tags": {
      "amenity": "restaurant",
      "name": "El Juglar Mudo"
    }
  },
  {
    "type": "node",
    "id": 1663183213,
    "lat": 38.1879553,
    "lon": -0.557573,
    "timestamp": "2021-09-15T13:31:42Z",
    "version": 3,
    "changeset": 111245655,
    "user": "gpesquero",
    "uid": 3584,
    "tags": {
      "amenity": "restaurant",
      "cuisine": "spanish",
      "name": "La Taberna del Puerto"
    }
  },
  {
    "type": "node",
    "id": 1666059058,
    "lat": 38.3408667,
    "lon": -0.5022593,
    "timestamp": "2012-03-08T16:41:11Z",
    "version": 1,
    "changeset": 10910960,
    "user": "FernandoLL",
    "uid": 24514,
    "tags": {
      "addr:street": "Santa María Mazzarello",
      "amenity": "restaurant",
      "cuisine": "spanish",
      "name": "Bodega Adolfo"
    }
  },
  {
    "type": "node",
    "id": 1667361400,
    "lat": 38.1152059,
    "lon": -1.2958306,
    "timestamp": "2019-04-22T11:00:41Z",
    "version": 3,
    "changeset": 69448901,
    "user": "Ornios",
    "uid": 733392,
    "tags": {
      "addr:city": "Archena",
      "addr:housenumber": "25",
      "addr:postcode": "30600",
      "addr:street": "Avenida del Carril",
      "amenity": "restaurant",
      "name": "Bar El Carril",
      "phone": "+34 968 67 41 42"
    }
  },
  {
    "type": "node",
    "id": 1667435683,
    "lat": 38.399484,
    "lon": -0.52142,
    "timestamp": "2022-12-25T00:36:54Z",
    "version": 5,
    "changeset": 130470413,
    "user": "jmaspons",
    "uid": 11725140,
    "tags": {
      "amenity": "restaurant",
      "name": "Altamira",
      "name:ca": "Altamira"
    }
  },
  {
    "type": "node",
    "id": 1667459062,
    "lat": 38.4024605,
    "lon": -0.5214833,
    "timestamp": "2012-03-09T16:15:41Z",
    "version": 1,
    "changeset": 10921831,
    "user": "Angel49",
    "uid": 622053,
    "tags": {
      "amenity": "restaurant"
    }
  },
  {
    "type": "node",
    "id": 1669088501,
    "lat": 38.4032284,
    "lon": -0.5263721,
    "timestamp": "2012-03-10T19:22:48Z",
    "version": 1,
    "changeset": 10935597,
    "user": "Angel49",
    "uid": 622053,
    "tags": {
      "amenity": "restaurant"
    }
  },
  {
    "type": "node",
    "id": 1669168164,
    "lat": 38.2410492,
    "lon": -0.5260703,
    "timestamp": "2023-05-25T20:00:39Z",
    "version": 4,
    "changeset": 136558020,
    "user": "gpesquero",
    "uid": 3584,
    "tags": {
      "addr:city": "Gran Alacant",
      "addr:housenumber": "214",
      "addr:postcode": "03130",
      "addr:street": "Avinguda de Noruega / Avenida de Noruega",
      "amenity": "restaurant",
      "cuisine": "fast_food;regional",
      "name": "Hispania"
    }
  },
  {
    "type": "node",
    "id": 1669168167,
    "lat": 38.2341697,
    "lon": -0.5498119,
    "timestamp": "2023-05-25T19:45:40Z",
    "version": 4,
    "changeset": 136557605,
    "user": "gpesquero",
    "uid": 3584,
    "tags": {
      "addr:postcode": "03130",
      "addr:street": "Avinguda de Finlàndia / Avenida de Finlandia",
      "amenity": "restaurant",
      "cuisine": "spanish",
      "internet_access": "wlan",
      "name": "Restaurante Matola",
      "phone": "+34 966631252",
      "website": "http://restaurantematola.com"
    }
  },
  {
    "type": "node",
    "id": 1669168171,
    "lat": 38.2406676,
    "lon": -0.5263835,
    "timestamp": "2023-05-25T20:00:39Z",
    "version": 4,
    "changeset": 136558020,
    "user": "gpesquero",
    "uid": 3584,
    "tags": {
      "addr:city": "Gran Alacant",
      "addr:housenumber": "214",
      "addr:postcode": "03130",
      "addr:street": "Avinguda de Noruega / Avenida de Noruega",
      "amenity": "restaurant",
      "cuisine": "mexican;pizza;pasta",
      "name": "Texicano Internacional",
      "outdoor_seating": "yes",
      "takeaway": "yes"
    }
  },
  {
    "type": "node",
    "id": 1669168173,
    "lat": 38.2337104,
    "lon": -0.5504073,
    "timestamp": "2012-03-10T20:12:48Z",
    "version": 1,
    "changeset": 10936281,
    "user": "Angel49",
    "uid": 622053,
    "tags": {
      "amenity": "restaurant"
    }
  },
  {
    "type": "node",
    "id": 1669168174,
    "lat": 38.2410882,
    "lon": -0.5260153,
    "timestamp": "2023-05-25T20:00:39Z",
    "version": 4,
    "changeset": 136558020,
    "user": "gpesquero",
    "uid": 3584,
    "tags": {
      "addr:city": "Santa Pola",
      "addr:housenumber": "214",
      "addr:postcode": "03130",
      "addr:street": "Avinguda de Noruega / Avenida de Noruega",
      "amenity": "restaurant",
      "cuisine": "greek;international",
      "name": "Alexandria",
      "outdoor_seating": "yes"
    }
  },
  {
    "type": "node",
    "id": 1669168177,
    "lat": 38.2338705,
    "lon": -0.550461,
    "timestamp": "2023-05-25T19:45:40Z",
    "version": 4,
    "changeset": 136557605,
    "user": "gpesquero",
    "uid": 3584,
    "tags": {
      "addr:postcode": "03130",
      "addr:street": "Avinguda de Finlàndia / Avenida de Finlandia",
      "amenity": "restaurant",
      "cuisine": "asian",
      "internet_access": "wlan",
      "name": "Maritao Kitchen",
      "opening_hours": "Mo-Su 12:00-00:00",
      "phone": "+34 966699775"
    }
  },
  {
    "type": "node",
    "id": 1669168178,
    "lat": 38.2319322,
    "lon": -0.5235369,
    "timestamp": "2023-05-25T20:00:39Z",
    "version": 3,
    "changeset": 136558020,
    "user": "gpesquero",
    "uid": 3584,
    "tags": {
      "addr:postcode": "03130",
      "addr:street": "Avinguda del País Valencià / Avenida del País Valenciano",
      "amenity": "restaurant",
      "cuisine": "pizza;italian_pizza;persian;greek;spanish;kebab",
      "name": "Dragón III",
      "opening_hours": "Mo-Su 13:00-01:00"
    }
  },
  {
    "type": "node",
    "id": 1671007803,
    "lat": 38.0319686,
    "lon": -0.8193238,
    "timestamp": "2021-03-07T15:54:49Z",
    "version": 5,
    "changeset": 100580377,
    "user": "hovelu",
    "uid": 2363504,
    "tags": {
      "addr:city": "Orihuela",
      "addr:place": "Entrenaranjos",
      "addr:postcode": "03319",
      "addr:province": "Alicante",
      "addr:street": "Calle Mandarino",
      "amenity": "restaurant",
      "cuisine": "indian",
      "name": "Dawat",
      "takeaway": "yes"
    }
  },
  {
    "type": "node",
    "id": 1671007808,
    "lat": 38.0311419,
    "lon": -0.8232116,
    "timestamp": "2021-03-07T15:54:49Z",
    "version": 3,
    "changeset": 100580377,
    "user": "hovelu",
    "uid": 2363504,
    "tags": {
      "addr:city": "Orihuela",
      "addr:place": "Entrenaranjos",
      "addr:postcode": "03319",
      "addr:province": "Alicante",
      "addr:street": "Calle Melocotonero",
      "amenity": "restaurant",
      "name": "Alegria Cafe-Bar"
    }
  },
  {
    "type": "node",
    "id": 1675860592,
    "lat": 38.2366385,
    "lon": -0.5954158,
    "timestamp": "2012-03-15T15:17:10Z",
    "version": 1,
    "changeset": 10988965,
    "user": "peines",
    "uid": 625607,
    "tags": {
      "amenity": "restaurant"
    }
  },
  {
    "type": "node",
    "id": 1702683435,
    "lat": 38.8784062,
    "lon": -1.1426541,
    "timestamp": "2023-07-28T12:49:12Z",
    "version": 3,
    "changeset": 139134281,
    "user": "Piquero",
    "uid": 5411431,
    "tags": {
      "amenity": "restaurant",
      "name": "Don Pepito de la Mancha"
    }
  },
  {
    "type": "node",
    "id": 1704161781,
    "lat": 38.1105353,
    "lon": -0.7924451,
    "timestamp": "2023-09-21T20:23:53Z",
    "version": 4,
    "changeset": 141576724,
    "user": "Hugoren Martinako",
    "uid": 3392826,
    "tags": {
      "addr:housenumber": "13",
      "addr:postcode": "03160",
      "addr:street": "Calle Pablo Picasso",
      "amenity": "restaurant",
      "cuisine": "pizza",
      "name": "Servi Pizza",
      "phone": "+34 966782234",
      "website": "https://servipizza.com/"
    }
  },
  {
    "type": "node",
    "id": 1708322820,
    "lat": 38.0099656,
    "lon": -1.164548,
    "timestamp": "2017-12-07T07:58:44Z",
    "version": 3,
    "changeset": 54423526,
    "user": "trekker48",
    "uid": 961387,
    "tags": {
      "amenity": "restaurant",
      "cuisine": "international",
      "name": "Carnivore"
    }
  },
  {
    "type": "node",
    "id": 1708329053,
    "lat": 38.00226,
    "lon": -1.1563511,
    "timestamp": "2012-04-09T11:31:17Z",
    "version": 1,
    "changeset": 11236884,
    "user": "ruayrod",
    "uid": 27906,
    "tags": {
      "amenity": "restaurant",
      "cuisine": "spanish",
      "designation": "Bar Restaurante Pulpo Churros",
      "name": "Botisan"
    }
  },
  {
    "type": "node",
    "id": 1715932772,
    "lat": 38.2465416,
    "lon": -0.703431,
    "timestamp": "2012-04-14T09:43:02Z",
    "version": 1,
    "changeset": 11296283,
    "user": "Julian Lozano",
    "uid": 13324,
    "tags": {
      "amenity": "restaurant"
    }
  },
  {
    "type": "node",
    "id": 1732114474,
    "lat": 38.9784548,
    "lon": -0.6901971,
    "timestamp": "2019-07-27T13:32:11Z",
    "version": 2,
    "changeset": 72716973,
    "user": "maarquitectura",
    "uid": 4425821,
    "tags": {
      "amenity": "restaurant",
      "name": "Meson enguerino",
      "outdoor_seating": "yes"
    }
  },
  {
    "type": "node",
    "id": 1734351547,
    "lat": 38.7833317,
    "lon": -0.7849022,
    "timestamp": "2012-04-28T18:54:52Z",
    "version": 1,
    "changeset": 11443584,
    "user": "rafsoga",
    "uid": 670080,
    "tags": {
      "amenity": "restaurant",
      "cuisine": "spanish",
      "name": "Restaurante Casa Julio"
    }
  },
  {
    "type": "node",
    "id": 1735176742,
    "lat": 38.4877904,
    "lon": -0.7742802,
    "timestamp": "2012-04-29T13:20:38Z",
    "version": 1,
    "changeset": 11449653,
    "user": "Ricky Vercetti",
    "uid": 670481,
    "tags": {
      "amenity": "restaurant"
    }
  },
  {
    "type": "node",
    "id": 1754765266,
    "lat": 38.4066364,
    "lon": -0.4713395,
    "timestamp": "2012-05-16T11:41:29Z",
    "version": 1,
    "changeset": 11613416,
    "user": "lomeu",
    "uid": 24481,
    "tags": {
      "amenity": "restaurant",
      "cuisine": "spanish",
      "name": "Mesón Los Curros"
    }
  },
  {
    "type": "node",
    "id": 1769414668,
    "lat": 38.3476711,
    "lon": -0.488167,
    "timestamp": "2024-12-17T21:58:02Z",
    "version": 5,
    "changeset": 160324213,
    "user": "sanchi",
    "uid": 170106,
    "tags": {
      "amenity": "restaurant",
      "name": "La terreta gastrobar",
      "name:es": "La terreta gastrobar",
      "phone": "+34 601712248",
      "website": "https://laterretagastrobar.es/"
    }
  },
  {
    "type": "node",
    "id": 1771477490,
    "lat": 38.483097,
    "lon": -0.7711308,
    "timestamp": "2025-02-01T22:08:58Z",
    "version": 3,
    "changeset": 162027601,
    "user": "arte2002",
    "uid": 662113,
    "tags": {
      "amenity": "restaurant"
    }
  },
  {
    "type": "node",
    "id": 1772584147,
    "lat": 38.1416843,
    "lon": -0.6750916,
    "timestamp": "2021-04-20T17:08:21Z",
    "version": 3,
    "changeset": 103285725,
    "user": "Parie",
    "uid": 246941,
    "tags": {
      "addr:housenumber": "6",
      "addr:postcode": "03177",
      "addr:street": "Plaza Sierra Castilla",
      "amenity": "restaurant",
      "cuisine": "italian",
      "name": "Restaurante Pisa",
      "source": "Catastro PNOA Bing Catastro 2021 Parie"
    }
  },
  {
    "type": "node",
    "id": 1773053927,
    "lat": 38.1332071,
    "lon": -0.6766255,
    "timestamp": "2012-07-08T14:27:52Z",
    "version": 4,
    "changeset": 12150043,
    "user": "ivodeb",
    "uid": 317031,
    "tags": {
      "addr:housenumber": "157",
      "addr:postcode": "03177",
      "addr:street": "Zona Comercial IV",
      "amenity": "restaurant",
      "cuisine": "international",
      "name": "The Grill House"
    }
  },
  {
    "type": "node",
    "id": 1785478540,
    "lat": 38.4882407,
    "lon": -0.3789927,
    "timestamp": "2012-06-13T01:42:28Z",
    "version": 1,
    "changeset": 11880637,
    "user": "PacLe",
    "uid": 687266,
    "tags": {
      "amenity": "restaurant"
    }
  },
  {
    "type": "node",
    "id": 1787195785,
    "lat": 38.0186895,
    "lon": -0.691159,
    "timestamp": "2017-09-10T19:19:03Z",
    "version": 3,
    "changeset": 51917584,
    "user": "trekker48",
    "uid": 961387,
    "tags": {
      "amenity": "restaurant",
      "name": "George´s Bar"
    }
  },
  {
    "type": "node",
    "id": 1787196918,
    "lat": 38.018607,
    "lon": -0.6978831,
    "timestamp": "2023-02-03T13:44:52Z",
    "version": 2,
    "changeset": 132043220,
    "user": "VARVAR8",
    "uid": 3850484,
    "tags": {
      "amenity": "restaurant",
      "name": "Elviras"
    }
  },
  {
    "type": "node",
    "id": 1787212839,
    "lat": 38.0219461,
    "lon": -0.7035687,
    "timestamp": "2019-07-22T11:53:44Z",
    "version": 4,
    "changeset": 72511858,
    "user": "Ornios",
    "uid": 733392,
    "tags": {
      "amenity": "restaurant",
      "name": "Restaurante Chino Ciudad Imperial"
    }
  },
  {
    "type": "node",
    "id": 1787213748,
    "lat": 38.0255339,
    "lon": -0.7045531,
    "timestamp": "2024-11-12T20:03:24Z",
    "version": 4,
    "changeset": 159065751,
    "user": "VARVAR8",
    "uid": 3850484,
    "tags": {
      "addr:housenumber": "1",
      "addr:street": "Calle Arbizu",
      "amenity": "restaurant",
      "contact:facebook": "https://www.facebook.com/oasistorrevieja",
      "contact:phone": "+34965270506",
      "name": "Oasis",
      "old_name": "Casa Ventura San Luis 2006, S.L.",
      "website": "http://www.oasissanluis.com/"
    }
  },
  {
    "type": "node",
    "id": 1788526517,
    "lat": 38.010754,
    "lon": -0.682892,
    "timestamp": "2024-11-02T22:29:35Z",
    "version": 2,
    "changeset": 158679320,
    "user": "VARVAR8",
    "uid": 3850484,
    "tags": {
      "amenity": "restaurant",
      "name": "Carmens",
      "outdoor_seating": "yes",
      "phone": "+34 965 077 480"
    }
  },
  {
    "type": "node",
    "id": 1788534420,
    "lat": 38.0108474,
    "lon": -0.6832231,
    "timestamp": "2024-11-02T22:29:35Z",
    "version": 3,
    "changeset": 158679320,
    "user": "VARVAR8",
    "uid": 3850484,
    "tags": {
      "amenity": "restaurant",
      "contact:facebook": "https://www.facebook.com/chelocoasador/",
      "name": "Che Loco - Asador",
      "opening_hours": "Su, Th 12:30-22:00; We 12:30-23:00; Fr, Sa 12:30-23:30",
      "outdoor_seating": "yes",
      "phone": "+34 965 979 163"
    }
  },
  {
    "type": "node",
    "id": 1788609031,
    "lat": 38.0103418,
    "lon": -0.6943292,
    "timestamp": "2012-06-15T15:01:09Z",
    "version": 2,
    "changeset": 11905585,
    "user": "Rickiticki",
    "uid": 704046,
    "tags": {
      "amenity": "restaurant",
      "cuisine": "pizza",
      "name": "Campobello"
    }
  },
  {
    "type": "node",
    "id": 1789860314,
    "lat": 38.0215755,
    "lon": -0.7066423,
    "timestamp": "2017-05-16T10:18:16Z",
    "version": 2,
    "changeset": 48726786,
    "user": "trekker48",
    "uid": 961387,
    "tags": {
      "amenity": "restaurant",
      "name": "Reflections Restaurant"
    }
  },
  {
    "type": "node",
    "id": 1789861507,
    "lat": 38.0232212,
    "lon": -0.7085119,
    "timestamp": "2015-04-13T06:43:30Z",
    "version": 3,
    "changeset": 30179817,
    "user": "Roger Scott",
    "uid": 1745500,
    "tags": {
      "amenity": "restaurant",
      "cuisine": "spanish",
      "name": "Restaurante Mesòn Villa Salada"
    }
  },
  {
    "type": "node",
    "id": 1792237560,
    "lat": 38.6277607,
    "lon": -0.5723975,
    "timestamp": "2012-06-17T19:08:32Z",
    "version": 1,
    "changeset": 11929220,
    "user": "xyzspain",
    "uid": 691534,
    "tags": {
      "amenity": "restaurant",
      "cuisine": "spanish",
      "name": "Ricardo"
    }
  },
  {
    "type": "node",
    "id": 1795453306,
    "lat": 38.1649794,
    "lon": -0.8034001,
    "timestamp": "2020-08-13T19:28:53Z",
    "version": 3,
    "changeset": 89372323,
    "user": "rgmf",
    "uid": 673578,
    "tags": {
      "addr:city": "Catral",
      "addr:housenumber": "34",
      "addr:postcode": "03158",
      "addr:street": "Pizzeria Ristorante 222 Catral",
      "amenity": "restaurant",
      "name": "Pizzeria Ristorante 222 Catral"
    }
  },
  {
    "type": "node",
    "id": 1795462952,
    "lat": 38.161118,
    "lon": -0.8017277,
    "timestamp": "2020-08-13T19:28:53Z",
    "version": 3,
    "changeset": 89372323,
    "user": "rgmf",
    "uid": 673578,
    "tags": {
      "addr:city": "Catral",
      "addr:housenumber": "1",
      "addr:postcode": "03185",
      "addr:street": "Calle La Purísima",
      "amenity": "restaurant",
      "cuisine": "pizza",
      "name": "Pizzería Ovi"
    }
  },
  {
    "type": "node",
    "id": 1795462954,
    "lat": 38.1618862,
    "lon": -0.801619,
    "timestamp": "2012-06-21T07:48:59Z",
    "version": 3,
    "changeset": 11965959,
    "user": "rgmf",
    "uid": 673578,
    "tags": {
      "amenity": "restaurant",
      "name": "Venecia"
    }
  },
  {
    "type": "node",
    "id": 1796732447,
    "lat": 38.1657353,
    "lon": -0.8028273,
    "timestamp": "2020-08-31T13:34:32Z",
    "version": 2,
    "changeset": 90195173,
    "user": "rgmf",
    "uid": 673578,
    "tags": {
      "addr:city": "Catral",
      "addr:housenumber": "74",
      "addr:postcode": "03158",
      "addr:street": "Calle La Purísima",
      "amenity": "restaurant",
      "name": "El Jardín"
    }
  },
  {
    "type": "node",
    "id": 1796925557,
    "lat": 38.1570147,
    "lon": -0.8001172,
    "timestamp": "2020-08-13T14:20:02Z",
    "version": 3,
    "changeset": 89362082,
    "user": "rgmf",
    "uid": 673578,
    "tags": {
      "addr:city": "Catral",
      "addr:housenumber": "29",
      "addr:postcode": "03158",
      "addr:street": "Proyecto N12",
      "amenity": "restaurant",
      "name": "Bar-Kiosko El Parque"
    }
  },
  {
    "type": "node",
    "id": 1796925558,
    "lat": 38.1595393,
    "lon": -0.8007727,
    "timestamp": "2020-08-13T14:20:02Z",
    "version": 2,
    "changeset": 89362082,
    "user": "rgmf",
    "uid": 673578,
    "tags": {
      "addr:city": "Catral",
      "addr:housenumber": "5",
      "addr:postcode": "03158",
      "addr:street": "Calle Manuel Flores",
      "amenity": "restaurant",
      "name": "Cervecería Sánchez"
    }
  },
  {
    "type": "node",
    "id": 1798010760,
    "lat": 38.1771046,
    "lon": -0.7969755,
    "timestamp": "2023-11-09T08:16:37Z",
    "version": 3,
    "changeset": 143810924,
    "user": "rgmf",
    "uid": 673578,
    "tags": {
      "addr:city": "San Felipe de Neri",
      "addr:housenumber": "8",
      "addr:postcode": "03158",
      "addr:street": "Calle Cervantes",
      "amenity": "restaurant",
      "name": "Casa Harry"
    }
  },
  {
    "type": "node",
    "id": 1798130327,
    "lat": 38.1140622,
    "lon": -0.7171168,
    "timestamp": "2024-06-06T11:28:12Z",
    "version": 6,
    "changeset": 152327219,
    "user": "user384795",
    "uid": 21032720,
    "tags": {
      "addr:city": "San Fulgencio",
      "addr:postcode": "03177",
      "addr:street": "Calle Gabriel Miro",
      "amenity": "restaurant",
      "cuisine": "italian;burger;mediterranean",
      "name": "Restaurante Bibiana´s",
      "source": "fuckencio"
    }
  },
  {
    "type": "node",
    "id": 1798411806,
    "lat": 38.5025379,
    "lon": -0.7362848,
    "timestamp": "2012-07-08T17:43:31Z",
    "version": 2,
    "changeset": 12152458,
    "user": "cartago_1968",
    "uid": 705386,
    "tags": {
      "amenity": "restaurant",
      "name": "Molino de la reja"
    }
  },
  {
    "type": "node",
    "id": 1802740741,
    "lat": 38.7104266,
    "lon": -0.9775203,
    "timestamp": "2018-01-25T08:52:15Z",
    "version": 3,
    "changeset": 55734065,
    "user": "Edgarramirez29",
    "uid": 7443681,
    "tags": {
      "amenity": "restaurant",
      "cuisine": "regional",
      "name": "Vilmar",
      "outdoor_seating": "yes",
      "smoking": "isolated"
    }
  },
  {
    "type": "node",
    "id": 1806688431,
    "lat": 38.082262,
    "lon": -0.7339787,
    "timestamp": "2023-09-21T20:23:53Z",
    "version": 3,
    "changeset": 141576724,
    "user": "Hugoren Martinako",
    "uid": 3392826,
    "tags": {
      "addr:city": "Benijófar",
      "addr:housenumber": "1",
      "addr:postcode": "03078",
      "addr:street": "Calle Aneto",
      "amenity": "restaurant",
      "capacity": "90",
      "cuisine": "international",
      "delivery": "no",
      "name": "Let´s Eat",
      "phone": "+34 966078655",
      "smoking": "outside",
      "takeaway": "no",
      "wheelchair": "yes"
    }
  },
  {
    "type": "node",
    "id": 1817675873,
    "lat": 38.1331876,
    "lon": -0.6770502,
    "timestamp": "2019-06-07T09:23:19Z",
    "version": 3,
    "changeset": 71016449,
    "user": "greg_at_darklight",
    "uid": 10060043,
    "tags": {
      "addr:housenumber": "101",
      "addr:postcode": "03177",
      "addr:street": "Zona Comercial IV",
      "amenity": "restaurant",
      "name": "Mel's Kitchen"
    }
  },
  {
    "type": "node",
    "id": 1817675884,
    "lat": 38.1330203,
    "lon": -0.6769518,
    "timestamp": "2013-01-20T15:17:59Z",
    "version": 4,
    "changeset": 14721629,
    "user": "ivodeb",
    "uid": 317031,
    "tags": {
      "addr:housenumber": "109-111",
      "addr:postcode": "03177",
      "addr:street": "Zona Comercial IV",
      "amenity": "restaurant",
      "cuisine": "french",
      "name": "Philippe & Francine"
    }
  },
  {
    "type": "node",
    "id": 1817687782,
    "lat": 38.1332045,
    "lon": -0.676833,
    "timestamp": "2013-03-02T13:52:42Z",
    "version": 3,
    "changeset": 15221622,
    "user": "cdavila",
    "uid": 26599,
    "tags": {
      "addr:postcode": "03177",
      "addr:street": "Zona Comercial IV",
      "amenity": "restaurant",
      "name": "Anadas"
    }
  },
  {
    "type": "node",
    "id": 1817716439,
    "lat": 38.1331034,
    "lon": -0.6764037,
    "timestamp": "2016-07-18T16:10:34Z",
    "version": 3,
    "changeset": 40823495,
    "user": "ivodeb",
    "uid": 317031,
    "tags": {
      "addr:postcode": "03177",
      "addr:street": "Zona Comercial IV",
      "amenity": "restaurant",
      "cuisine": "italian",
      "name": "La Terraza"
    }
  },
  {
    "type": "node",
    "id": 1817716441,
    "lat": 38.1329935,
    "lon": -0.6762697,
    "timestamp": "2013-03-02T13:52:42Z",
    "version": 2,
    "changeset": 15221622,
    "user": "cdavila",
    "uid": 26599,
    "tags": {
      "addr:postcode": "03177",
      "addr:street": "Zona Comercial IV",
      "amenity": "restaurant",
      "cuisine": "indian",
      "name": "Curry Mahal"
    }
  },
  {
    "type": "node",
    "id": 1818159263,
    "lat": 38.1330666,
    "lon": -0.6765255,
    "timestamp": "2021-04-10T17:29:35Z",
    "version": 4,
    "changeset": 102708862,
    "user": "mtmail",
    "uid": 8339,
    "tags": {
      "addr:postcode": "03177",
      "addr:street": "Zona Comercial IV",
      "amenity": "restaurant",
      "name": "Bonnies Restaurant"
    }
  },
  {
    "type": "node",
    "id": 1818159264,
    "lat": 38.1329999,
    "lon": -0.6766368,
    "timestamp": "2021-04-10T17:29:35Z",
    "version": 6,
    "changeset": 102708862,
    "user": "mtmail",
    "uid": 8339,
    "tags": {
      "addr:postcode": "03177",
      "addr:street": "Zona Comercial IV",
      "amenity": "restaurant",
      "cuisine": "spanish",
      "name": "Ramón"
    }
  },
  {
    "type": "node",
    "id": 1818958888,
    "lat": 38.1314483,
    "lon": -0.679124,
    "timestamp": "2012-07-09T15:09:34Z",
    "version": 2,
    "changeset": 12162808,
    "user": "ivodeb",
    "uid": 317031,
    "tags": {
      "amenity": "restaurant",
      "cuisine": "steak_house",
      "name": "Patagona"
    }
  },
  {
    "type": "node",
    "id": 1818958903,
    "lat": 38.1310729,
    "lon": -0.678146,
    "timestamp": "2019-06-07T09:19:30Z",
    "version": 3,
    "changeset": 71016357,
    "user": "greg_at_darklight",
    "uid": 10060043,
    "tags": {
      "amenity": "restaurant",
      "cuisine": "indian",
      "name": "Kumars"
    }
  },
  {
    "type": "node",
    "id": 1819016678,
    "lat": 38.131154,
    "lon": -0.6789858,
    "timestamp": "2016-07-18T16:10:34Z",
    "version": 3,
    "changeset": 40823495,
    "user": "ivodeb",
    "uid": 317031,
    "tags": {
      "amenity": "restaurant",
      "cuisine": "spanish",
      "name": "La Tía María"
    }
  },
  {
    "type": "node",
    "id": 1819016681,
    "lat": 38.131211,
    "lon": -0.6789844,
    "timestamp": "2012-07-09T15:09:33Z",
    "version": 1,
    "changeset": 12162808,
    "user": "ivodeb",
    "uid": 317031,
    "tags": {
      "amenity": "restaurant",
      "cuisine": "chinese",
      "name": "Victoria II"
    }
  },
  {
    "type": "node",
    "id": 1819016682,
    "lat": 38.1308043,
    "lon": -0.6789925,
    "timestamp": "2016-07-18T16:10:34Z",
    "version": 2,
    "changeset": 40823495,
    "user": "ivodeb",
    "uid": 317031,
    "tags": {
      "amenity": "restaurant",
      "cuisine": "burger",
      "name": "Aloha"
    }
  },
  {
    "type": "node",
    "id": 1819016683,
    "lat": 38.1307521,
    "lon": -0.6791266,
    "timestamp": "2017-07-24T14:56:22Z",
    "version": 3,
    "changeset": 50530971,
    "user": "trekker48",
    "uid": 961387,
    "tags": {
      "amenity": "restaurant",
      "name": "Compass Nordic Bistro"
    }
  },
  {
    "type": "node",
    "id": 1819016684,
    "lat": 38.1308154,
    "lon": -0.679124,
    "timestamp": "2017-07-24T14:58:02Z",
    "version": 3,
    "changeset": 50531004,
    "user": "trekker48",
    "uid": 961387,
    "tags": {
      "amenity": "restaurant",
      "name": "La Luz"
    }
  },
  {
    "type": "node",
    "id": 1819016687,
    "lat": 38.1313354,
    "lon": -0.6789858,
    "timestamp": "2012-07-09T15:09:33Z",
    "version": 1,
    "changeset": 12162808,
    "user": "ivodeb",
    "uid": 317031,
    "tags": {
      "amenity": "restaurant",
      "name": "Rojos"
    }
  },
  {
    "type": "node",
    "id": 1819016689,
    "lat": 38.1309093,
    "lon": -0.6789999,
    "timestamp": "2012-07-09T15:09:33Z",
    "version": 1,
    "changeset": 12162808,
    "user": "ivodeb",
    "uid": 317031,
    "tags": {
      "amenity": "restaurant",
      "cuisine": "chinese",
      "name": "Gran China"
    }
  },
  {
    "type": "node",
    "id": 1819016691,
    "lat": 38.1312764,
    "lon": -0.6789845,
    "timestamp": "2016-07-18T16:10:34Z",
    "version": 2,
    "changeset": 40823495,
    "user": "ivodeb",
    "uid": 317031,
    "tags": {
      "amenity": "restaurant",
      "cuisine": "german",
      "name": "La Tabernita"
    }
  },
  {
    "type": "node",
    "id": 1825420701,
    "lat": 38.0805123,
    "lon": -0.7377222,
    "timestamp": "2012-09-28T16:55:22Z",
    "version": 3,
    "changeset": 13287442,
    "user": "Ornios",
    "uid": 733392,
    "tags": {
      "amenity": "restaurant",
      "cuisine": "spanish",
      "name": "El gusto"
    }
  },
  {
    "type": "node",
    "id": 1825972901,
    "lat": 38.1147561,
    "lon": -0.7625921,
    "timestamp": "2012-07-15T07:24:26Z",
    "version": 2,
    "changeset": 12224178,
    "user": "Ornios",
    "uid": 733392,
    "tags": {
      "amenity": "restaurant",
      "cuisine": "spanish",
      "name": "Yo-Yo"
    }
  },
  {
    "type": "node",
    "id": 1826017583,
    "lat": 38.0278963,
    "lon": -0.7457263,
    "timestamp": "2023-03-24T19:30:45Z",
    "version": 5,
    "changeset": 134081956,
    "user": "VARVAR8",
    "uid": 3850484,
    "tags": {
      "addr:street": "Avenida del Mar",
      "amenity": "restaurant",
      "cuisine": "pizza",
      "name": "Giovanotti"
    }
  },
  {
    "type": "node",
    "id": 1829582723,
    "lat": 38.0881636,
    "lon": -0.6487741,
    "timestamp": "2020-02-07T15:05:50Z",
    "version": 4,
    "changeset": 80697442,
    "user": "Ornios",
    "uid": 733392,
    "tags": {
      "amenity": "restaurant",
      "cuisine": "indian",
      "name": "Restaurante Indio Swagat",
      "opening_hours": "Mo-Su 12:00-16:00,18:00-24:00"
    }
  },
  {
    "type": "node",
    "id": 1829584469,
    "lat": 38.0887607,
    "lon": -0.6487021,
    "timestamp": "2019-08-04T20:09:33Z",
    "version": 5,
    "changeset": 72998034,
    "user": "Ornios",
    "uid": 733392,
    "tags": {
      "amenity": "restaurant",
      "name": "Le Bleu",
      "opening_hours": "Tu-Su 10:00-23:00",
      "phone": "+34 966 72 54 82"
    }
  },
  {
    "type": "node",
    "id": 1829584587,
    "lat": 38.0884811,
    "lon": -0.6470572,
    "timestamp": "2019-08-04T20:42:08Z",
    "version": 2,
    "changeset": 72998638,
    "user": "Ornios",
    "uid": 733392,
    "tags": {
      "amenity": "restaurant",
      "name": "El Bocaíto"
    }
  },
  {
    "type": "node",
    "id": 1831422886,
    "lat": 38.0886945,
    "lon": -0.6523368,
    "timestamp": "2019-12-31T11:30:49Z",
    "version": 6,
    "changeset": 79053643,
    "user": "Ornios",
    "uid": 733392,
    "tags": {
      "addr:city": "Guardamar del Segura",
      "addr:housenumber": "26",
      "addr:postcode": "03140",
      "addr:street": "Avinguda dels Pins",
      "amenity": "restaurant",
      "cuisine": "regional;spanish",
      "email": "lacanyada@lacañadaguardamar.com",
      "name": "La Cañada",
      "phone": "+34 965 729 369",
      "website": "http://www.lacañadaguardamar.com/",
      "wheelchair": "yes"
    }
  },
  {
    "type": "node",
    "id": 1831424589,
    "lat": 38.0883502,
    "lon": -0.6522289,
    "timestamp": "2024-02-14T11:48:12Z",
    "version": 8,
    "changeset": 147447403,
    "user": "kapazao_import",
    "uid": 8770019,
    "tags": {
      "addr:housenumber": "32",
      "addr:street": "Avinguda dels Pins",
      "amenity": "restaurant",
      "cuisine": "italian",
      "name": "Trastevere",
      "opening_hours": "Mo-Sa 18:30-24:00; Su 13:00-24:00",
      "wheelchair": "limited"
    }
  },
  {
    "type": "node",
    "id": 1833908737,
    "lat": 38.3456968,
    "lon": -0.4816448,
    "timestamp": "2019-03-15T14:28:47Z",
    "version": 3,
    "changeset": 68176854,
    "user": "Ornios",
    "uid": 733392,
    "tags": {
      "amenity": "restaurant",
      "designation": "Gay Bar",
      "name": "Tapas Quo Vadis"
    }
  },
  {
    "type": "node",
    "id": 1836715728,
    "lat": 38.4888183,
    "lon": -0.7671757,
    "timestamp": "2012-07-24T16:17:56Z",
    "version": 1,
    "changeset": 12469704,
    "user": "cartago_1968",
    "uid": 705386,
    "tags": {
      "amenity": "restaurant"
    }
  },
  {
    "type": "node",
    "id": 1882802723,
    "lat": 38.0848947,
    "lon": -0.6492313,
    "timestamp": "2023-04-17T16:59:29Z",
    "version": 7,
    "changeset": 135024164,
    "user": "HubMiner",
    "uid": 238419,
    "tags": {
      "addr:city": "Guardamar del Segura",
      "addr:postcode": "03140",
      "addr:street": "Avinguda de Cervantes",
      "amenity": "restaurant",
      "cuisine": "spanish",
      "name": "Chema",
      "opening_hours": "Tu-Su 13:00-16:00,20:00-23:30",
      "website": "http://www.restaurantechema.com/"
    }
  },
  {
    "type": "node",
    "id": 1882804187,
    "lat": 38.0846085,
    "lon": -0.6493185,
    "timestamp": "2020-02-09T09:05:42Z",
    "version": 2,
    "changeset": 80744681,
    "user": "Ornios",
    "uid": 733392,
    "tags": {
      "amenity": "restaurant",
      "cuisine": "italian",
      "name": "Piazza Grande",
      "old_name": "La Terraza Italiana"
    }
  },
  {
    "type": "node",
    "id": 1891275245,
    "lat": 38.0490523,
    "lon": -0.7106029,
    "timestamp": "2019-04-29T16:03:34Z",
    "version": 2,
    "changeset": 69702480,
    "user": "Ornios",
    "uid": 733392,
    "tags": {
      "addr:housenumber": "8",
      "addr:street": "Calle Presidente de la Generalitat",
      "amenity": "restaurant",
      "name": "Pizzería 222"
    }
  },
  {
    "type": "node",
    "id": 1894944682,
    "lat": 38.1345699,
    "lon": -0.687603,
    "timestamp": "2017-07-24T15:00:40Z",
    "version": 2,
    "changeset": 50531055,
    "user": "trekker48",
    "uid": 961387,
    "tags": {
      "amenity": "restaurant",
      "cuisine": "indian",
      "name": "Ganga Indian Restaurant"
    }
  },
  {
    "type": "node",
    "id": 1894944719,
    "lat": 38.1343885,
    "lon": -0.6872624,
    "timestamp": "2023-12-12T14:04:03Z",
    "version": 2,
    "changeset": 145039340,
    "user": "Simon49",
    "uid": 19617668,
    "tags": {
      "amenity": "restaurant",
      "cuisine": "spanish",
      "name": "The Lounge",
      "name:en": "El Toro",
      "name:es": "El Toro",
      "opening_hours": "Tu-Su 11:00-23:00"
    }
  },
  {
    "type": "node",
    "id": 1894944740,
    "lat": 38.1348569,
    "lon": -0.6868305,
    "timestamp": "2024-02-17T18:36:39Z",
    "version": 2,
    "changeset": 147583440,
    "user": "user384795",
    "uid": 21032720,
    "tags": {
      "amenity": "restaurant",
      "cuisine": "german",
      "name": "Bavarius"
    }
  },
  {
    "type": "node",
    "id": 1894944766,
    "lat": 38.134639,
    "lon": -0.6876534,
    "timestamp": "2023-06-24T12:03:07Z",
    "version": 3,
    "changeset": 137719103,
    "user": "VARVAR8",
    "uid": 3850484,
    "tags": {
      "amenity": "restaurant",
      "cuisine": "spanish",
      "name": "Santa Mónica"
    }
  },
  {
    "type": "node",
    "id": 1896242730,
    "lat": 38.191223,
    "lon": -0.5585877,
    "timestamp": "2021-09-15T20:27:37Z",
    "version": 4,
    "changeset": 111261595,
    "user": "gpesquero",
    "uid": 3584,
    "tags": {
      "addr:housenumber": "51",
      "addr:street": "Carrer Marqués de Molins / Calle del Marqués de Molins",
      "amenity": "restaurant",
      "cuisine": "regional",
      "internet_access": "no",
      "mobile": "+34 637 441 895",
      "name": "Tapería y Arrocería Buenísimo",
      "old_name": "Restaurante Di Carlo",
      "opening_hours": "Mo off; Tu-Sa 08:30-16:30, 20:00-24:00; Su 08:30-16:30",
      "phone": "+34 965 997 950",
      "website": "https://taperiabuenisimo.com/",
      "wheelchair": "yes"
    }
  },
  {
    "type": "node",
    "id": 1934292764,
    "lat": 38.3963999,
    "lon": -0.4365348,
    "timestamp": "2018-10-09T11:55:43Z",
    "version": 2,
    "changeset": 63343219,
    "user": "Raneguf",
    "uid": 6500088,
    "tags": {
      "amenity": "restaurant",
      "cuisine": "italian",
      "name": "La Estrada"
    }
  },
  {
    "type": "node",
    "id": 1940054546,
    "lat": 38.3469924,
    "lon": -0.7661988,
    "timestamp": "2018-09-07T14:10:13Z",
    "version": 2,
    "changeset": 62377349,
    "user": "jomavegui",
    "uid": 8787862,
    "tags": {
      "amenity": "restaurant",
      "name": "Gastroburger Al Lio"
    }
  },
  {
    "type": "node",
    "id": 1948807335,
    "lat": 38.0865812,
    "lon": -1.1571955,
    "timestamp": "2012-10-14T11:59:19Z",
    "version": 2,
    "changeset": 13491525,
    "user": "Funk66",
    "uid": 374371,
    "tags": {
      "amenity": "restaurant",
      "name": "El Asador de la Alcayna"
    }
  },
  {
    "type": "node",
    "id": 1949716693,
    "lat": 38.3530351,
    "lon": -0.4908174,
    "timestamp": "2024-05-09T10:28:52Z",
    "version": 4,
    "changeset": 151092584,
    "user": "Eugene_Maz",
    "uid": 5017955,
    "tags": {
      "addr:street": "Carrer de l'Escultor Vicente Bañuls / Calle Escultor Vicente Bañuls",
      "amenity": "restaurant",
      "cuisine": "spanish",
      "name": "Cervecería Monte Tossal",
      "outdoor_seating": "yes",
      "toilets": "yes"
    }
  },
  {
    "type": "node",
    "id": 1950355736,
    "lat": 38.0802632,
    "lon": -0.9444102,
    "timestamp": "2021-05-08T19:51:30Z",
    "version": 3,
    "changeset": 104377238,
    "user": "benjavalero",
    "uid": 122503,
    "tags": {
      "amenity": "restaurant",
      "cuisine": "regional",
      "name": "El tapeo de Agus"
    }
  },
  {
    "type": "node",
    "id": 1955707373,
    "lat": 38.0888333,
    "lon": -0.6494029,
    "timestamp": "2024-02-14T11:48:12Z",
    "version": 4,
    "changeset": 147447403,
    "user": "kapazao_import",
    "uid": 8770019,
    "tags": {
      "amenity": "restaurant",
      "name": "LU & ME",
      "opening_hours": "Mo-Sa 09:00-02:00; Su 09:00-24:00"
    }
  },
  {
    "type": "node",
    "id": 1955829314,
    "lat": 38.1215543,
    "lon": -0.7984569,
    "timestamp": "2012-10-15T16:14:03Z",
    "version": 2,
    "changeset": 13507844,
    "user": "asdflkjh",
    "uid": 647443,
    "tags": {
      "addr:housenumber": "156",
      "addr:postcode": "03160",
      "addr:street": "Camino de Catral",
      "alt_name": "Restaurante El Cruce",
      "amenity": "restaurant",
      "cuisine": "spanish",
      "name": "El Cruce",
      "source": "local_knowledge"
    }
  },
  {
    "type": "node",
    "id": 1955875905,
    "lat": 38.1215417,
    "lon": -0.7987412,
    "timestamp": "2012-10-15T16:14:03Z",
    "version": 2,
    "changeset": 13507844,
    "user": "asdflkjh",
    "uid": 647443,
    "tags": {
      "addr:housenumber": "87",
      "addr:postcode": "03160",
      "addr:street": "Camino de Catral",
      "alt_name": "Restaurante El Rey",
      "amenity": "restaurant",
      "cuisine": "spanish",
      "name": "El Rey"
    }
  },
  {
    "type": "node",
    "id": 1956517036,
    "lat": 38.0881042,
    "lon": -0.6504377,
    "timestamp": "2019-11-20T10:48:06Z",
    "version": 4,
    "changeset": 77317043,
    "user": "Ornios",
    "uid": 733392,
    "tags": {
      "amenity": "restaurant",
      "name": "Restaurante Casa Jorge"
    }
  },
  {
    "type": "node",
    "id": 1959772262,
    "lat": 38.0992193,
    "lon": -0.7963629,
    "timestamp": "2012-10-11T23:54:07Z",
    "version": 1,
    "changeset": 13460608,
    "user": "asdflkjh",
    "uid": 647443,
    "tags": {
      "addr:housenumber": "1",
      "addr:postcode": "03160",
      "addr:street": "Avenida Comunidad Europea",
      "amenity": "restaurant",
      "cuisine": "spanish",
      "name": "Bar Restaurante Las Maromas"
    }
  },