[
  {
    "type": "node",
    "id": 291549092,
    "lat": 39.5275744,
    "lon": 2.4842588,
    "timestamp": "2016-06-21T01:48:04Z",
    "version": 4,
    "changeset": 40170566,
    "user": "pedrojuan01",
    "uid": 1948725,
    "tags": {
      "amenity": "restaurant",
      "name": "sa Masia"
    }
  },
  {
    "type": "node",
    "id": 291557771,
    "lat": 39.5141667,
    "lon": 2.481416,
    "timestamp": "2015-05-22T22:36:45Z",
    "version": 5,
    "changeset": 31386012,
    "user": "marcesss",
    "uid": 2532276,
    "tags": {
      "addr:city": "Santa Ponsa",
      "addr:housenumber": "92",
      "addr:postcode": "07180",
      "addr:street": "Avinguda Rei Jaume I",
      "amenity": "restaurant",
      "capacity": "45",
      "cuisine": "regional",
      "name": "Miguel",
      "source": "local_knowledge",
      "website": "http://www.restaurantemiguel-santaponsa.com/"
    }
  },
  {
    "type": "node",
    "id": 314660514,
    "lat": 39.5320268,
    "lon": 2.5696853,
    "timestamp": "2014-12-08T16:25:24Z",
    "version": 2,
    "changeset": 27337589,
    "user": "pedrojuan01",
    "uid": 1948725,
    "tags": {
      "amenity": "restaurant",
      "cuisine": "italian",
      "name": "La Concha"
    }
  },
  {
    "type": "node",
    "id": 322058034,
    "lat": 39.7471309,
    "lon": 2.648723,
    "timestamp": "2011-02-08T10:01:04Z",
    "version": 2,
    "changeset": 7224797,
    "user": "oWLer",
    "uid": 130269,
    "tags": {
      "amenity": "restaurant",
      "name": "Jaume"
    }
  },
  {
    "type": "node",
    "id": 415291886,
    "lat": 39.5387867,
    "lon": 2.4512105,
    "timestamp": "2012-02-21T20:56:56Z",
    "version": 2,
    "changeset": 10753858,
    "user": "zahilb",
    "uid": 81732,
    "tags": {
      "amenity": "restaurant",
      "cuisine": "chinese",
      "name": "Nuevo Siglo"
    }
  },
  {
    "type": "node",
    "id": 415291898,
    "lat": 39.538469,
    "lon": 2.4525383,
    "timestamp": "2009-06-03T11:24:42Z",
    "version": 1,
    "changeset": 1411668,
    "user": "dk1ri",
    "uid": 49044,
    "tags": {
      "amenity": "restaurant",
      "cuisine": "chinese",
      "name": "Nuevo Mundo"
    }
  },
  {
    "type": "node",
    "id": 415291899,
    "lat": 39.5329997,
    "lon": 2.4592978,
    "timestamp": "2024-01-28T12:08:43Z",
    "version": 5,
    "changeset": 146775743,
    "user": "kapazao_import",
    "uid": 8770019,
    "tags": {
      "amenity": "restaurant",
      "name": "Sotavento",
      "opening_hours": "9:00-23:00",
      "operator": "HAPIMAG",
      "wheelchair": "yes"
    }
  },
  {
    "type": "node",
    "id": 430938063,
    "lat": 39.5357062,
    "lon": 2.4461378,
    "timestamp": "2022-12-21T06:21:21Z",
    "version": 5,
    "changeset": 130316269,
    "user": "aTarom",
    "uid": 5127355,
    "tags": {
      "addr:city": "Peguera",
      "addr:housenumber": "9",
      "addr:postcode": "07160",
      "addr:street": "Carrer de l'Espiga",
      "amenity": "restaurant",
      "cuisine": "regional",
      "name": "La Gritta",
      "phone": "+34 971 68 60 22",
      "wheelchair": "no"
    }
  },
  {
    "type": "node",
    "id": 430938064,
    "lat": 39.5350931,
    "lon": 2.4459682,
    "timestamp": "2024-03-24T10:15:39Z",
    "version": 6,
    "changeset": 149081660,
    "user": "comcloudway",
    "uid": 16594726,
    "tags": {
      "amenity": "restaurant",
      "cuisine": "regional",
      "name": "La Gran Tortuga",
      "opening_hours": "We-Mo 12:00-22:00",
      "toilets:wheelchair": "no",
      "wheelchair": "no"
    }
  },
  {
    "type": "node",
    "id": 561321960,
    "lat": 39.5279137,
    "lon": 2.5412655,
    "timestamp": "2015-07-28T09:00:03Z",
    "version": 3,
    "changeset": 32925948,
    "user": "pedrojuan01",
    "uid": 1948725,
    "tags": {
      "amenity": "restaurant",
      "name": "El Cruce"
    }
  },
  {
    "type": "node",
    "id": 565526332,
    "lat": 39.5798572,
    "lon": 2.350576,
    "timestamp": "2022-10-05T12:58:52Z",
    "version": 6,
    "changeset": 127046183,
    "user": "F@bienne",
    "uid": 1706294,
    "tags": {
      "amenity": "restaurant",
      "name": "La Cocotte de Sant Elm"
    }
  },
  {
    "type": "node",
    "id": 566104611,
    "lat": 39.5240496,
    "lon": 2.5390025,
    "timestamp": "2009-11-17T07:55:40Z",
    "version": 1,
    "changeset": 3138890,
    "user": "Jacques_N",
    "uid": 46145,
    "tags": {
      "amenity": "restaurant",
      "name": "La Cucaracha"
    }
  },
  {
    "type": "node",
    "id": 566104614,
    "lat": 39.5245387,
    "lon": 2.5395719,
    "timestamp": "2022-04-04T11:14:47Z",
    "version": 3,
    "changeset": 119298668,
    "user": "pedrojuan01",
    "uid": 1948725,
    "tags": {
      "amenity": "restaurant",
      "name": "No Stress"
    }
  },
  {
    "type": "node",
    "id": 598923646,
    "lat": 39.5370049,
    "lon": 2.4223528,
    "timestamp": "2025-04-14T19:42:45Z",
    "version": 6,
    "changeset": 164955237,
    "user": "reDoubleYou",
    "uid": 10814275,
    "tags": {
      "amenity": "restaurant",
      "cuisine": "fish",
      "name": "S'Illeta",
      "outdoor_seating": "yes",
      "website": "https://illeta.com/"
    }
  },
  {
    "type": "node",
    "id": 605574597,
    "lat": 39.5947129,
    "lon": 2.6492988,
    "timestamp": "2021-11-18T08:35:58Z",
    "version": 6,
    "changeset": 113933335,
    "user": "benetj",
    "uid": 2353661,
    "tags": {
      "addr:city": "Palma",
      "addr:housenumber": "10",
      "addr:postcode": "07010",
      "addr:street": "Carrer del Bisbe Pere de Puigdorfila",
      "amenity": "restaurant",
      "cuisine": "rice",
      "name": "Nimo's",
      "opening_hours": "Mo-We 12:30-16:00; Th-Sa 12:30-16:00,19:30-23:00",
      "phone": "+34 971 49 87 74",
      "website": "https://www.arrosserianimos.com/"
    }
  },
  {
    "type": "node",
    "id": 660454788,
    "lat": 39.5791914,
    "lon": 2.6275415,
    "timestamp": "2010-03-04T20:30:58Z",
    "version": 1,
    "changeset": 4036066,
    "user": "somenxavier",
    "uid": 86282,
    "tags": {
      "amenity": "restaurant",
      "cuisine": "chinese",
      "name": "Feng Hou"
    }
  },
  {
    "type": "node",
    "id": 665842268,
    "lat": 39.5119804,
    "lon": 2.4676081,
    "timestamp": "2022-12-10T18:40:52Z",
    "version": 5,
    "changeset": 129942269,
    "user": "jmaspons",
    "uid": 11725140,
    "tags": {
      "addr:city": "Santa Ponça",
      "addr:postcode": "07180",
      "amenity": "restaurant",
      "cuisine": "regional",
      "name": "Club Nàutic",
      "name:ca": "Club Nàutic"
    }
  },
  {
    "type": "node",
    "id": 831021105,
    "lat": 39.549705,
    "lon": 2.5990802,
    "timestamp": "2022-04-11T07:36:28Z",
    "version": 5,
    "changeset": 119564357,
    "user": "pedrojuan01",
    "uid": 1948725,
    "tags": {
      "amenity": "restaurant",
      "cuisine": "mediterranean",
      "name": "Bruno"
    }
  },
  {
    "type": "node",
    "id": 850615916,
    "lat": 39.63577,
    "lon": 2.6315635,
    "timestamp": "2023-04-22T08:02:44Z",
    "version": 2,
    "changeset": 135218912,
    "user": "pedrojuan01",
    "uid": 1948725,
    "tags": {
      "addr:street": "Carrer d'Isaac Newton",
      "amenity": "restaurant",
      "name": "Naorte"
    }
  },
  {
    "type": "node",
    "id": 850750329,
    "lat": 39.5191773,
    "lon": 2.4812841,
    "timestamp": "2019-09-24T09:08:06Z",
    "version": 3,
    "changeset": 74844213,
    "user": "Nordpfeil",
    "uid": 1337142,
    "tags": {
      "amenity": "restaurant",
      "name": "Mrs Murphy's Kitchen",
      "opening_hours": "09:30-23:30"
    }
  },
  {
    "type": "node",
    "id": 850750330,
    "lat": 39.5187056,
    "lon": 2.4806969,
    "timestamp": "2016-04-07T05:26:49Z",
    "version": 4,
    "changeset": 38370008,
    "user": "pedrojuan01",
    "uid": 1948725,
    "tags": {
      "addr:city": "Santa Ponça",
      "addr:postcode": "07180",
      "amenity": "restaurant",
      "cuisine": "pizza",
      "name": "Jackie's"
    }
  },
  {
    "type": "node",
    "id": 850750333,
    "lat": 39.5199217,
    "lon": 2.4827771,
    "timestamp": "2010-08-09T12:23:30Z",
    "version": 1,
    "changeset": 5443191,
    "user": "wonka68",
    "uid": 96226,
    "tags": {
      "amenity": "restaurant",
      "name": "Boston O'Brady's"
    }
  },
  {
    "type": "node",
    "id": 934570283,
    "lat": 39.7601866,
    "lon": 2.6409282,
    "timestamp": "2016-04-30T09:29:34Z",
    "version": 4,
    "changeset": 38995835,
    "user": "pedrojuan01",
    "uid": 1948725,
    "tags": {
      "amenity": "restaurant",
      "cuisine": "spanish",
      "name": "Ca's Patró March"
    }
  },
  {
    "type": "node",
    "id": 941399883,
    "lat": 39.5393558,
    "lon": 2.4197819,
    "timestamp": "2022-12-10T18:40:26Z",
    "version": 3,
    "changeset": 129942259,
    "user": "jmaspons",
    "uid": 11725140,
    "tags": {
      "amenity": "restaurant",
      "name": "Gran Sol",
      "name:ca": "Gran Sol"
    }
  },
  {
    "type": "node",
    "id": 941399889,
    "lat": 39.5371718,
    "lon": 2.4240826,
    "timestamp": "2014-04-03T11:23:28Z",
    "version": 2,
    "changeset": 21474734,
    "user": "kele7",
    "uid": 134506,
    "tags": {
      "amenity": "restaurant",
      "name": "Beach Club"
    }
  },
  {
    "type": "node",
    "id": 941399892,
    "lat": 39.5372772,
    "lon": 2.4242013,
    "timestamp": "2025-04-14T07:11:19Z",
    "version": 3,
    "changeset": 164923928,
    "user": "reDoubleYou",
    "uid": 10814275,
    "tags": {
      "amenity": "restaurant",
      "name": "Urbano Mar"
    }
  },
  {
    "type": "node",
    "id": 965193702,
    "lat": 39.5972865,
    "lon": 2.6922575,
    "timestamp": "2020-03-04T00:26:06Z",
    "version": 7,
    "changeset": 81748650,
    "user": "biodramino",
    "uid": 436142,
    "tags": {
      "amenity": "restaurant",
      "amenity_1": "cafe",
      "cuisine": "pizza",
      "name": "Presto"
    }
  },
  {
    "type": "node",
    "id": 965288667,
    "lat": 39.6038028,
    "lon": 2.6866446,
    "timestamp": "2015-10-01T12:29:57Z",
    "version": 2,
    "changeset": 34366888,
    "user": "pedrojuan01",
    "uid": 1948725,
    "tags": {
      "amenity": "restaurant",
      "cuisine": "chinese"
    }
  },
  {
    "type": "node",
    "id": 965315019,
    "lat": 39.5926565,
    "lon": 2.6819888,
    "timestamp": "2023-07-18T09:27:50Z",
    "version": 4,
    "changeset": 138658906,
    "user": "pedrojuan01",
    "uid": 1948725,
    "tags": {
      "amenity": "restaurant",
      "cuisine": "chinese",
      "name": "Gran China"
    }
  },
  {
    "type": "node",
    "id": 995348093,
    "lat": 39.5746511,
    "lon": 2.6417004,
    "timestamp": "2020-09-20T16:26:55Z",
    "version": 3,
    "changeset": 91181161,
    "user": "MrDrover3",
    "uid": 11843299,
    "tags": {
      "amenity": "restaurant",
      "disused:amenity": "restaurant",
      "name": "Besiki Sushi",
      "old_name": "Gran Dragón"
    }
  },
  {
    "type": "node",
    "id": 1075471199,
    "lat": 39.5509915,
    "lon": 2.6212569,
    "timestamp": "2010-12-31T16:07:14Z",
    "version": 1,
    "changeset": 6821315,
    "user": "Basiliano",
    "uid": 389956,
    "tags": {
      "amenity": "restaurant"
    }
  },
  {
    "type": "node",
    "id": 1141928378,
    "lat": 39.7491024,
    "lon": 2.6495276,
    "timestamp": "2015-07-12T18:46:28Z",
    "version": 2,
    "changeset": 32587001,
    "user": "pedrojuan01",
    "uid": 1948725,
    "tags": {
      "amenity": "restaurant",
      "name": "El Olivo"
    }
  },
  {
    "type": "node",
    "id": 1167179974,
    "lat": 39.5435504,
    "lon": 2.3866696,
    "timestamp": "2019-08-25T08:01:05Z",
    "version": 2,
    "changeset": 73711629,
    "user": "pedrojuan01",
    "uid": 1948725,
    "tags": {
      "amenity": "restaurant",
      "name": "Tim's"
    }
  },
  {
    "type": "node",
    "id": 1247154542,
    "lat": 39.5322343,
    "lon": 2.5727484,
    "timestamp": "2018-11-02T12:08:40Z",
    "version": 3,
    "changeset": 64110941,
    "user": "pedrojuan01",
    "uid": 1948725,
    "tags": {
      "addr:city": "Portals Nous",
      "addr:street": "Passatge a la Mar",
      "amenity": "restaurant",
      "capacity": "50",
      "cuisine": "german_international",
      "name": "Lila",
      "smoking": "outside"
    }
  },
  {
    "type": "node",
    "id": 1247154549,
    "lat": 39.5327798,
    "lon": 2.5741143,
    "timestamp": "2011-04-16T16:05:53Z",
    "version": 1,
    "changeset": 7879461,
    "user": "Monanam",
    "uid": 119768,
    "tags": {
      "amenity": "restaurant"
    }
  },
  {
    "type": "node",
    "id": 1302053477,
    "lat": 39.5175635,
    "lon": 2.4890652,
    "timestamp": "2018-11-09T20:51:07Z",
    "version": 3,
    "changeset": 64338639,
    "user": "Paco Nusuba",
    "uid": 7506040,
    "tags": {
      "amenity": "restaurant",
      "cuisine": "japanese",
      "fixme": "still existing? Did not see it, but only the two other shops which were not yet mapped",
      "name": "Shiki"
    }
  },
  {
    "type": "node",
    "id": 1302053483,
    "lat": 39.5166429,
    "lon": 2.4893294,
    "timestamp": "2015-11-23T06:19:11Z",
    "version": 2,
    "changeset": 35523612,
    "user": "pedrojuan01",
    "uid": 1948725,
    "tags": {
      "amenity": "restaurant",
      "cuisine": "spanish",
      "name": "Langostinos"
    }
  },
  {
    "type": "node",
    "id": 1304335236,
    "lat": 39.6543898,
    "lon": 2.4836814,
    "timestamp": "2014-07-01T06:49:18Z",
    "version": 3,
    "changeset": 23405144,
    "user": "pedrojuan01",
    "uid": 1948725,
    "tags": {
      "amenity": "restaurant",
      "cuisine": "pizza",
      "name": "Giardini"
    }
  },
  {
    "type": "node",
    "id": 1310612315,
    "lat": 39.5779144,
    "lon": 2.652159,
    "timestamp": "2024-10-30T06:42:13Z",
    "version": 5,
    "changeset": 158526765,
    "user": "Absolute Beginner",
    "uid": 10465652,
    "tags": {
      "amenity": "restaurant",
      "name": "Es Principal"
    }
  },
  {
    "type": "node",
    "id": 1317331227,
    "lat": 39.6988293,
    "lon": 2.5551875,
    "timestamp": "2023-02-20T20:43:37Z",
    "version": 5,
    "changeset": 132807939,
    "user": "Kristjan ESPERANTO",
    "uid": 77904,
    "tags": {
      "addr:city": "Banyalbufar",
      "addr:housenumber": "9",
      "addr:postcode": "07190",
      "addr:street": "Carrer de Port des Canonge",
      "amenity": "restaurant",
      "contact:instagram": "https://www.instagram.com/restaurantcanmado/",
      "contact:phone": "+34 971 61 05 52",
      "contact:website": "https://www.canmado.com/",
      "diet:vegetarian": "yes",
      "name": "Ca'n Madó",
      "wheelchair": "limited"
    }
  },
  {
    "type": "node",
    "id": 1319392686,
    "lat": 39.5366173,
    "lon": 2.4594654,
    "timestamp": "2014-09-07T10:21:08Z",
    "version": 2,
    "changeset": 25283502,
    "user": "minnni",
    "uid": 1681717,
    "tags": {
      "addr:housenumber": "1",
      "addr:postcode": "07160",
      "addr:street": "Carrer de Pau Casals",
      "amenity": "restaurant",
      "cuisine": "steak_house",
      "int_name": "La Hacienda",
      "name": "La Hacienda"
    }
  },
  {
    "type": "node",
    "id": 1336943071,
    "lat": 39.4967674,
    "lon": 2.4749167,
    "timestamp": "2023-08-11T12:15:54Z",
    "version": 5,
    "changeset": 139748297,
    "user": "Rob22",
    "uid": 318823,
    "tags": {
      "addr:housenumber": "5",
      "addr:street": "Carrer de Chopin",
      "amenity": "restaurant",
      "cuisine": "austrian",
      "internet_access": "wlan",
      "name": "Las Adelfas",
      "name:de": "Der Österreicher",
      "opening_hours": "We-Mo 17:00-23:00",
      "phone": "+34 871774151",
      "website": "https://www.adelfas-restaurant.com/en/"
    }
  },
  {
    "type": "node",
    "id": 1344542319,
    "lat": 39.5762872,
    "lon": 2.6537682,
    "timestamp": "2020-11-21T12:40:10Z",
    "version": 2,
    "changeset": 94542962,
    "user": "RicardViEs",
    "uid": 10814013,
    "tags": {
      "amenity": "restaurant",
      "name": "Terminus",
      "source": "survey"
    }
  },
  {
    "type": "node",
    "id": 1344621018,
    "lat": 39.5769035,
    "lon": 2.6528092,
    "timestamp": "2024-10-31T14:36:12Z",
    "version": 5,
    "changeset": 158583621,
    "user": "Absolute Beginner",
    "uid": 10465652,
    "tags": {
      "amenity": "restaurant",
      "name": "Brox"
    }
  },
  {
    "type": "node",
    "id": 1374520743,
    "lat": 39.5734313,
    "lon": 2.6403447,
    "timestamp": "2011-07-26T09:28:54Z",
    "version": 1,
    "changeset": 8833733,
    "user": "somenxavier",
    "uid": 86282,
    "tags": {
      "amenity": "restaurant",
      "cuisine": "pizza",
      "name": "Pizza Indústria"
    }
  },
  {
    "type": "node",
    "id": 1374521138,
    "lat": 39.5740667,
    "lon": 2.6395416,
    "timestamp": "2018-11-29T10:04:02Z",
    "version": 6,
    "changeset": 65003570,
    "user": "pedrojuan01",
    "uid": 1948725,
    "tags": {
      "amenity": "restaurant",
      "cuisine": "barbecue",
      "diet:vegetarian": "only",
      "name": "Melo Mangio"
    }
  },
  {
    "type": "node",
    "id": 1393900182,
    "lat": 39.4880794,
    "lon": 2.5327437,
    "timestamp": "2011-08-10T17:16:27Z",
    "version": 1,
    "changeset": 8978515,
    "user": "somenxavier",
    "uid": 86282,
    "tags": {
      "amenity": "restaurant",
      "cuisine": "chiringuito"
    }
  },
  {
    "type": "node",
    "id": 1407516704,
    "lat": 39.5675161,
    "lon": 2.6292911,
    "timestamp": "2016-09-25T08:18:44Z",
    "version": 3,
    "changeset": 42418184,
    "user": "pedrojuan01",
    "uid": 1948725,
    "tags": {
      "amenity": "restaurant",
      "cuisine": "pizza",
      "name": "la Placita",
      "phone": "+34-971-454020",
      "source": "survey"
    }
  },
  {
    "type": "node",
    "id": 1451021172,
    "lat": 39.5755488,
    "lon": 2.6486867,
    "timestamp": "2022-11-27T02:03:07Z",
    "version": 4,
    "changeset": 129420316,
    "user": "jmaspons",
    "uid": 11725140,
    "tags": {
      "amenity": "restaurant",
      "name": "Plaça",
      "name:ca": "Plaça",
      "wheelchair": "yes"
    }
  },
  {
    "type": "node",
    "id": 1481273136,
    "lat": 39.5357328,
    "lon": 2.4550281,
    "timestamp": "2024-08-15T12:53:13Z",
    "version": 9,
    "changeset": 155281809,
    "user": "SaWi81",
    "uid": 17159,
    "tags": {
      "amenity": "restaurant",
      "information": "board",
      "name": "Playa5"
    }
  },
  {
    "type": "node",
    "id": 1497155335,
    "lat": 39.5690112,
    "lon": 2.6452352,
    "timestamp": "2021-11-30T15:45:01Z",
    "version": 5,
    "changeset": 114378820,
    "user": "wheelmap_visitor",
    "uid": 290680,
    "tags": {
      "amenity": "restaurant",
      "cuisine": "regional",
      "name": "La Cueva",
      "website": "https://www.restaurante-lacueva.com/",
      "wheelchair": "limited"
    }
  },
  {
    "type": "node",
    "id": 1502055318,
    "lat": 39.5705534,
    "lon": 2.6448552,
    "timestamp": "2019-03-27T09:02:26Z",
    "version": 6,
    "changeset": 68578051,
    "user": "b-jazz-bot",
    "uid": 9451067,
    "tags": {
      "amenity": "restaurant",
      "cuisine": "regional",
      "name": "13%",
      "opening_hours": "Mo-Su 12:30-00:00",
      "website": "https://www.13porciento.com/"
    }
  },
  {
    "type": "node",
    "id": 1587270880,
    "lat": 39.5070454,
    "lon": 2.5337238,
    "timestamp": "2022-03-08T09:44:10Z",
    "version": 5,
    "changeset": 118228445,
    "user": "pedrojuan01",
    "uid": 1948725,
    "tags": {
      "amenity": "restaurant",
      "brand": "Pizza Hut",
      "brand:wikidata": "Q191615",
      "brand:wikipedia": "en:Pizza Hut",
      "cuisine": "pizza",
      "name": "Pizza Hut"
    }
  },
  {
    "type": "node",
    "id": 1587270899,
    "lat": 39.5063066,
    "lon": 2.5331525,
    "timestamp": "2012-01-12T18:02:43Z",
    "version": 1,
    "changeset": 10371107,
    "user": "Jaime Seoane",
    "uid": 584854,
    "tags": {
      "amenity": "restaurant",
      "cuisine": "spanish",
      "name": "Pardo's"
    }
  },
  {
    "type": "node",
    "id": 1587352399,
    "lat": 39.5104019,
    "lon": 2.5311462,
    "timestamp": "2012-01-12T19:04:38Z",
    "version": 1,
    "changeset": 10372200,
    "user": "Jaime Seoane",
    "uid": 584854,
    "tags": {
      "amenity": "restaurant",
      "cuisine": "spanish",
      "name": "El Chovaleño"
    }
  },
  {
    "type": "node",
    "id": 1587352420,
    "lat": 39.5063976,
    "lon": 2.5332893,
    "timestamp": "2012-01-12T19:04:39Z",
    "version": 1,
    "changeset": 10372200,
    "user": "Jaime Seoane",
    "uid": 584854,
    "tags": {
      "amenity": "restaurant",
      "cuisine": "mexican",
      "name": "El Maquito"
    }
  },
  {
    "type": "node",
    "id": 1587352438,
    "lat": 39.514826,
    "lon": 2.5368244,
    "timestamp": "2018-09-03T13:34:11Z",
    "version": 2,
    "changeset": 62248167,
    "user": "pedrojuan01",
    "uid": 1948725,
    "tags": {
      "amenity": "restaurant",
      "cuisine": "international",
      "name": "Mamma Muu"
    }
  },
  {
    "type": "node",
    "id": 1587352439,
    "lat": 39.5114025,
    "lon": 2.5416161,
    "timestamp": "2016-12-27T15:54:47Z",
    "version": 2,
    "changeset": 44709389,
    "user": "Galbinus",
    "uid": 162630,
    "tags": {
      "amenity": "restaurant",
      "cuisine": "spanish",
      "name": "Jakiton"
    }
  },
  {
    "type": "node",
    "id": 1587352464,
    "lat": 39.5029073,
    "lon": 2.5304462,
    "timestamp": "2022-09-12T12:29:36Z",
    "version": 3,
    "changeset": 126088277,
    "user": "pedrojuan01",
    "uid": 1948725,
    "tags": {
      "amenity": "restaurant",
      "cuisine": "spanish",
      "name": "Econòmic"
    }
  },
  {
    "type": "node",
    "id": 1587352558,
    "lat": 39.5124816,
    "lon": 2.5369076,
    "timestamp": "2016-06-27T20:01:02Z",
    "version": 3,
    "changeset": 40329552,
    "user": "pedrojuan01",
    "uid": 1948725,
    "tags": {
      "amenity": "restaurant",
      "cuisine": "pizza",
      "name": "Diábolo"
    }
  },
  {
    "type": "node",
    "id": 1587352619,
    "lat": 39.5023869,
    "lon": 2.5290031,
    "timestamp": "2022-04-04T11:07:58Z",
    "version": 4,
    "changeset": 119298418,
    "user": "pedrojuan01",
    "uid": 1948725,
    "tags": {
      "amenity": "restaurant",
      "name": "García's"
    }
  },
  {
    "type": "node",
    "id": 1596821367,
    "lat": 39.5354191,
    "lon": 2.4571334,
    "timestamp": "2014-04-08T11:26:07Z",
    "version": 3,
    "changeset": 21569530,
    "user": "kele7",
    "uid": 134506,
    "tags": {
      "amenity": "restaurant",
      "cuisine": "spanish",
      "name": "Paradise Beach"
    }
  },
  {
    "type": "node",
    "id": 1596821371,
    "lat": 39.5383535,
    "lon": 2.4497962,
    "timestamp": "2022-11-28T00:49:30Z",
    "version": 4,
    "changeset": 129453008,
    "user": "jmaspons",
    "uid": 11725140,
    "tags": {
      "amenity": "restaurant",
      "name": "la Campana",
      "name:ca": "la Campana"
    }
  },
  {
    "type": "node",
    "id": 1602582607,
    "lat": 39.5691708,
    "lon": 2.644959,
    "timestamp": "2023-09-21T20:23:53Z",
    "version": 3,
    "changeset": 141576724,
    "user": "Hugoren Martinako",
    "uid": 3392826,
    "tags": {
      "addr:housenumber": "24",
      "addr:street": "Apuntadores",
      "amenity": "restaurant",
      "cuisine": "spanish",
      "name": "Wineing",
      "website": "https://www.wineing.es/"
    }
  },
  {
    "type": "node",
    "id": 1640380810,
    "lat": 39.5145594,
    "lon": 2.4832308,
    "timestamp": "2023-09-21T20:23:53Z",
    "version": 7,
    "changeset": 141576724,
    "user": "Hugoren Martinako",
    "uid": 3392826,
    "tags": {
      "addr:city": "Santa Ponça",
      "addr:housenumber": "1",
      "addr:postcode": "07180",
      "addr:street": "Gran Via Puig de Massanella",
      "amenity": "restaurant",
      "name": "König von Mallorca",
      "toilets:wheelchair": "no",
      "wheelchair": "yes"
    }
  },
  {
    "type": "node",
    "id": 1650467292,
    "lat": 39.6343937,
    "lon": 2.6315543,
    "timestamp": "2022-02-12T13:15:23Z",
    "version": 2,
    "changeset": 117320918,
    "user": "Xisco",
    "uid": 30331,
    "tags": {
      "amenity": "restaurant",
      "source": "survey"
    }
  },
  {
    "type": "node",
    "id": 1720298724,
    "lat": 39.5690015,
    "lon": 2.6460543,
    "timestamp": "2017-07-10T13:53:37Z",
    "version": 2,
    "changeset": 50177221,
    "user": "pedrojuan01",
    "uid": 1948725,
    "tags": {
      "amenity": "restaurant",
      "cuisine": "regional",
      "name": "Ombú"
    }
  },
  {
    "type": "node",
    "id": 1725622786,
    "lat": 39.6675415,
    "lon": 2.5780936,
    "timestamp": "2022-04-17T11:04:49Z",
    "version": 3,
    "changeset": 119812304,
    "user": "MapsInQuestion",
    "uid": 12457656,
    "tags": {
      "addr:city": "Esporles",
      "addr:housenumber": "10",
      "addr:postcode": "07190",
      "addr:street": "Passeig del Rei",
      "amenity": "restaurant",
      "cuisine": "regional",
      "name": "es Brollador",
      "opening_hours": "Mo-Su 11:00-23:00"
    }
  },
  {
    "type": "node",
    "id": 1741217218,
    "lat": 39.6690317,
    "lon": 2.5776473,
    "timestamp": "2020-04-13T20:09:52Z",
    "version": 3,
    "changeset": 83495405,
    "user": "pedrojuan01",
    "uid": 1948725,
    "tags": {
      "addr:city": "Esporles",
      "addr:country": "ES",
      "addr:housenumber": "5",
      "addr:postcode": "07190",
      "addr:street": "Carrer Nou de Sant Pere",
      "amenity": "restaurant",
      "name": "La Villa"
    }
  },
  {
    "type": "node",
    "id": 1741253135,
    "lat": 39.6689141,
    "lon": 2.5776907,
    "timestamp": "2012-05-05T10:43:24Z",
    "version": 1,
    "changeset": 11506334,
    "user": "ciclista",
    "uid": 73405,
    "tags": {
      "addr:city": "Esporles",
      "addr:country": "ES",
      "addr:housenumber": "4",
      "addr:postcode": "07190",
      "addr:street": "Carrer nueva de San Pedro",
      "amenity": "restaurant",
      "name": "Sa Bodega"
    }
  },
  {
    "type": "node",
    "id": 1744503596,
    "lat": 39.6679676,
    "lon": 2.5777543,
    "timestamp": "2021-09-14T08:08:56Z",
    "version": 4,
    "changeset": 111180748,
    "user": "pedrojuan01",
    "uid": 1948725,
    "tags": {
      "addr:city": "Esporles",
      "addr:housenumber": "4",
      "addr:postcode": "07190",
      "addr:street": "Passeig del Rei",
      "amenity": "restaurant",
      "cuisine": "pizza",
      "name": "sa Bodega d'en Rino",
      "phone": "+34971610700"
    }
  },
  {
    "type": "node",
    "id": 1757494569,
    "lat": 39.6682425,
    "lon": 2.5779349,
    "timestamp": "2022-11-19T00:33:54Z",
    "version": 3,
    "changeset": 129106905,
    "user": "jmaspons",
    "uid": 11725140,
    "tags": {
      "addr:city": "Esporles",
      "addr:country": "ES",
      "addr:housenumber": "11",
      "addr:postcode": "07190",
      "addr:street": "Carrer Joan Riutort",
      "amenity": "restaurant",
      "name": "Can Toni",
      "name:ca": "Can Toni"
    }
  },
  {
    "type": "node",
    "id": 1838130926,
    "lat": 39.532974,
    "lon": 2.4595695,
    "timestamp": "2024-01-28T12:08:43Z",
    "version": 4,
    "changeset": 146775743,
    "user": "kapazao_import",
    "uid": 8770019,
    "tags": {
      "amenity": "restaurant",
      "name": "Tentación",
      "opening_hours": "17:00-23:00",
      "operator": "HAPIMAG",
      "wheelchair": "limited"
    }
  },
  {
    "type": "node",
    "id": 1864634797,
    "lat": 39.497109,
    "lon": 2.5350492,
    "timestamp": "2016-12-16T20:02:50Z",
    "version": 3,
    "changeset": 44455678,
    "user": "Galbinus",
    "uid": 162630,
    "tags": {
      "amenity": "restaurant",
      "cuisine": "pizza",
      "name": "Caracas"
    }
  },
  {
    "type": "node",
    "id": 1907254153,
    "lat": 39.5108345,
    "lon": 2.5383389,
    "timestamp": "2018-07-12T03:18:26Z",
    "version": 2,
    "changeset": 60632314,
    "user": "pedrojuan01",
    "uid": 1948725,
    "tags": {
      "amenity": "restaurant",
      "cuisine": "pizza",
      "name": "Fantastic"
    }
  },
  {
    "type": "node",
    "id": 1927701168,
    "lat": 39.575932,
    "lon": 2.6473627,
    "timestamp": "2020-03-10T15:26:09Z",
    "version": 4,
    "changeset": 82013938,
    "user": "pedrojuan01",
    "uid": 1948725,
    "tags": {
      "addr:housenumber": "6",
      "addr:street": "Via Roma",
      "amenity": "restaurant",
      "cuisine": "regional",
      "cuisine:note:ca": "variats",
      "name": "Bodega La Rambla"
    }
  },
  {
    "type": "node",
    "id": 1998409405,
    "lat": 39.688188,
    "lon": 2.5143556,
    "timestamp": "2022-11-19T00:26:27Z",
    "version": 2,
    "changeset": 129106801,
    "user": "jmaspons",
    "uid": 11725140,
    "tags": {
      "amenity": "restaurant",
      "name": "Can Paco",
      "name:ca": "Can Paco"
    }
  },
  {
    "type": "node",
    "id": 2006438260,
    "lat": 39.5688545,
    "lon": 2.645972,
    "timestamp": "2024-10-24T11:30:39Z",
    "version": 5,
    "changeset": 158291848,
    "user": "Absolute Beginner",
    "uid": 10465652,
    "tags": {
      "amenity": "restaurant",
      "check_date:opening_hours": "2024-10-24",
      "name": "El Túnel",
      "name:ca": "El Túnel",
      "opening_hours:signed": "no"
    }
  },
  {
    "type": "node",
    "id": 2014138038,
    "lat": 39.5750723,
    "lon": 2.4198246,
    "timestamp": "2024-03-24T13:47:30Z",
    "version": 3,
    "changeset": 149089743,
    "user": "comcloudway",
    "uid": 16594726,
    "tags": {
      "addr:housenumber": "16c",
      "addr:street": "plaça d'Espanya",
      "amenity": "restaurant",
      "cuisine": "italian_pizza",
      "internet_access": "wlan",
      "name": "La Plaza",
      "opening_hours": "Tu-Su 13:00-15:00,19:00-23:00"
    }
  },
  {
    "type": "node",
    "id": 2216630449,
    "lat": 39.5171121,
    "lon": 2.4845088,
    "timestamp": "2019-03-23T13:54:36Z",
    "version": 4,
    "changeset": 68444915,
    "user": "b-jazz-bot",
    "uid": 9451067,
    "tags": {
      "addr:city": "Santa Ponça",
      "addr:housenumber": "8",
      "addr:postcode": "07180",
      "addr:street": "Gran Via Puig des Teix",
      "amenity": "restaurant",
      "cuisine": "fish",
      "name": "Reno",
      "source": "local_knowledge",
      "website": "https://www.restaurantereno.com/"
    }
  },
  {
    "type": "node",
    "id": 2222776920,
    "lat": 39.7472314,
    "lon": 2.6487813,
    "timestamp": "2022-09-26T15:31:57Z",
    "version": 2,
    "changeset": 126661647,
    "user": "Nithin Kumar Padavu",
    "uid": 420515,
    "tags": {
      "addr:housenumber": "10",
      "addr:postcode": "07179",
      "addr:street": "Carrer de l'Arxiduc Lluís Salvador",
      "amenity": "restaurant",
      "cuisine": "italian;regional",
      "name": "Es Punt",
      "opening_hours": "Mo-Sa 10:30-22:00",
      "phone": "+34971636293"
    }
  },
  {
    "type": "node",
    "id": 2250930805,
    "lat": 39.5371545,
    "lon": 2.4450141,
    "timestamp": "2017-09-27T13:44:13Z",
    "version": 3,
    "changeset": 52414184,
    "user": "minnni",
    "uid": 1681717,
    "tags": {
      "amenity": "restaurant",
      "name": "Wie bei Muttern",
      "wheelchair": "limited"
    }
  },
  {
    "type": "node",
    "id": 2250999920,
    "lat": 39.5307696,
    "lon": 2.4377148,
    "timestamp": "2023-01-15T18:12:27Z",
    "version": 2,
    "changeset": 131308678,
    "user": "jmaspons",
    "uid": 11725140,
    "tags": {
      "amenity": "restaurant",
      "name": "es Viver",
      "name:ca": "es Viver"
    }
  },
  {
    "type": "node",
    "id": 2262593841,
    "lat": 39.5373267,
    "lon": 2.4488585,
    "timestamp": "2013-04-11T10:25:31Z",
    "version": 1,
    "changeset": 15687986,
    "user": "kele7",
    "uid": 134506,
    "tags": {
      "amenity": "restaurant",
      "cuisine": "regional",
      "name": "Rendezvous"
    }
  },
  {
    "type": "node",
    "id": 2262717592,
    "lat": 39.5361296,
    "lon": 2.4554696,
    "timestamp": "2022-11-27T01:43:33Z",
    "version": 2,
    "changeset": 129420048,
    "user": "jmaspons",
    "uid": 11725140,
    "tags": {
      "amenity": "restaurant",
      "cuisine": "regional",
      "name": "Ponent",
      "name:ca": "Ponent"
    }
  },
  {
    "type": "node",
    "id": 2264177811,
    "lat": 39.5354795,
    "lon": 2.4537767,
    "timestamp": "2022-08-14T12:13:47Z",
    "version": 4,
    "changeset": 124884983,
    "user": "nickfi",
    "uid": 16781474,
    "tags": {
      "amenity": "restaurant",
      "name": "Domin",
      "opening_hours": "We-Mo 10:00-24:00; Tu 10:00-23:00"
    }
  },
  {
    "type": "node",
    "id": 2277346562,
    "lat": 39.7467225,
    "lon": 2.6496287,
    "timestamp": "2021-08-23T07:35:46Z",
    "version": 3,
    "changeset": 110096254,
    "user": "pedrojuan01",
    "uid": 1948725,
    "tags": {
      "addr:housenumber": "19",
      "addr:postcode": "07179",
      "addr:street": "Archiduque Luis Salvador",
      "amenity": "restaurant",
      "cuisine": "spanish",
      "name": "Xelini",
      "opening_hours": "Tu off",
      "phone": "+34 971-639 139",
      "website": "http://www.xelini.com/"
    }
  },
  {
    "type": "node",
    "id": 2288383881,
    "lat": 39.7302554,
    "lon": 2.6859837,
    "timestamp": "2016-01-02T21:31:44Z",
    "version": 2,
    "changeset": 36327510,
    "user": "pedrojuan01",
    "uid": 1948725,
    "tags": {
      "amenity": "restaurant",
      "name": "Dalt des Coll"
    }
  },
  {
    "type": "node",
    "id": 2288406100,
    "lat": 39.7467647,
    "lon": 2.6498758,
    "timestamp": "2023-01-15T18:24:58Z",
    "version": 3,
    "changeset": 131309067,
    "user": "jmaspons",
    "uid": 11725140,
    "tags": {
      "amenity": "restaurant",
      "name": "Sa Vinya Vella",
      "name:ca": "Sa Vinya Vella",
      "opening_hours": "Mo; We-Su",
      "phone": "+34 971639500"
    }
  },
  {
    "type": "node",
    "id": 2300098770,
    "lat": 39.5369274,
    "lon": 2.4543935,
    "timestamp": "2014-09-01T12:54:10Z",
    "version": 3,
    "changeset": 25158978,
    "user": "wheelmap_visitor",
    "uid": 290680,
    "tags": {
      "amenity": "restaurant",
      "cuisine": "international",
      "name": "Ambassador",
      "wheelchair": "no"
    }
  },
  {
    "type": "node",
    "id": 2303923551,
    "lat": 39.5717895,
    "lon": 2.6514872,
    "timestamp": "2016-11-16T05:40:40Z",
    "version": 3,
    "changeset": 43689549,
    "user": "thetornado76",
    "uid": 1624486,
    "tags": {
      "amenity": "restaurant",
      "cuisine": "italian",
      "name": "Il Grotto",
      "outdoor_seating": "pedestrian_zone"
    }
  },
  {
    "type": "node",
    "id": 2303923553,
    "lat": 39.5710854,
    "lon": 2.652232,
    "timestamp": "2013-05-14T16:19:16Z",
    "version": 1,
    "changeset": 16127500,
    "user": "sir-mapalot",
    "uid": 475943,
    "tags": {
      "amenity": "restaurant",
      "cuisine": "italian"
    }
  },
  {
    "type": "node",
    "id": 2303923554,
    "lat": 39.5710885,
    "lon": 2.6518839,
    "timestamp": "2021-10-21T14:42:48Z",
    "version": 6,
    "changeset": 112796089,
    "user": "pedrojuan01",
    "uid": 1948725,
    "tags": {
      "amenity": "restaurant",
      "brand": "Lizarrán",
      "brand:wikidata": "Q1866620",
      "brand:wikipedia": "de:Lizarran",
      "cuisine": "spanish",
      "name": "Lizarrán",
      "outdoor_seating": "pedestrian_zone"
    }
  },
  {
    "type": "node",
    "id": 2313271951,
    "lat": 39.5732732,
    "lon": 2.6430383,
    "timestamp": "2024-10-07T15:26:56Z",
    "version": 5,
    "changeset": 157587415,
    "user": "pedrojuan01",
    "uid": 1948725,
    "tags": {
      "amenity": "restaurant",
      "brand": "BLOCK HOUSE",
      "brand:wikidata": "Q320430",
      "brand:wikipedia": "de:Block House",
      "cuisine": "steak_house",
      "name": "BLOCK HOUSE"
    }
  },
  {
    "type": "node",
    "id": 2316977768,
    "lat": 39.7903373,
    "lon": 2.6907091,
    "timestamp": "2021-01-14T11:37:54Z",
    "version": 4,
    "changeset": 97493065,
    "user": "pedrojuan01",
    "uid": 1948725,
    "tags": {
      "amenity": "restaurant",
      "name": "Es Canyís",
      "phone": "+34 971 63 14 06",
      "website": "http://www.escanyis.es/"
    }
  },
  {
    "type": "node",
    "id": 2319452952,
    "lat": 39.5169524,
    "lon": 2.4813086,
    "timestamp": "2022-05-08T04:40:07Z",
    "version": 4,
    "changeset": 120688570,
    "user": "pedrojuan01",
    "uid": 1948725,
    "tags": {
      "amenity": "restaurant",
      "name": "Barracuda"
    }
  },
  {
    "type": "node",
    "id": 2322879579,
    "lat": 39.5382084,
    "lon": 2.4499717,
    "timestamp": "2015-05-01T20:46:39Z",
    "version": 2,
    "changeset": 30703934,
    "user": "elyuma",
    "uid": 2085868,
    "tags": {
      "addr:city": "Peguera",
      "addr:housenumber": "4",
      "addr:postcode": "07160",
      "addr:street": "Carrer del Malgrat",
      "amenity": "restaurant",
      "name": "La Cubita"
    }
  },
  {
    "type": "node",
    "id": 2322879580,
    "lat": 39.5378299,
    "lon": 2.4530471,
    "timestamp": "2022-12-10T18:41:03Z",
    "version": 5,
    "changeset": 129942269,
    "user": "jmaspons",
    "uid": 11725140,
    "tags": {
      "amenity": "restaurant",
      "name": "La Fontana",
      "name:ca": "La Fontana",
      "wheelchair": "limited"
    }
  },
  {
    "type": "node",
    "id": 2322879636,
    "lat": 39.5376559,
    "lon": 2.449784,
    "timestamp": "2015-10-07T07:54:24Z",
    "version": 4,
    "changeset": 34484910,
    "user": "pedrojuan01",
    "uid": 1948725,
    "tags": {
      "amenity": "restaurant",
      "name": "Malgrats"
    }
  },
  {
    "type": "node",
    "id": 2322879637,
    "lat": 39.53796,
    "lon": 2.4499149,
    "timestamp": "2022-11-27T01:43:25Z",
    "version": 6,
    "changeset": 129420048,
    "user": "jmaspons",
    "uid": 11725140,
    "tags": {
      "addr:city": "Peguera",
      "addr:housenumber": "37",
      "addr:postcode": "07160",
      "addr:street": "Boulevard de Peguera",
      "amenity": "restaurant",
      "name": "Oasis",
      "name:ca": "Oasis"
    }
  },
  {
    "type": "node",
    "id": 2329448260,
    "lat": 39.5727608,
    "lon": 2.6515784,
    "timestamp": "2020-03-10T15:19:26Z",
    "version": 3,
    "changeset": 82013728,
    "user": "pedrojuan01",
    "uid": 1948725,
    "tags": {
      "addr:housenumber": "5",
      "addr:street": "carrer d'Arabí",
      "amenity": "restaurant",
      "cuisine": "spanish",
      "name": "L'Antiquari"
    }
  },
  {
    "type": "node",
    "id": 2339275400,
    "lat": 39.5320249,
    "lon": 2.5680557,
    "timestamp": "2013-06-10T14:03:06Z",
    "version": 1,
    "changeset": 16496515,
    "user": "TechnoFreak",
    "uid": 82264,
    "tags": {
      "amenity": "restaurant",
      "cuisine": "sushi",
      "name": "Tahini",
      "source": "survey"
    }
  },
  {
    "type": "node",
    "id": 2357946666,
    "lat": 39.5704263,
    "lon": 2.6534902,
    "timestamp": "2020-04-05T21:30:56Z",
    "version": 3,
    "changeset": 83112937,
    "user": "pedrojuan01",
    "uid": 1948725,
    "tags": {
      "amenity": "restaurant",
      "cuisine": "italian"
    }
  },
  {
    "type": "node",
    "id": 2391783700,
    "lat": 39.5736302,
    "lon": 2.6542993,
    "timestamp": "2022-05-19T20:17:48Z",
    "version": 4,
    "changeset": 121212053,
    "user": "Hugoren Martinako",
    "uid": 3392826,
    "tags": {
      "addr:housenumber": "7",
      "addr:postcode": "07002",
      "addr:street": "Plaça del Comtat del Rosselló",
      "amenity": "restaurant",
      "cuisine": "burger",
      "name": "Badal Corner",
      "opening_hours": "Tu-Sa 13:00-23:00",
      "phone": "+34 871 238462"
    }
  },
  {
    "type": "node",
    "id": 2401697288,
    "lat": 39.5373954,
    "lon": 2.4477929,
    "timestamp": "2021-06-01T17:44:42Z",
    "version": 4,
    "changeset": 105691757,
    "user": "OSMNewby",
    "uid": 13462039,
    "tags": {
      "addr:city": "Peguera",
      "addr:housenumber": "1",
      "addr:postcode": "07160",
      "addr:street": "Carrer Roser",
      "amenity": "restaurant",
      "cuisine": "spanish",
      "name": "Casa Enrique",
      "opening_hours": "Tu-Sa 12:30-22:30; Su 17:30-22:30"
    }
  },
  {
    "type": "node",
    "id": 2401701522,
    "lat": 39.537571,
    "lon": 2.4487731,
    "timestamp": "2019-05-07T06:32:35Z",
    "version": 3,
    "changeset": 69961413,
    "user": "minnni",
    "uid": 1681717,
    "tags": {
      "amenity": "restaurant",
      "cuisine": "regional",
      "name": "Hawaii"
    }
  },
  {
    "type": "node",
    "id": 2423951439,
    "lat": 39.6227224,
    "lon": 2.5274348,
    "timestamp": "2022-11-19T00:49:43Z",
    "version": 4,
    "changeset": 129107093,
    "user": "jmaspons",
    "uid": 11725140,
    "tags": {
      "amenity": "restaurant",
      "internet_access": "wlan",
      "name": "Can Blau",
      "name:ca": "Can Blau"
    }
  },
  {
    "type": "node",
    "id": 2429036991,
    "lat": 39.5671225,
    "lon": 2.6282962,
    "timestamp": "2013-08-28T18:13:20Z",
    "version": 2,
    "changeset": 17559345,
    "user": "bigbug21",
    "uid": 15748,
    "tags": {
      "addr:city": "Palma de Mallorca",
      "addr:housenumber": "6",
      "addr:street": "carrer de Federico García Lorca",
      "amenity": "restaurant",
      "name": "Toque"
    }
  },
  {
    "type": "node",
    "id": 2429036992,
    "lat": 39.5679331,
    "lon": 2.6446845,
    "timestamp": "2023-09-21T20:23:53Z",
    "version": 4,
    "changeset": 141576724,
    "user": "Hugoren Martinako",
    "uid": 3392826,
    "tags": {
      "addr:housenumber": "5",
      "addr:postcode": "07012",
      "addr:street": "passeig de Sagrera",
      "amenity": "restaurant",
      "cuisine": "fish",
      "name": "Caballito de mar",
      "website": "https://caballitodemar.com/"
    }
  },
  {
    "type": "node",
    "id": 2431243646,
    "lat": 39.5367021,
    "lon": 2.4575753,
    "timestamp": "2014-09-08T07:45:00Z",
    "version": 3,
    "changeset": 25300841,
    "user": "minnni",
    "uid": 1681717,
    "tags": {
      "amenity": "restaurant",
      "name": "Casa Carolina"
    }
  },
  {
    "type": "node",
    "id": 2431243647,
    "lat": 39.5353941,
    "lon": 2.4573709,
    "timestamp": "2013-08-25T16:24:13Z",
    "version": 1,
    "changeset": 17502570,
    "user": "bigbug21",
    "uid": 15748,
    "tags": {
      "amenity": "restaurant",
      "name": "La Vida"
    }
  },
  {
    "type": "node",
    "id": 2431526748,
    "lat": 39.5917959,
    "lon": 2.5965551,
    "timestamp": "2023-01-15T18:55:59Z",
    "version": 2,
    "changeset": 131310373,
    "user": "jmaspons",
    "uid": 11725140,
    "tags": {
      "amenity": "restaurant",
      "level": "5",
      "name": "Es Castell",
      "name:ca": "Es Castell",
      "source": "extrapolation"
    }
  },
  {
    "type": "node",
    "id": 2431526749,
    "lat": 39.5916443,
    "lon": 2.5963792,
    "timestamp": "2013-08-25T20:57:59Z",
    "version": 1,
    "changeset": 17507349,
    "user": "bigbug21",
    "uid": 15748,
    "tags": {
      "amenity": "restaurant",
      "level": "5",
      "name": "Es Vi",
      "source": "extrapolation"
    }
  },
  {
    "type": "node",
    "id": 2432226434,
    "lat": 39.5485198,
    "lon": 2.3880231,
    "timestamp": "2016-01-01T13:59:46Z",
    "version": 2,
    "changeset": 36298267,
    "user": "Galbinus",
    "uid": 162630,
    "tags": {
      "amenity": "restaurant",
      "cuisine": "italian",
      "name": "Il Grillo"
    }
  },
  {
    "type": "node",
    "id": 2432226436,
    "lat": 39.548263,
    "lon": 2.3844959,
    "timestamp": "2019-12-21T15:09:12Z",
    "version": 3,
    "changeset": 78714756,
    "user": "pedrojuan01",
    "uid": 1948725,
    "tags": {
      "amenity": "restaurant",
      "name": "Verico"
    }
  },
  {
    "type": "node",
    "id": 2435563118,
    "lat": 39.5727129,
    "lon": 2.6393743,
    "timestamp": "2020-02-21T17:30:46Z",
    "version": 2,
    "changeset": 81327265,
    "user": "pedrojuan01",
    "uid": 1948725,
    "tags": {
      "amenity": "restaurant",
      "cuisine": "indian",
      "name": "Basmati"
    }
  },
  {
    "type": "node",
    "id": 2435563119,
    "lat": 39.5699988,
    "lon": 2.6495988,
    "timestamp": "2022-10-19T06:43:29Z",
    "version": 5,
    "changeset": 127760486,
    "user": "pedrojuan01",
    "uid": 1948725,
    "tags": {
      "amenity": "restaurant",
      "cuisine": "pizza",
      "name": "City Pizza",
      "name:en": "Victor's Trattoria",
      "name:es": "Victor's Trattoria"
    }
  },
  {
    "type": "node",
    "id": 2435563128,
    "lat": 39.5697185,
    "lon": 2.6495603,
    "timestamp": "2016-06-03T16:28:31Z",
    "version": 3,
    "changeset": 39782918,
    "user": "pedrojuan01",
    "uid": 1948725,
    "tags": {
      "amenity": "restaurant",
      "name": "C'as Cuiner"
    }
  },
  {
    "type": "node",
    "id": 2438413105,
    "lat": 39.5878942,
    "lon": 2.5973012,
    "timestamp": "2013-08-30T05:45:44Z",
    "version": 1,
    "changeset": 17582821,
    "user": "bigbug21",
    "uid": 15748,
    "tags": {
      "addr:city": "Palma de Mallorca",
      "addr:country": "ES",
      "addr:housenumber": "1",
      "addr:street": "carrer Almadrà",
      "amenity": "restaurant",
      "name": "El Pato",
      "note": "Golf Clubhouse"
    }
  },
  {
    "type": "node",
    "id": 2473599016,
    "lat": 39.536558,
    "lon": 2.4566755,
    "timestamp": "2023-07-26T13:53:21Z",
    "version": 6,
    "changeset": 139039372,
    "user": "EST19",
    "uid": 11858459,
    "tags": {
      "addr:city": "Peguera",
      "addr:housenumber": "71",
      "addr:postcode": "07160",
      "addr:street": "Boulevard de Peguera",
      "amenity": "restaurant",
      "email": "info@nirador.com",
      "name": "Nirad'or - Nirador",
      "opening_hours": "Mo-Su 17:00-22:00",
      "phone": "+34648406352",
      "phone:mobile": "+34 648 40 63 52",
      "website": "https://nirador.com/index.php/de/menue",
      "wheelchair": "limited"
    }
  },
  {
    "type": "node",
    "id": 2473601532,
    "lat": 39.5361236,
    "lon": 2.4557072,
    "timestamp": "2024-07-18T15:31:35Z",
    "version": 7,
    "changeset": 154107272,
    "user": "2ndOrbit",
    "uid": 11191000,
    "tags": {
      "amenity": "restaurant"
    }
  },
  {
    "type": "node",
    "id": 2473602215,
    "lat": 39.5359333,
    "lon": 2.4554282,
    "timestamp": "2020-05-24T04:30:28Z",
    "version": 3,
    "changeset": 85670862,
    "user": "minnni",
    "uid": 1681717,
    "tags": {
      "addr:housenumber": "4",
      "addr:postcode": "07160",
      "addr:street": "Carrer de Sebelli",
      "amenity": "restaurant",
      "cuisine": "regional",
      "name": "Latino"
    }
  },
  {
    "type": "node",
    "id": 2502732710,
    "lat": 39.7935715,
    "lon": 2.6968501,
    "timestamp": "2016-10-04T12:13:04Z",
    "version": 3,
    "changeset": 42628290,
    "user": "FraSommer",
    "uid": 4673017,
    "tags": {
      "addr:city": "Port de Soller",
      "addr:housenumber": "14",
      "addr:postcode": "07108",
      "addr:street": "Es Traves",
      "amenity": "restaurant",
      "capacity": "30",
      "cuisine": "regional",
      "name": "Cas Pagés",
      "takeaway": "no"
    }
  },
  {
    "type": "node",
    "id": 2502732724,
    "lat": 39.7951131,
    "lon": 2.6969829,
    "timestamp": "2023-10-04T06:40:54Z",
    "version": 4,
    "changeset": 142128636,
    "user": "94621",
    "uid": 8225234,
    "tags": {
      "amenity": "restaurant",
      "indoor_seating": "yes",
      "name": "LK Lounge",
      "outdoor_seating": "yes"
    }
  },
  {
    "type": "node",
    "id": 2502732727,
    "lat": 39.7934594,
    "lon": 2.6968118,
    "timestamp": "2015-09-17T20:32:08Z",
    "version": 2,
    "changeset": 34091977,
    "user": "gpesquero",
    "uid": 3584,
    "tags": {
      "amenity": "restaurant",
      "name": "Nunu"
    }
  },
  {
    "type": "node",
    "id": 2502732731,
    "lat": 39.7937921,
    "lon": 2.6969538,
    "timestamp": "2022-11-26T00:45:51Z",
    "version": 4,
    "changeset": 129386635,
    "user": "jmaspons",
    "uid": 11725140,
    "tags": {
      "amenity": "restaurant",
      "name": "Ran de mar",
      "name:ca": "Ran de mar"
    }
  },
  {
    "type": "node",
    "id": 2502732735,
    "lat": 39.7940464,
    "lon": 2.6969737,
    "timestamp": "2023-01-15T19:24:06Z",
    "version": 4,
    "changeset": 131311173,
    "user": "jmaspons",
    "uid": 11725140,
    "tags": {
      "amenity": "restaurant",
      "name": "Ses Oliveres",
      "name:ca": "Ses Oliveres"
    }
  },
  {
    "type": "node",
    "id": 2541365766,
    "lat": 39.5374617,
    "lon": 2.4580839,
    "timestamp": "2015-11-08T22:14:51Z",
    "version": 4,
    "changeset": 35180230,
    "user": "pedrojuan01",
    "uid": 1948725,
    "tags": {
      "addr:city": "Pequera",
      "addr:housename": "Feliciano's",
      "addr:housenumber": "21",
      "addr:postcode": "07160",
      "addr:street": "Carrer de les Gavines",
      "amenity": "restaurant",
      "cuisine": "italian",
      "name": "Feliciano's",
      "wheelchair": "yes"
    }
  },
  {
    "type": "node",
    "id": 2541415974,
    "lat": 39.5382453,
    "lon": 2.4518391,
    "timestamp": "2016-01-11T22:38:25Z",
    "version": 3,
    "changeset": 36515038,
    "user": "pedrojuan01",
    "uid": 1948725,
    "tags": {
      "addr:city": "Pequera",
      "addr:housename": "Restaurant Grill Los Poetas",
      "addr:housenumber": "3-4",
      "addr:postcode": "07160",
      "addr:street": "Calle Naranjos",
      "amenity": "restaurant",
      "cuisine": "regional",
      "name": "Los Poetas"
    }
  },
  {
    "type": "node",
    "id": 2555480546,
    "lat": 39.794426,
    "lon": 2.6969519,
    "timestamp": "2016-10-17T19:15:31Z",
    "version": 2,
    "changeset": 42967056,
    "user": "pedrojuan01",
    "uid": 1948725,
    "tags": {
      "amenity": "restaurant",
      "cuisine": "pizza",
      "name": "Pizzeria del Porto"
    }
  },
  {
    "type": "node",
    "id": 2555487017,
    "lat": 39.5684062,
    "lon": 2.6511504,
    "timestamp": "2024-02-14T11:48:12Z",
    "version": 6,
    "changeset": 147447403,
    "user": "kapazao_import",
    "uid": 8770019,
    "tags": {
      "addr:housenumber": "5",
      "addr:street": "Carrer de Can Fortuny",
      "amenity": "restaurant",
      "capacity": "20",
      "cuisine": "french_vietnamese_fusion",
      "name": "Las Olas",
      "opening_hours": "Mo-Sa 12:30-15:30; We-Sa 20:15-22:00",
      "outdoor_seating": "yes",
      "wheelchair:description": "only outdoor"
    }
  },
  {
    "type": "node",
    "id": 2582209995,
    "lat": 39.5727949,
    "lon": 2.6559011,
    "timestamp": "2013-12-16T11:01:14Z",
    "version": 1,
    "changeset": 19480207,
    "user": "somenxavier",
    "uid": 86282,
    "tags": {
      "amenity": "restaurant",
      "layer": "-1",
      "name": "Da Vinci's"
    }
  },
  {
    "type": "node",
    "id": 2584819037,
    "lat": 39.7105569,
    "lon": 2.6215835,
    "timestamp": "2023-01-15T19:26:08Z",
    "version": 4,
    "changeset": 131311206,
    "user": "jmaspons",
    "uid": 11725140,
    "tags": {
      "addr:city": "Valldemossa",
      "addr:country": "ES",
      "addr:housenumber": "10",
      "addr:postcode": "07170",
      "addr:street": "Carrer del Marquès de Vivot",
      "amenity": "restaurant",
      "cuisine": "spanish",
      "name": "Sa Mata",
      "name:ca": "Sa Mata"
    }
  },
  {
    "type": "node",
    "id": 2603416470,
    "lat": 39.537537,
    "lon": 2.4507144,
    "timestamp": "2019-05-04T05:06:10Z",
    "version": 3,
    "changeset": 69865957,
    "user": "minnni",
    "uid": 1681717,
    "tags": {
      "addr:city": "Calviá",
      "addr:country": "ES",
      "addr:housenumber": "54",
      "addr:postcode": "07160",
      "addr:street": "Boulevard de Peguera",
      "amenity": "restaurant",
      "email": "info@beachclub-paguera.es",
      "name": "BeachClub",
      "phone": "+34 971 68 51 12",
      "smoking:outside": "yes"
    }
  },
  {
    "type": "node",
    "id": 2603416471,
    "lat": 39.5373283,
    "lon": 2.4521694,
    "timestamp": "2022-08-16T05:31:51Z",
    "version": 4,
    "changeset": 124953168,
    "user": "pedrojuan01",
    "uid": 1948725,
    "tags": {
      "amenity": "restaurant",
      "name": "Beewi",
      "wheelchair": "yes"
    }
  },
  {
    "type": "node",
    "id": 2632085079,
    "lat": 39.573569,
    "lon": 2.6581055,
    "timestamp": "2019-07-23T11:09:15Z",
    "version": 3,
    "changeset": 72551935,
    "user": "pedrojuan01",
    "uid": 1948725,
    "tags": {
      "addr:housename": "Carrer Pere d'Alcàntara Penya",
      "addr:housenumber": "17",
      "addr:postcode": "07006",
      "addr:street": "Carrer Pere d'Alcàntara Penya",
      "amenity": "restaurant",
      "cuisine": "italian",
      "name": "Casa Carlina"
    }
  },
  {
    "type": "node",
    "id": 2653489778,
    "lat": 39.5789188,
    "lon": 2.65705,
    "timestamp": "2023-09-21T20:23:53Z",
    "version": 6,
    "changeset": 141576724,
    "user": "Hugoren Martinako",
    "uid": 3392826,
    "tags": {
      "amenity": "restaurant",
      "check_date:currency:XBT": "2023-06-28",
      "cuisine": "regional",
      "currency:XBT": "yes",
      "name": "Asador Bolixe",
      "opening_hours": "Mo-Sa 13:00-16:00,20:30-23:00",
      "phone": "+34871949447",
      "website": "https://bolixe.com/"
    }
  },
  {
    "type": "node",
    "id": 2766884351,
    "lat": 39.5363564,
    "lon": 2.4563777,
    "timestamp": "2018-11-02T12:03:16Z",
    "version": 3,
    "changeset": 64110809,
    "user": "pedrojuan01",
    "uid": 1948725,
    "tags": {
      "amenity": "restaurant",
      "cuisine": "italian",
      "name": "San Marco"
    }
  },
  {
    "type": "node",
    "id": 2767058227,
    "lat": 39.5190464,
    "lon": 2.4734072,
    "timestamp": "2019-09-19T10:24:11Z",
    "version": 4,
    "changeset": 74664524,
    "user": "Nordpfeil",
    "uid": 1337142,
    "tags": {
      "amenity": "restaurant",
      "cuisine": "regional",
      "name": "Caesar's",
      "outdoor_seating": "yes",
      "smoking": "outside"
    }
  },
  {
    "type": "node",
    "id": 2777015733,
    "lat": 39.5186544,
    "lon": 2.4795544,
    "timestamp": "2015-09-18T14:24:53Z",
    "version": 2,
    "changeset": 34104209,
    "user": "gpesquero",
    "uid": 3584,
    "tags": {
      "amenity": "restaurant",
      "contact:email": "info@restaurantempatheia.com",
      "contact:phone": "+34 871 978 222",
      "name": "Empatheia",
      "source": "survey",
      "website": "http://restaurantempatheia.com/"
    }
  },
  {
    "type": "node",
    "id": 2783569628,
    "lat": 39.5443696,
    "lon": 2.3886511,
    "timestamp": "2023-04-23T15:40:07Z",
    "version": 3,
    "changeset": 135267232,
    "user": "sanchi",
    "uid": 170106,
    "tags": {
      "amenity": "restaurant",
      "cuisine": "regional",
      "name": "Es Portal",
      "phone": "+34 971 672 118",
      "website": "https://www.restaurantesportal.com"
    }
  },
  {
    "type": "node",
    "id": 2783610912,
    "lat": 39.558471,
    "lon": 2.6747432,
    "timestamp": "2020-02-15T13:44:55Z",
    "version": 2,
    "changeset": 81043671,
    "user": "pedrojuan01",
    "uid": 1948725,
    "tags": {
      "amenity": "restaurant",
      "cuisine": "regional",
      "name": "Club Marítim Molinar"
    }
  },
  {
    "type": "node",
    "id": 2783638368,
    "lat": 39.5609763,
    "lon": 2.6705186,
    "timestamp": "2019-09-28T11:47:14Z",
    "version": 3,
    "changeset": 75038207,
    "user": "pedrojuan01",
    "uid": 1948725,
    "tags": {
      "amenity": "restaurant",
      "name": "Club nàutic des Portitxol"
    }
  },
  {
    "type": "node",
    "id": 2807490932,
    "lat": 39.7600151,
    "lon": 2.6413957,
    "timestamp": "2023-10-03T09:41:45Z",
    "version": 5,
    "changeset": 142091812,
    "user": "94621",
    "uid": 8225234,
    "tags": {
      "amenity": "restaurant",
      "cuisine": "spanish",
      "indoor_seating": "no",
      "name": "Can Lluc",
      "name:ca": "Can Lluc",
      "opening_hours": "Th-Tu 12:45-18:45",
      "outdoor_seating": "yes"
    }
  },
  {
    "type": "node",
    "id": 2816014009,
    "lat": 39.5744058,
    "lon": 2.6513579,
    "timestamp": "2018-11-10T19:41:58Z",
    "version": 4,
    "changeset": 64360399,
    "user": "Paco Nusuba",
    "uid": 7506040,
    "tags": {
      "addr:city": "Palma",
      "addr:housenumber": "1a",
      "addr:postcode": "07003",
      "addr:street": "carrer de can Maçanet",
      "amenity": "restaurant",
      "capacity": "100",
      "cuisine": "international;pizza;seafood;coffee_shop",
      "delivery": "no",
      "email": "info.mhouse@urhotels.com",
      "name": "M House café & bistró",
      "opening_hours": "Mo-Su 07:00-23:00",
      "outdoor_seating": "yes",
      "phone": "+34 971 214 848",
      "smoking": "outside",
      "takeaway": "no",
      "website": "https://www.mhousehotel.com/"
    }
  },
  {
    "type": "node",
    "id": 2833506765,
    "lat": 39.5703237,
    "lon": 2.6454226,
    "timestamp": "2023-10-26T16:06:29Z",
    "version": 7,
    "changeset": 143169340,
    "user": "b-jazz-bot",
    "uid": 9451067,
    "tags": {
      "addr:city": "Palma",
      "addr:housenumber": "7",
      "addr:postcode": "07012",
      "addr:street": "carrer de Sant Feliu",
      "amenity": "restaurant",
      "diet:vegan": "yes",
      "diet:vegetarian": "yes",
      "name": "Bon Lloc",
      "opening_hours": "Mo-We 13:00-16:00; Th-Sa 13:00-16:00, 19:30-22:30",
      "phone": "+34-971718617",
      "source": "happycow.net",
      "website": "https://www.bonllocrestaurant.com/"
    }
  },
  {
    "type": "node",
    "id": 2841134210,
    "lat": 39.5376331,
    "lon": 2.4490576,
    "timestamp": "2019-05-07T06:32:35Z",
    "version": 6,
    "changeset": 69961413,
    "user": "minnni",
    "uid": 1681717,
    "tags": {
      "addr:city": "Paguera",
      "addr:street": "Bulevard de Peguera",
      "amenity": "restaurant",
      "capacity": "20",
      "name": "Bar La Ruta",
      "takeaway": "yes"
    }
  },
  {
    "type": "node",
    "id": 2841134630,
    "lat": 39.5372332,
    "lon": 2.4482782,
    "timestamp": "2014-09-01T12:57:50Z",
    "version": 3,
    "changeset": 25158978,
    "user": "wheelmap_visitor",
    "uid": 290680,
    "tags": {
      "amenity": "restaurant",
      "name": "La Pampa",
      "wheelchair": "yes"
    }
  },
  {
    "type": "node",
    "id": 2847512822,
    "lat": 39.5357651,
    "lon": 2.4589898,
    "timestamp": "2016-11-27T19:54:55Z",
    "version": 6,
    "changeset": 43990932,
    "user": "pedrojuan01",
    "uid": 1948725,
    "tags": {
      "addr:housenumber": "90",
      "addr:postcode": "07160",
      "addr:street": "Avenida Peguera",
      "amenity": "restaurant",
      "cuisine": "spanish",
      "name": "La Güera"
    }
  },
  {
    "type": "node",
    "id": 2854426514,
    "lat": 39.5355169,
    "lon": 2.4569304,
    "timestamp": "2015-05-24T06:37:11Z",
    "version": 3,
    "changeset": 31412411,
    "user": "minnni",
    "uid": 1681717,
    "tags": {
      "amenity": "restaurant",
      "name": "Mar y Mar"
    }
  },
  {
    "type": "node",
    "id": 2865919970,
    "lat": 39.5369556,
    "lon": 2.4549955,
    "timestamp": "2015-08-20T23:58:54Z",
    "version": 2,
    "changeset": 33473417,
    "user": "elyuma",
    "uid": 2085868,
    "tags": {
      "addr:city": "Peguera",
      "addr:housenumber": "1",
      "addr:postcode": "07160",
      "addr:street": "Carrer de les Gavines",
      "amenity": "restaurant",
      "cuisine": "thai",
      "name": "Horapa"
    }
  },
  {
    "type": "node",
    "id": 2948815258,
    "lat": 39.5714599,
    "lon": 2.6480062,
    "timestamp": "2019-03-27T09:02:35Z",
    "version": 2,
    "changeset": 68578051,
    "user": "b-jazz-bot",
    "uid": 9451067,
    "tags": {
      "amenity": "restaurant",
      "cuisine": "basque",
      "name": "Tast",
      "source": "survey",
      "website": "https://www.tast.com/"
    }
  },
  {
    "type": "node",
    "id": 2959649915,
    "lat": 39.5367129,
    "lon": 2.4555567,
    "timestamp": "2016-09-30T07:08:02Z",
    "version": 3,
    "changeset": 42534679,
    "user": "minnni",
    "uid": 1681717,
    "tags": {
      "amenity": "restaurant",
      "cuisine": "pizza",
      "name": "Gecko"
    }
  },
  {
    "type": "node",
    "id": 2971266437,
    "lat": 39.5678047,
    "lon": 2.6456143,
    "timestamp": "2015-10-19T10:05:43Z",
    "version": 2,
    "changeset": 34728444,
    "user": "pedrojuan01",
    "uid": 1948725,
    "tags": {
      "addr:city": "Palma de Mallorca",
      "addr:housenumber": "24",
      "addr:street": "Avinguda d'Antoni Maura",
      "amenity": "restaurant",
      "cuisine": "spanish",
      "name": "Moby Dick"
    }
  },
  {
    "type": "node",
    "id": 2971266439,
    "lat": 39.5644374,
    "lon": 2.6279063,
    "timestamp": "2016-04-28T18:33:48Z",
    "version": 3,
    "changeset": 38961329,
    "user": "Elizabeth Phillips",
    "uid": 3859533,
    "tags": {
      "addr:city": "Palma de Mallorca",
      "addr:housenumber": "29",
      "addr:street": "Avinguda de Gabriel Roca",
      "amenity": "restaurant",
      "cuisine": "spanish",
      "name": "Tapa Negra",
      "opening_hours": "Mo-Su 11:30-00:00",
      "phone": "+34 971 28 69 29"
    }
  },
  {
    "type": "node",
    "id": 2971266441,
    "lat": 39.5949377,
    "lon": 2.6487417,
    "timestamp": "2014-07-20T10:22:16Z",
    "version": 2,
    "changeset": 24251280,
    "user": "osmtraveller",
    "uid": 1811172,
    "tags": {
      "addr:city": "Palma de Mallorca",
      "addr:street": "Carrer del Bisbe Pere de Puigdorfila",
      "amenity": "restaurant",
      "cuisine": "spanish",
      "name": "La Tapa Andaluza"
    }
  },
  {
    "type": "node",
    "id": 2971465411,
    "lat": 39.709061,
    "lon": 2.6231298,
    "timestamp": "2025-02-10T19:46:58Z",
    "version": 8,
    "changeset": 162365363,
    "user": "ojfuss",
    "uid": 8951498,
    "tags": {
      "addr:city": "Valldemossa",
      "addr:housenumber": "6",
      "addr:postcode": "07170",
      "addr:street": "plaça de la Miranda des Lledoners",
      "amenity": "restaurant",
      "cuisine": "regional",
      "name": "La Posada",
      "name:es": "La Posada",
      "opening_hours": "Mo-Su 12:00-22:30",
      "phone": "+34 630 97 87 00",
      "website": "https://valldemossa.restaurant/"
    }
  },
  {
    "type": "node",
    "id": 2971465412,
    "lat": 39.7100652,
    "lon": 2.6230255,
    "timestamp": "2023-12-14T13:45:49Z",
    "version": 7,
    "changeset": 145113157,
    "user": "Rhadros",
    "uid": 109727,
    "tags": {
      "addr:city": "Valldemossa",
      "addr:country": "ES",
      "addr:housenumber": "8",
      "addr:postcode": "07170",
      "addr:street": "Carrer Uetam",
      "amenity": "restaurant",
      "check_date": "2023-12-12",
      "cuisine": "regional",
      "name": "Can Marió",
      "phone": "+34 971 61 2122",
      "tourism": "hotel",
      "website": "http://www.hostalcanmario.net"
    }
  },
  {
    "type": "node",
    "id": 2971473372,
    "lat": 39.7106611,
    "lon": 2.6216126,
    "timestamp": "2023-12-14T13:45:52Z",
    "version": 3,
    "changeset": 145113157,
    "user": "Rhadros",
    "uid": 109727,
    "tags": {
      "addr:city": "Valldemossa",
      "addr:country": "ES",
      "addr:housenumber": "10c",
      "addr:postcode": "07170",
      "addr:street": "Carrer del Marquès de Vivot",
      "amenity": "restaurant",
      "check_date": "2023-12-12",
      "name": "Insieme"
    }
  },
  {
    "type": "node",
    "id": 3068743144,
    "lat": 39.5671967,
    "lon": 2.6253601,
    "timestamp": "2017-12-13T11:05:18Z",
    "version": 3,
    "changeset": 54592674,
    "user": "parukhin",
    "uid": 519501,
    "tags": {
      "addr:city": "Palma de Mallorca",
      "addr:housenumber": "14",
      "addr:postcode": "07014",
      "addr:street": "Carrer de Camilo José Cela",
      "amenity": "restaurant",
      "cuisine": "japanese",
      "name": "Shogun",
      "opening_hours": "Mo-Su 13:00-16:00,20:00-23:30",
      "source": "http://www.eltenedor.es/restaurante/shogun/21739#rt/1"
    }
  },
  {
    "type": "node",
    "id": 3068765191,
    "lat": 39.5676139,
    "lon": 2.627534,
    "timestamp": "2023-04-01T10:46:13Z",
    "version": 4,
    "changeset": 134375949,
    "user": "LudovicG",
    "uid": 209796,
    "tags": {
      "addr:city": "Palma de Mallorca",
      "addr:housenumber": "8",
      "addr:postcode": "07014",
      "addr:street": "Avinguda de Joan Miró",
      "amenity": "restaurant",
      "cuisine": "spanish",
      "name": "La Pérgola"
    }
  },
  {
    "type": "node",
    "id": 3069822642,
    "lat": 39.5661566,
    "lon": 2.6266166,
    "timestamp": "2022-04-05T07:12:17Z",
    "version": 3,
    "changeset": 119329581,
    "user": "pedrojuan01",
    "uid": 1948725,
    "tags": {
      "addr:city": "Palma de Mallorca",
      "addr:housenumber": "20",
      "addr:postcode": "07014",
      "addr:street": "Avinguda de Joan Miró",
      "amenity": "restaurant",
      "cuisine": "mediterranean",
      "name": "Can Juanito"
    }
  },
  {
    "type": "node",
    "id": 3073799813,
    "lat": 39.5714241,
    "lon": 2.6477993,
    "timestamp": "2014-09-12T17:52:33Z",
    "version": 1,
    "changeset": 25396100,
    "user": "paumoso",
    "uid": 2320470,
    "tags": {
      "amenity": "restaurant",
      "cuisine": "japanese",
      "name": "Sushi Club"
    }
  },
  {
    "type": "node",
    "id": 3077899431,
    "lat": 39.5763057,
    "lon": 2.6357583,
    "timestamp": "2014-09-15T08:08:49Z",
    "version": 1,
    "changeset": 25449261,
    "user": "srcobardeanonimo",
    "uid": 2335373,
    "tags": {
      "amenity": "restaurant",
      "capacity": "50",
      "cuisine": "pescado_fresco",
      "name": "Índalo",
      "smoking": "outside"
    }
  },
  {
    "type": "node",
    "id": 3081629354,
    "lat": 39.5719386,
    "lon": 2.6465625,
    "timestamp": "2021-11-17T06:48:34Z",
    "version": 4,
    "changeset": 113882164,
    "user": "pedrojuan01",
    "uid": 1948725,
    "tags": {
      "amenity": "restaurant",
      "name": "Fera"
    }
  },
  {
    "type": "node",
    "id": 3087134462,
    "lat": 39.5263312,
    "lon": 2.5460046,
    "timestamp": "2015-07-06T22:53:30Z",
    "version": 2,
    "changeset": 32460796,
    "user": "pedrojuan01",
    "uid": 1948725,
    "tags": {
      "amenity": "restaurant",
      "cuisine": "italian",
      "name": "Extremadura"
    }
  },
  {
    "type": "node",
    "id": 3089339396,
    "lat": 39.542689,
    "lon": 2.3899341,
    "timestamp": "2023-10-26T16:01:40Z",
    "version": 4,
    "changeset": 143169081,
    "user": "b-jazz-bot",
    "uid": 9451067,
    "tags": {
      "addr:housenumber": "24",
      "addr:postcode": "07157",
      "addr:street": "Carrer d'Antoni Calafat",
      "amenity": "restaurant",
      "name": "Trespais",
      "website": "https://www.trespais-mallorca.com/"
    }
  },
  {
    "type": "node",
    "id": 3144359810,
    "lat": 39.7961779,
    "lon": 2.6967817,
    "timestamp": "2023-10-04T06:42:22Z",
    "version": 5,
    "changeset": 142128636,
    "user": "94621",
    "uid": 8225234,
    "tags": {
      "amenity": "restaurant",
      "indoor_seating": "yes",
      "name": "Altamar",
      "name:ca": "Altamar",
      "outdoor_seating": "yes",
      "toilets:wheelchair": "yes",
      "wheelchair": "yes"
    }
  },
  {
    "type": "node",
    "id": 3214175543,
    "lat": 39.5079538,
    "lon": 2.5315622,
    "timestamp": "2015-01-16T19:34:18Z",
    "version": 2,
    "changeset": 28194457,
    "user": "pedrojuan01",
    "uid": 1948725,
    "tags": {
      "amenity": "restaurant",
      "name": "Europe"
    }
  },
  {
    "type": "node",
    "id": 3214198982,
    "lat": 39.5080011,
    "lon": 2.531236,
    "timestamp": "2015-01-16T19:34:18Z",
    "version": 2,
    "changeset": 28194457,
    "user": "pedrojuan01",
    "uid": 1948725,
    "tags": {
      "amenity": "restaurant",
      "name": "Moon"
    }
  },
  {
    "type": "node",
    "id": 3223285590,
    "lat": 39.5950758,
    "lon": 2.6863875,
    "timestamp": "2024-07-23T17:23:16Z",
    "version": 3,
    "changeset": 154317153,
    "user": "MapWander",
    "uid": 21773631,
    "tags": {
      "amenity": "restaurant",
      "name": "El Rincón de Cai",
      "opening_hours": "Tu-Su 13:00-15:30"
    }
  },
  {
    "type": "node",
    "id": 3388962778,
    "lat": 39.7471154,
    "lon": 2.6490443,
    "timestamp": "2024-02-07T08:26:54Z",
    "version": 3,
    "changeset": 147165428,
    "user": "kapazao_import",
    "uid": 8770019,
    "tags": {
      "addr:city": "Deià",
      "addr:housenumber": "1",
      "addr:street": "Vina Vieja",
      "amenity": "restaurant",
      "cuisine": "italian",
      "int_name": "Senset & Senseta",
      "name": "Trattoria Italiana"
    }
  },
  {
    "type": "node",
    "id": 3401583919,
    "lat": 39.5691077,
    "lon": 2.645125,
    "timestamp": "2019-04-21T14:18:45Z",
    "version": 3,
    "changeset": 69422797,
    "user": "wheelmap_visitor",
    "uid": 290680,
    "tags": {
      "amenity": "restaurant",
      "cuisine": "spanish",
      "name": "Bar Dia",
      "wheelchair": "no"
    }
  },
  {
    "type": "node",
    "id": 3439564211,
    "lat": 39.5745497,
    "lon": 2.6570785,
    "timestamp": "2023-10-08T12:36:18Z",
    "version": 2,
    "changeset": 142303207,
    "user": "uebelhacker",
    "uid": 2047374,
    "tags": {
      "addr:housenumber": "14",
      "addr:street": "Carrer de Costa i Llobera",
      "amenity": "restaurant",
      "cuisine": "pizza",
      "name": "Un Octavo",
      "opening_hours": "Tu 13:00-17:00, 19:30-23:30; We-Sa 13:00-16:30, 19:30-23:30",
      "phone": "+34 971 46 43 48",
      "website": "https://unoctavo.negocio.site/"
    }
  },
  {
    "type": "node",
    "id": 3480338410,
    "lat": 39.5381384,
    "lon": 2.4475006,
    "timestamp": "2015-04-27T01:28:49Z",
    "version": 1,
    "changeset": 30522437,
    "user": "elyuma",
    "uid": 2085868,
    "tags": {
      "addr:city": "Peguera",
      "addr:postcode": "07160",
      "addr:street": "Carrer de la Mimosa",
      "amenity": "restaurant",
      "name": "Alt Hamburg"
    }
  },
  {
    "type": "node",
    "id": 3480338411,
    "lat": 39.5380336,
    "lon": 2.4470977,
    "timestamp": "2022-11-27T01:41:08Z",
    "version": 4,
    "changeset": 129420024,
    "user": "jmaspons",
    "uid": 11725140,
    "tags": {
      "addr:city": "Peguera",
      "addr:postcode": "07160",
      "addr:street": "Carrer de la Mimosa",
      "amenity": "restaurant",
      "name": "Alhambra",
      "name:ca": "Alhambra"
    }
  },
  {
    "type": "node",
    "id": 3484092989,
    "lat": 39.5375116,
    "lon": 2.4503093,
    "timestamp": "2019-05-04T05:06:10Z",
    "version": 3,
    "changeset": 69865957,
    "user": "minnni",
    "uid": 1681717,
    "tags": {
      "amenity": "restaurant",
      "name": "Gaby"
    }
  },
  {
    "type": "node",
    "id": 3489573543,
    "lat": 39.5380603,
    "lon": 2.4482135,
    "timestamp": "2018-06-03T04:26:15Z",
    "version": 2,
    "changeset": 59498612,
    "user": "minnni",
    "uid": 1681717,
    "tags": {
      "addr:city": "Peguera",
      "addr:housenumber": "5",
      "addr:postcode": "07160",
      "addr:street": "Carrer Eucaliptus",
      "amenity": "restaurant",
      "capacity": "100",
      "name": "Lusia Music & Bar",
      "opening_hours": "Mo-Su 09:00-24:00",
      "outdoor_seating": "yes"
    }
  },
  {
    "type": "node",
    "id": 3489573554,
    "lat": 39.538463,
    "lon": 2.4477713,
    "timestamp": "2019-03-20T04:31:25Z",
    "version": 4,
    "changeset": 68318603,
    "user": "b-jazz-bot",
    "uid": 9451067,
    "tags": {
      "addr:city": "Peguera",
      "addr:housenumber": "9",
      "addr:postcode": "07160",
      "addr:street": "Carrer Eucaliptus",
      "amenity": "restaurant",
      "cuisine": "ice_cream",
      "email": "info@eizmallorca.es",
      "name": "EiZmallorca",
      "takeaway": "yes",
      "website": "https://www.eizmallorca.es/"
    }
  },
  {
    "type": "node",
    "id": 3489573556,
    "lat": 39.5384294,
    "lon": 2.4477917,
    "timestamp": "2017-05-03T13:35:41Z",
    "version": 2,
    "changeset": 48366270,
    "user": "pedrojuan01",
    "uid": 1948725,
    "tags": {
      "addr:city": "Peguera",
      "addr:housenumber": "9",
      "addr:postcode": "07160",
      "addr:street": "Carrer Eucaliptus",
      "amenity": "restaurant",
      "name": "El Mejillón"
    }
  },
  {
    "type": "node",
    "id": 3491686276,
    "lat": 39.5135322,
    "lon": 2.4801402,
    "timestamp": "2022-11-25T23:57:49Z",
    "version": 3,
    "changeset": 129385979,
    "user": "jmaspons",
    "uid": 11725140,
    "tags": {
      "addr:city": "Santa Ponça",
      "addr:housenumber": "88",
      "addr:postcode": "07180",
      "addr:street": "Avinguda Rei Jaume I",
      "amenity": "restaurant",
      "cuisine": "pizza",
      "name": "Mamma Mia",
      "name:ca": "Mamma Mia"
    }
  },
  {
    "type": "node",
    "id": 3509587776,
    "lat": 39.5705932,
    "lon": 2.633682,
    "timestamp": "2016-02-23T21:20:26Z",
    "version": 2,
    "changeset": 37399423,
    "user": "pedrojuan01",
    "uid": 1948725,
    "tags": {
      "addr:city": "Palma",
      "addr:housenumber": "28",
      "addr:postcode": "07014",
      "addr:street": "Carrer Espartero",
      "amenity": "restaurant",
      "name": "el Chaflán de Patxi"
    }
  },
  {
    "type": "node",
    "id": 3520903453,
    "lat": 39.5383837,
    "lon": 2.4504525,
    "timestamp": "2016-05-31T10:13:17Z",
    "version": 2,
    "changeset": 39685209,
    "user": "pedrojuan01",
    "uid": 1948725,
    "tags": {
      "addr:city": "Peguera",
      "addr:housenumber": "5",
      "addr:postcode": "07160",
      "addr:street": "Carrer de Palmira",
      "amenity": "restaurant",
      "cuisine": "italian",
      "internet_access": "wlan",
      "internet_access:fee": "no",
      "name": "Giovanni",
      "outdoor_seating": "yes",
      "smoking": "yes"
    }
  },
  {
    "type": "node",
    "id": 3520945775,
    "lat": 39.5383693,
    "lon": 2.4512724,
    "timestamp": "2020-07-26T22:01:58Z",
    "version": 3,
    "changeset": 88533539,
    "user": "Note Control",
    "uid": 10953870,
    "tags": {
      "addr:city": "Peguera",
      "addr:housenumber": "3",
      "addr:postcode": "07160",
      "addr:street": "Carrer dels Pins",
      "amenity": "restaurant",
      "cuisine": "italian",
      "name": "Adriano"
    }
  },
  {
    "type": "node",
    "id": 3534430656,
    "lat": 39.5137141,
    "lon": 2.4793288,
    "timestamp": "2022-03-24T05:39:03Z",
    "version": 4,
    "changeset": 118847188,
    "user": "pedrojuan01",
    "uid": 1948725,
    "tags": {
      "addr:city": "Santa Ponça",
      "addr:postcode": "07180",
      "amenity": "restaurant",
      "name": "Sherezade"
    }
  },
  {
    "type": "node",
    "id": 3537172528,
    "lat": 39.5136275,
    "lon": 2.4803238,
    "timestamp": "2015-05-22T22:36:33Z",
    "version": 1,
    "changeset": 31386012,
    "user": "marcesss",
    "uid": 2532276,
    "tags": {
      "addr:city": "Santa Ponça",
      "addr:postcode": "07180",
      "amenity": "restaurant",
      "cuisine": "sandwich",
      "name": "Baguette Land"
    }
  },
  {
    "type": "node",
    "id": 3537172529,
    "lat": 39.5136401,
    "lon": 2.4803727,
    "timestamp": "2015-05-23T23:42:22Z",
    "version": 2,
    "changeset": 31409233,
    "user": "marcesss",
    "uid": 2532276,
    "tags": {
      "addr:city": "Santa Ponça",
      "addr:postcode": "07180",
      "amenity": "restaurant",
      "name": "Botifarró"
    }
  },
  {
    "type": "node",
    "id": 3537172533,
    "lat": 39.5137733,
    "lon": 2.4806231,
    "timestamp": "2015-05-22T22:36:33Z",
    "version": 1,
    "changeset": 31386012,
    "user": "marcesss",
    "uid": 2532276,
    "tags": {
      "addr:city": "Santa Ponça",
      "addr:postcode": "07180",
      "amenity": "restaurant",
      "cuisine": "american",
      "name": "Fat Sams"
    }
  },
  {
    "type": "node",
    "id": 3537172591,
    "lat": 39.5143181,
    "lon": 2.48165,
    "timestamp": "2015-05-22T22:36:34Z",
    "version": 1,
    "changeset": 31386012,
    "user": "marcesss",
    "uid": 2532276,
    "tags": {
      "addr:city": "Santa Ponça",
      "addr:postcode": "07180",
      "amenity": "restaurant",
      "cuisine": "chinese",
      "name": "Hang Zhou III"
    }
  },
  {
    "type": "node",
    "id": 3537172592,
    "lat": 39.5143481,
    "lon": 2.4817278,
    "timestamp": "2016-01-12T09:40:45Z",
    "version": 2,
    "changeset": 36523706,
    "user": "pedrojuan01",
    "uid": 1948725,
    "tags": {
      "amenity": "restaurant",
      "cuisine": "pizza",
      "name": "Palermo"
    }
  },
  {
    "type": "node",
    "id": 3537172794,
    "lat": 39.514438,
    "lon": 2.4818752,
    "timestamp": "2015-05-22T22:36:35Z",
    "version": 1,
    "changeset": 31386012,
    "user": "marcesss",
    "uid": 2532276,
    "tags": {
      "addr:city": "Santa Ponça",
      "addr:postcode": "07180",
      "amenity": "restaurant",
      "name": "Gala!"
    }
  },
  {
    "type": "node",
    "id": 3537172795,
    "lat": 39.5145012,
    "lon": 2.4819705,
    "timestamp": "2015-05-22T22:36:35Z",
    "version": 1,
    "changeset": 31386012,
    "user": "marcesss",
    "uid": 2532276,
    "tags": {
      "amenity": "restaurant",
      "name": "The Watering Hole"
    }
  },
  {
    "type": "node",
    "id": 3537172797,
    "lat": 39.5145902,
    "lon": 2.4821677,
    "timestamp": "2015-05-22T22:36:35Z",
    "version": 1,
    "changeset": 31386012,
    "user": "marcesss",
    "uid": 2532276,
    "tags": {
      "addr:city": "Santa Ponça",
      "addr:postcode": "07180",
      "amenity": "restaurant",
      "name": "Tony's"
    }
  },
  {
    "type": "node",
    "id": 3537172823,
    "lat": 39.5163571,
    "lon": 2.4815219,
    "timestamp": "2015-05-22T22:36:35Z",
    "version": 1,
    "changeset": 31386012,
    "user": "marcesss",
    "uid": 2532276,
    "tags": {
      "addr:city": "Santa Ponça",
      "addr:postcode": "07180",
      "amenity": "restaurant",
      "cuisine": "pizza",
      "name": "Bandol"
    }
  },
  {
    "type": "node",
    "id": 3537172838,
    "lat": 39.5135722,
    "lon": 2.4793712,
    "timestamp": "2015-05-22T22:36:36Z",
    "version": 1,
    "changeset": 31386012,
    "user": "marcesss",
    "uid": 2532276,
    "tags": {
      "addr:city": "Santa Ponça",
      "addr:postcode": "07180",
      "amenity": "restaurant",
      "name": "Attitude & Aptitude"
    }
  },
  {
    "type": "node",
    "id": 3537172994,
    "lat": 39.5144952,
    "lon": 2.4825481,
    "timestamp": "2015-09-18T10:57:11Z",
    "version": 2,
    "changeset": 34100413,
    "user": "pedrojuan01",
    "uid": 1948725,
    "tags": {
      "addr:city": "Santa Ponça",
      "addr:postcode": "07180",
      "amenity": "restaurant",
      "cuisine": "pizza",
      "name": "A casa del padrino"
    }
  },
  {
    "type": "node",
    "id": 3537172998,
    "lat": 39.5145108,
    "lon": 2.482831,
    "timestamp": "2015-05-22T22:36:41Z",
    "version": 1,
    "changeset": 31386012,
    "user": "marcesss",
    "uid": 2532276,
    "tags": {
      "addr:city": "Santa Ponça",
      "addr:postcode": "07180",
      "amenity": "restaurant",
      "name": "Salón de Shora"
    }
  },
  {
    "type": "node",
    "id": 3537173064,
    "lat": 39.5179742,
    "lon": 2.4809592,
    "timestamp": "2015-05-22T22:36:42Z",
    "version": 1,
    "changeset": 31386012,
    "user": "marcesss",
    "uid": 2532276,
    "tags": {
      "amenity": "restaurant",
      "cuisine": "pizza",
      "name": "Barbacoa Pizzeria"
    }
  },
  {
    "type": "node",
    "id": 3538876209,
    "lat": 39.5298875,
    "lon": 2.5027371,
    "timestamp": "2018-04-01T13:05:37Z",
    "version": 2,
    "changeset": 57711892,
    "user": "pedrojuan01",
    "uid": 1948725,
    "tags": {
      "amenity": "restaurant",
      "name": "Polígono"
    }
  },
  {
    "type": "node",
    "id": 3540255014,
    "lat": 39.5188007,
    "lon": 2.4804936,
    "timestamp": "2015-05-23T23:42:10Z",
    "version": 1,
    "changeset": 31409233,
    "user": "marcesss",
    "uid": 2532276,
    "tags": {
      "addr:city": "Santa Ponça",
      "addr:postcode": "07180",
      "amenity": "restaurant",
      "name": "Le Pilar"
    }
  },
  {
    "type": "node",
    "id": 3540255015,
    "lat": 39.5189228,
    "lon": 2.4804185,
    "timestamp": "2016-04-07T05:26:49Z",
    "version": 2,
    "changeset": 38370008,
    "user": "pedrojuan01",
    "uid": 1948725,
    "tags": {
      "addr:city": "Santa Ponça",
      "addr:postcode": "07180",
      "amenity": "restaurant",
      "name": "Xosé's"
    }
  },
  {
    "type": "node",
    "id": 3540255025,
    "lat": 39.5194614,
    "lon": 2.4802982,
    "timestamp": "2019-11-12T08:39:41Z",
    "version": 3,
    "changeset": 76947327,
    "user": "pedrojuan01",
    "uid": 1948725,
    "tags": {
      "amenity": "restaurant",
      "cuisine": "pizza",
      "name": "Dutchie"
    }
  },
  {
    "type": "node",
    "id": 3540255031,
    "lat": 39.512804,
    "lon": 2.4830316,
    "timestamp": "2015-05-23T23:42:11Z",
    "version": 1,
    "changeset": 31409233,
    "user": "marcesss",
    "uid": 2532276,
    "tags": {
      "addr:city": "Santa Ponça",
      "addr:postcode": "07180",
      "amenity": "restaurant",
      "name": "Tauro"
    }
  },
  {
    "type": "node",
    "id": 3540255055,
    "lat": 39.5168927,
    "lon": 2.4839657,
    "timestamp": "2015-09-18T14:24:53Z",
    "version": 2,
    "changeset": 34104209,
    "user": "gpesquero",
    "uid": 3584,
    "tags": {
      "amenity": "restaurant",
      "name": "Ca'n Ribas",
      "source": "survey"
    }
  },
  {
    "type": "node",
    "id": 3540255072,
    "lat": 39.5175445,
    "lon": 2.4858432,
    "timestamp": "2015-09-18T10:54:28Z",
    "version": 2,
    "changeset": 34100362,
    "user": "pedrojuan01",
    "uid": 1948725,
    "tags": {
      "addr:city": "Santa Ponça",
      "addr:postcode": "07180",
      "amenity": "restaurant",
      "name": "Come como en casa"
    }
  },
  {
    "type": "node",
    "id": 3540255438,
    "lat": 39.5158313,
    "lon": 2.4837484,
    "timestamp": "2015-05-23T23:42:19Z",
    "version": 1,
    "changeset": 31409233,
    "user": "marcesss",
    "uid": 2532276,
    "tags": {
      "addr:city": "Santa Ponça",
      "addr:postcode": "07180",
      "addr:street": "Avinguda del Rei Jaume I",
      "amenity": "restaurant",
      "cuisine": "chinese",
      "name": "Sakuma"
    }
  },
  {
    "type": "node",
    "id": 3540255445,
    "lat": 39.515465,
    "lon": 2.4831999,
    "timestamp": "2015-05-23T23:42:19Z",
    "version": 1,
    "changeset": 31409233,
    "user": "marcesss",
    "uid": 2532276,
    "tags": {
      "addr:city": "Santa Ponça",
      "addr:postcode": "07180",
      "amenity": "restaurant",
      "cuisine": "chinese",
      "name": "Gran Mundo 2"
    }
  },
  {
    "type": "node",
    "id": 3544230609,
    "lat": 39.5524756,
    "lon": 2.6062414,
    "timestamp": "2016-07-25T09:04:25Z",
    "version": 2,
    "changeset": 41006310,
    "user": "pedrojuan01",
    "uid": 1948725,
    "tags": {
      "amenity": "restaurant",
      "name": "Pelícano"
    }
  },
  {
    "type": "node",
    "id": 3544580729,
    "lat": 39.515374,
    "lon": 2.4835921,
    "timestamp": "2015-05-25T13:20:36Z",
    "version": 1,
    "changeset": 31445140,
    "user": "marcesss",
    "uid": 2532276,
    "tags": {
      "addr:city": "Santa Ponça",
      "addr:postcode": "07180",
      "amenity": "restaurant",
      "name": "Vivo!"
    }
  },
  {
    "type": "node",
    "id": 3566282082,
    "lat": 39.5693968,
    "lon": 2.6337293,
    "timestamp": "2015-10-07T13:31:23Z",
    "version": 2,
    "changeset": 34491062,
    "user": "pedrojuan01",
    "uid": 1948725,
    "tags": {
      "amenity": "restaurant",
      "contact:phone": "+34 971 455842",
      "contact:website": "http://www.namasteindia.es/",
      "cuisine": "indian",
      "name": "Nàmaste",
      "opening_hours": "We-Mo 12:30-15:30,19:30-00:30; Tu 19:30-00:30",
      "outdoor_seating": "yes",
      "wheelchair": "limited",
      "wheelchair:description": "One step to reach door"
    }
  },
  {
    "type": "node",
    "id": 3573983237,
    "lat": 39.7091769,
    "lon": 2.6233325,
    "timestamp": "2019-08-04T15:08:09Z",
    "version": 3,
    "changeset": 72991941,
    "user": "mueschel",
    "uid": 616774,
    "tags": {
      "addr:city": "Valldemossa",
      "addr:housenumber": "8",
      "addr:postcode": "07170",
      "addr:street": "Carrer de Jovellanos",
      "amenity": "restaurant",
      "cuisine": "local;turkish",
      "email": "info@troyarestaurant.com",
      "name": "Troya",
      "phone": "+34 630 978 700",
      "website": "http://www.troyarestaurant.com/"
    }
  },
  {
    "type": "node",
    "id": 3596724118,
    "lat": 39.5656255,
    "lon": 2.6516112,
    "timestamp": "2024-10-07T16:23:40Z",
    "version": 3,
    "changeset": 157589882,
    "user": "Girasol-Enfadado",
    "uid": 22038595,
    "tags": {
      "amenity": "restaurant",
      "cuisine": "italian"
    }
  },
  {
    "type": "node",
    "id": 3635654552,
    "lat": 39.7094045,
    "lon": 2.6227524,
    "timestamp": "2023-01-15T19:25:39Z",
    "version": 2,
    "changeset": 131311206,
    "user": "jmaspons",
    "uid": 11725140,
    "tags": {
      "amenity": "restaurant",
      "name": "Es Roquissar",
      "name:ca": "Es Roquissar"
    }
  },
  {
    "type": "node",
    "id": 3668576011,
    "lat": 39.5777505,
    "lon": 2.3545337,
    "timestamp": "2018-06-24T08:40:12Z",
    "version": 2,
    "changeset": 60115391,
    "user": "pedrojuan01",
    "uid": 1948725,
    "tags": {
      "amenity": "restaurant",
      "name": "Cala Conills"
    }
  },
  {
    "type": "node",
    "id": 3669825684,
    "lat": 39.5274734,
    "lon": 2.5459407,
    "timestamp": "2015-07-28T08:27:41Z",
    "version": 1,
    "changeset": 32925201,
    "user": "pedrojuan01",
    "uid": 1948725,
    "tags": {
      "amenity": "restaurant",
      "name": "Churchill's"
    }
  },
  {
    "type": "node",
    "id": 3669825685,
    "lat": 39.5275308,
    "lon": 2.546315,
    "timestamp": "2015-07-28T08:27:41Z",
    "version": 1,
    "changeset": 32925201,
    "user": "pedrojuan01",
    "uid": 1948725,
    "tags": {
      "amenity": "restaurant",
      "name": "Tomeu"
    }
  },
  {
    "type": "node",
    "id": 3680192229,
    "lat": 39.5759449,
    "lon": 2.6582068,
    "timestamp": "2025-04-02T22:42:55Z",
    "version": 4,
    "changeset": 164441916,
    "user": "pedrojuan01",
    "uid": 1948725,
    "tags": {
      "addr:street": "Carrer de Miquel Marquès",
      "amenity": "restaurant",
      "cuisine": "japanese",
      "name": "Ching Pong"
    }
  },
  {
    "type": "node",
    "id": 3688125969,
    "lat": 39.5206631,
    "lon": 2.4721828,
    "timestamp": "2021-07-22T15:13:32Z",
    "version": 5,
    "changeset": 108436501,
    "user": "快乐的老鼠宝宝",
    "uid": 9403945,
    "tags": {
      "addr:housenumber": "2",
      "addr:street": "Carrer Huguet des Far",
      "addr:unit": "Local 15",
      "amenity": "restaurant",
      "cuisine": "chinese",
      "name": "Maravillas",
      "name:zh": "黄山饭店"
    }
  },
  {
    "type": "node",
    "id": 3688125970,
    "lat": 39.5207145,
    "lon": 2.4721849,
    "timestamp": "2019-09-26T16:48:44Z",
    "version": 3,
    "changeset": 74973575,
    "user": "Nordpfeil",
    "uid": 1337142,
    "tags": {
      "amenity": "restaurant",
      "level": "0",
      "name": "Miami 1988",
      "operator": "Mª del Carmen Arredondo Sola",
      "outdoor_seating": "yes",
      "phone": "+34 971 693570",
      "smoking": "outside",
      "toilets": "yes",
      "wheelchair": "yes"
    }
  },
  {
    "type": "node",
    "id": 3728551667,
    "lat": 39.5370924,
    "lon": 2.4458993,
    "timestamp": "2016-05-23T14:23:08Z",
    "version": 2,
    "changeset": 39511006,
    "user": "pedrojuan01",
    "uid": 1948725,
    "tags": {
      "addr:city": "Peguera",
      "addr:housenumber": "28",
      "addr:postcode": "07160",
      "addr:street": "Boulevard de Peguera",
      "amenity": "restaurant",
      "name": "Miguel",
      "outdoor_seating": "yes"
    }
  },
  {
    "type": "node",
    "id": 3747915909,
    "lat": 39.5641685,
    "lon": 2.6276341,
    "timestamp": "2019-08-24T09:38:23Z",
    "version": 3,
    "changeset": 73692309,
    "user": "sanchi",
    "uid": 170106,
    "tags": {
      "amenity": "restaurant",
      "contact:phone": "+34 971 732 600",
      "cuisine": "pizza",
      "name": "Ca'n Pelut",
      "source": "survey",
      "website": "https://www.canpelut.es/"
    }
  },
  {
    "type": "node",
    "id": 3749320525,
    "lat": 39.4883921,
    "lon": 2.4786137,
    "timestamp": "2015-09-18T14:24:51Z",
    "version": 1,
    "changeset": 34104209,
    "user": "gpesquero",
    "uid": 3584,
    "tags": {
      "amenity": "restaurant",
      "cuisine": "seafood",
      "name": "El Faro del Toro",
      "source": "survey"
    }
  },
  {
    "type": "node",
    "id": 3771718075,
    "lat": 39.5836257,
    "lon": 2.6557349,
    "timestamp": "2024-10-21T13:21:42Z",
    "version": 7,
    "changeset": 158169004,
    "user": "Absolute Beginner",
    "uid": 10465652,
    "tags": {
      "amenity": "restaurant",
      "check_date:opening_hours": "2024-10-21",
      "name": "Magori",
      "opening_hours:signed": "no"
    }
  },
  {
    "type": "node",
    "id": 3776199668,
    "lat": 39.5353106,
    "lon": 2.4457201,
    "timestamp": "2023-06-08T12:24:19Z",
    "version": 3,
    "changeset": 137095165,
    "user": "Bu-Be",
    "uid": 15650556,
    "tags": {
      "amenity": "restaurant",
      "name": "Casa Luis",
      "opening_hours": "Mo, Tu, Th-Su 12:30-23:00",
      "phone": "+34 971 686035",
      "website": "https://restaurante-casa-luis.ueniweb.com/"
    }
  },
  {
    "type": "node",
    "id": 3776279600,
    "lat": 39.5246742,
    "lon": 2.5397665,
    "timestamp": "2015-10-07T10:39:18Z",
    "version": 1,
    "changeset": 34487603,
    "user": "pedrojuan01",
    "uid": 1948725,
    "tags": {
      "amenity": "restaurant",
      "cuisine": "thai",
      "name": "My Thai"
    }
  },
  {
    "type": "node",
    "id": 3777944962,
    "lat": 39.5605517,
    "lon": 2.6720187,
    "timestamp": "2019-04-02T19:27:13Z",
    "version": 2,
    "changeset": 68809727,
    "user": "gatorade",
    "uid": 252666,
    "tags": {
      "amenity": "restaurant",
      "name": "Enco"
    }
  },
  {
    "type": "node",
    "id": 3777944963,
    "lat": 39.5605759,
    "lon": 2.6717652,
    "timestamp": "2019-04-02T19:27:13Z",
    "version": 2,
    "changeset": 68809727,
    "user": "gatorade",
    "uid": 252666,
    "tags": {
      "amenity": "restaurant",
      "name": "Es Vaixell"
    }
  },
  {
    "type": "node",
    "id": 3777944964,
    "lat": 39.5618906,
    "lon": 2.6651734,
    "timestamp": "2015-10-08T09:19:05Z",
    "version": 1,
    "changeset": 34506372,
    "user": "pedrojuan01",
    "uid": 1948725,
    "tags": {
      "amenity": "restaurant",
      "name": "Bite"
    }
  },
  {
    "type": "node",
    "id": 3782620654,
    "lat": 39.5777134,
    "lon": 2.653914,
    "timestamp": "2019-11-07T11:29:50Z",
    "version": 4,
    "changeset": 76751679,
    "user": "pedrojuan01",
    "uid": 1948725,
    "tags": {
      "addr:housenumber": "9",
      "addr:street": "Carrer de la Reina Maria Cristina",
      "amenity": "restaurant",
      "cuisine": "local",
      "diet:vegetarian": "yes",
      "email": "info@brirestaurant.com",
      "internet_access": "wlan",
      "name": "Bri",
      "name:ca": "Bri",
      "name:en": "Bri",
      "name:es": "Bri",
      "phone": "+34 601207670",
      "website": "http://www.brirestaurant.com"
    }
  },
  {
    "type": "node",
    "id": 3782620655,
    "lat": 39.5776319,
    "lon": 2.6538456,
    "timestamp": "2015-10-11T22:35:48Z",
    "version": 1,
    "changeset": 34579544,
    "user": "pedrojuan01",
    "uid": 1948725,
    "tags": {
      "amenity": "restaurant",
      "name": "Maruka"
    }
  },
  {
    "type": "node",
    "id": 3860639736,
    "lat": 39.5924146,
    "lon": 2.4794891,
    "timestamp": "2019-05-05T09:33:17Z",
    "version": 2,
    "changeset": 69898857,
    "user": "mcdmx",
    "uid": 13840,
    "tags": {
      "amenity": "restaurant",
      "name": "Zaranda",
      "outdoor_seating": "yes"
    }
  },
  {
    "type": "node",
    "id": 3866058278,
    "lat": 39.5757377,
    "lon": 2.6527327,
    "timestamp": "2019-11-07T11:27:38Z",
    "version": 2,
    "changeset": 76751515,
    "user": "pedrojuan01",
    "uid": 1948725,
    "tags": {
      "amenity": "restaurant",
      "brand": "100 Montaditos",
      "brand:wikidata": "Q8355805",
      "brand:wikipedia": "en:Cervecería 100 Montaditos",
      "cuisine": "sandwich",
      "name": "100 Montaditos"
    }
  },
  {
    "type": "node",
    "id": 3891559280,
    "lat": 39.6076632,
    "lon": 2.667947,
    "timestamp": "2015-12-14T11:33:42Z",
    "version": 1,
    "changeset": 35943166,
    "user": "pedrojuan01",
    "uid": 1948725,
    "tags": {
      "amenity": "restaurant",
      "name": "Rafa"
    }
  },
  {
    "type": "node",
    "id": 3923905986,
    "lat": 39.5709147,
    "lon": 2.6509245,
    "timestamp": "2016-01-02T17:16:34Z",
    "version": 1,
    "changeset": 36322462,
    "user": "pedrojuan01",
    "uid": 1948725,
    "tags": {
      "amenity": "restaurant",
      "name": "Bar España"
    }
  },
  {
    "type": "node",
    "id": 3926067875,
    "lat": 39.7915802,
    "lon": 2.6903107,
    "timestamp": "2023-11-19T16:17:38Z",
    "version": 3,
    "changeset": 144214615,
    "user": "MiMoHo",
    "uid": 4115745,
    "tags": {
      "amenity": "restaurant",
      "description": "closed until March 2024",
      "level": "0",
      "name": "Agapanto",
      "seasonal": "yes"
    }
  },
  {
    "type": "node",
    "id": 3941087937,
    "lat": 39.5316198,
    "lon": 2.5662575,
    "timestamp": "2016-10-12T21:52:48Z",
    "version": 2,
    "changeset": 42841668,
    "user": "pedrojuan01",
    "uid": 1948725,
    "tags": {
      "amenity": "restaurant",
      "name": "Flanigan"
    }
  },
  {
    "type": "node",
    "id": 3963773323,
    "lat": 39.5712736,
    "lon": 2.6475596,
    "timestamp": "2016-01-24T10:06:52Z",
    "version": 1,
    "changeset": 36772600,
    "user": "pedrojuan01",
    "uid": 1948725,
    "tags": {
      "amenity": "restaurant",
      "name": "taberna 5S"
    }
  },
  {
    "type": "node",
    "id": 3995253015,
    "lat": 39.5720019,
    "lon": 2.6464049,
    "timestamp": "2025-01-20T18:55:39Z",
    "version": 2,
    "changeset": 161574890,
    "user": "Mikel Calzada",
    "uid": 13931829,
    "tags": {
      "addr:housenumber": "3",
      "addr:street": "Carrer de la Concepció",
      "amenity": "restaurant",
      "cuisine": "mediterranean",
      "name": "BàrBar",
      "opening_hours": "Tu-Sa 13:00-22:30",
      "phone": "+34 971583717",
      "website": "https://www.barbarmallorca.com/"
    }
  },
  {
    "type": "node",
    "id": 3996068758,
    "lat": 39.5734272,
    "lon": 2.6433595,
    "timestamp": "2021-04-29T12:44:42Z",
    "version": 3,
    "changeset": 103816835,
    "user": "wheelmap_visitor",
    "uid": 290680,
    "tags": {
      "amenity": "restaurant",
      "name": "Adrián Quetglas",
      "wheelchair": "yes"
    }
  },
  {
    "type": "node",
    "id": 3998983243,
    "lat": 39.5703648,
    "lon": 2.6527441,
    "timestamp": "2024-10-17T12:01:37Z",
    "version": 5,
    "changeset": 158004731,
    "user": "Absolute Beginner",
    "uid": 10465652,
    "tags": {
      "addr:housenumber": "24",
      "addr:street": "carrer de la Corderia",
      "amenity": "restaurant",
      "name": "Quina creu",
      "opening_hours": "Mo-Su 13:00-16:00,18:00-24:00",
      "phone": "+34 971 71 17 72",
      "website": "https://quinacreu.com"
    }
  },
  {
    "type": "node",
    "id": 4009031690,
    "lat": 39.5696749,
    "lon": 2.6459161,
    "timestamp": "2016-02-16T09:13:15Z",
    "version": 1,
    "changeset": 37241248,
    "user": "pedrojuan01",
    "uid": 1948725,
    "tags": {
      "amenity": "restaurant",
      "name": "Brussel·les"
    }
  },
  {
    "type": "node",
    "id": 4018667117,
    "lat": 39.5717775,
    "lon": 2.6394804,
    "timestamp": "2016-02-21T22:15:07Z",
    "version": 1,
    "changeset": 37356184,
    "user": "pedrojuan01",
    "uid": 1948725,
    "tags": {
      "amenity": "restaurant",
      "cuisine": "pizza",
      "name": "il Tano"
    }
  },
  {
    "type": "node",
    "id": 4022813206,
    "lat": 39.5703729,
    "lon": 2.6343176,
    "timestamp": "2016-02-23T23:47:11Z",
    "version": 1,
    "changeset": 37401843,
    "user": "pedrojuan01",
    "uid": 1948725,
    "tags": {
      "amenity": "restaurant",
      "name": "Piruw"
    }
  },
  {
    "type": "node",
    "id": 4042763708,
    "lat": 39.5721224,
    "lon": 2.6393445,
    "timestamp": "2016-03-05T23:19:48Z",
    "version": 1,
    "changeset": 37636888,
    "user": "pedrojuan01",
    "uid": 1948725,
    "tags": {
      "amenity": "restaurant",
      "name": "Infineat"
    }
  },
  {
    "type": "node",
    "id": 4043640689,
    "lat": 39.533163,
    "lon": 2.5667867,
    "timestamp": "2016-03-06T14:02:39Z",
    "version": 1,
    "changeset": 37645810,
    "user": "pedrojuan01",
    "uid": 1948725,
    "tags": {
      "amenity": "restaurant",
      "name": "Malbec"
    }
  },
  {
    "type": "node",
    "id": 4043738274,
    "lat": 39.5535983,
    "lon": 2.6062103,
    "timestamp": "2025-04-11T18:45:24Z",
    "version": 5,
    "changeset": 164829569,
    "user": "CiconiaOSM",
    "uid": 21330260,
    "tags": {
      "addr:city": "Palma de Mallorca",
      "addr:housenumber": "280",
      "addr:postcode": "07015",
      "addr:street": "Avinguda de Joan Miró",
      "amenity": "restaurant",
      "cuisine": "argentinian",
      "name": "Parrilla Buenos Aires",
      "website": "https://parrillabuenosaires.es/"
    }
  },
  {
    "type": "node",
    "id": 4043765846,
    "lat": 39.5682172,
    "lon": 2.6533091,
    "timestamp": "2019-04-03T10:44:43Z",
    "version": 2,
    "changeset": 68832275,
    "user": "gatorade",
    "uid": 252666,
    "tags": {
      "amenity": "restaurant",
      "name": "il Porticato"
    }
  },
  {
    "type": "node",
    "id": 4043775934,
    "lat": 39.5730833,
    "lon": 2.6427308,
    "timestamp": "2016-03-06T15:39:43Z",
    "version": 1,
    "changeset": 37647409,
    "user": "pedrojuan01",
    "uid": 1948725,
    "tags": {
      "amenity": "restaurant",
      "cuisine": "pizza",
      "name": "Ottimo"
    }
  },
  {
    "type": "node",
    "id": 4067255332,
    "lat": 39.5723496,
    "lon": 2.6392105,
    "timestamp": "2016-03-18T20:28:37Z",
    "version": 1,
    "changeset": 37927425,
    "user": "pedrojuan01",
    "uid": 1948725,
    "tags": {
      "amenity": "restaurant",
      "name": "pintxo pintxo Gorgorito"
    }
  },
  {
    "type": "node",
    "id": 4074062300,
    "lat": 39.5705336,
    "lon": 2.651833,
    "timestamp": "2016-07-13T10:06:31Z",
    "version": 2,
    "changeset": 40707994,
    "user": "pedrojuan01",
    "uid": 1948725,
    "tags": {
      "amenity": "restaurant",
      "cuisine": "pizza",
      "name": "St. Ambros",
      "takeaway": "yes"
    }
  },