[
  {
    "type": "node",
    "id": 650194135,
    "lat": 39.7617208,
    "lon": -8.8217064,
    "timestamp": "2010-02-22T12:00:27Z",
    "version": 1,
    "changeset": 3942707,
    "user": "WildSuriv",
    "uid": 236303,
    "tags": {
      "amenity": "restaurant"
    }
  },
  {
    "type": "node",
    "id": 653972048,
    "lat": 39.7537988,
    "lon": -8.8138989,
    "timestamp": "2012-08-12T10:21:32Z",
    "version": 2,
    "changeset": 12699773,
    "user": "RomainDC",
    "uid": 363489,
    "tags": {
      "amenity": "restaurant",
      "name": "A Grelha"
    }
  },
  {
    "type": "node",
    "id": 653972049,
    "lat": 39.7529163,
    "lon": -8.8125792,
    "timestamp": "2021-11-27T16:21:20Z",
    "version": 3,
    "changeset": 114299881,
    "user": "AntMadeira",
    "uid": 2107121,
    "tags": {
      "amenity": "restaurant",
      "cuisine": "japanese",
      "name": "Xing Ge"
    }
  },
  {
    "type": "node",
    "id": 653972059,
    "lat": 39.7563923,
    "lon": -8.8260393,
    "timestamp": "2022-03-03T18:32:05Z",
    "version": 3,
    "changeset": 118066352,
    "user": "AntMadeira",
    "uid": 2107121,
    "tags": {
      "addr:housenumber": "32",
      "addr:postcode": "2415-408",
      "addr:street": "Estrada da Estação",
      "amenity": "restaurant",
      "cuisine": "chinese",
      "name": "TsingTao",
      "phone": "+351 244 814 960"
    }
  },
  {
    "type": "node",
    "id": 658943591,
    "lat": 39.7342457,
    "lon": -8.703812,
    "timestamp": "2018-10-19T23:24:45Z",
    "version": 2,
    "changeset": 63693420,
    "user": "AntMadeira",
    "uid": 2107121,
    "tags": {
      "amenity": "restaurant"
    }
  },
  {
    "type": "node",
    "id": 679676620,
    "lat": 39.4173419,
    "lon": -9.1685907,
    "timestamp": "2014-11-27T12:18:56Z",
    "version": 5,
    "changeset": 27066239,
    "user": "newscene",
    "uid": 2020515,
    "tags": {
      "addr:city": "CAldas da Rainha",
      "addr:housenumber": "166",
      "addr:street": "Estrada da Foz (EN360)",
      "amenity": "restaurant",
      "cuisine": "regional",
      "name": "Borga"
    }
  },
  {
    "type": "node",
    "id": 680511409,
    "lat": 39.3645567,
    "lon": -8.9445895,
    "timestamp": "2023-09-05T15:23:08Z",
    "version": 4,
    "changeset": 140856094,
    "user": "Le_Sharkoïste",
    "uid": 18023081,
    "tags": {
      "addr:city": "Marinhas de Sal",
      "addr:country": "PT",
      "addr:postcode": "2040-133",
      "addr:street": "Estrada das Marinhas de Sal",
      "amenity": "restaurant",
      "cuisine": "regional",
      "is_in": "Marinhas de Sal;Portugal;Europe",
      "is_in:city": "Marinhas de Sal",
      "is_in:country": "Portugal",
      "name": "Adega Ti Artur",
      "phone": "+35 243 997 143",
      "source": "survey"
    }
  },
  {
    "type": "node",
    "id": 681296811,
    "lat": 39.4230399,
    "lon": -8.9158334,
    "timestamp": "2023-09-05T15:23:08Z",
    "version": 5,
    "changeset": 140856094,
    "user": "Le_Sharkoïste",
    "uid": 18023081,
    "tags": {
      "addr:city": "Chãos",
      "addr:country": "PT",
      "amenity": "restaurant",
      "cuisine": "regional",
      "is_in": "Chãos;Portugal;Europe",
      "is_in:city": "Chãos",
      "is_in:country": "Portugal",
      "name": "Safari"
    }
  },
  {
    "type": "node",
    "id": 683061683,
    "lat": 39.5721437,
    "lon": -8.5990794,
    "timestamp": "2023-09-05T15:23:08Z",
    "version": 3,
    "changeset": 140856094,
    "user": "Le_Sharkoïste",
    "uid": 18023081,
    "tags": {
      "addr:city": "Bairro",
      "addr:country": "PT",
      "amenity": "restaurant",
      "cuisine": "regional",
      "is_in:city": "Bairro",
      "is_in:country": "Portugal"
    }
  },
  {
    "type": "node",
    "id": 683062478,
    "lat": 39.5720033,
    "lon": -8.6010282,
    "timestamp": "2023-09-05T15:23:08Z",
    "version": 4,
    "changeset": 140856094,
    "user": "Le_Sharkoïste",
    "uid": 18023081,
    "tags": {
      "addr:city": "Bairro",
      "addr:country": "PT",
      "amenity": "restaurant",
      "cuisine": "regional",
      "is_in:city": "Bairro",
      "is_in:country": "Portugal",
      "name": "Churrasquerira O Isidro"
    }
  },
  {
    "type": "node",
    "id": 683062479,
    "lat": 39.5731816,
    "lon": -8.6046522,
    "timestamp": "2023-09-05T15:23:08Z",
    "version": 3,
    "changeset": 140856094,
    "user": "Le_Sharkoïste",
    "uid": 18023081,
    "tags": {
      "addr:city": "Bairro",
      "addr:country": "PT",
      "amenity": "restaurant",
      "cuisine": "regional",
      "is_in:city": "Bairro",
      "is_in:country": "Portugal",
      "name": "Solero"
    }
  },
  {
    "type": "node",
    "id": 877560823,
    "lat": 39.825402,
    "lon": -8.7240589,
    "timestamp": "2024-12-21T12:20:29Z",
    "version": 5,
    "changeset": 160467742,
    "user": "Ricardo Subtil",
    "uid": 10227802,
    "tags": {
      "air_conditioning": "yes",
      "amenity": "restaurant",
      "name": "O Pinto",
      "smoking": "outside",
      "wheelchair": "limited"
    }
  },
  {
    "type": "node",
    "id": 877560825,
    "lat": 39.8415856,
    "lon": -8.7054525,
    "timestamp": "2013-08-10T14:26:52Z",
    "version": 5,
    "changeset": 17291770,
    "user": "eagle21",
    "uid": 314318,
    "tags": {
      "amenity": "restaurant",
      "cuisine": "pizza",
      "name": "Estrela Azul",
      "phone": "+351 236948364",
      "website": "https://www.facebook.com/PizzariaEstrelaAzul"
    }
  },
  {
    "type": "node",
    "id": 976669691,
    "lat": 39.6370674,
    "lon": -8.6734,
    "timestamp": "2010-11-04T16:47:59Z",
    "version": 1,
    "changeset": 6289841,
    "user": "João F",
    "uid": 366959,
    "tags": {
      "amenity": "restaurant"
    }
  },
  {
    "type": "node",
    "id": 976669700,
    "lat": 39.6372603,
    "lon": -8.6751963,
    "timestamp": "2015-01-17T13:00:59Z",
    "version": 3,
    "changeset": 28208024,
    "user": "lusodt",
    "uid": 2565083,
    "tags": {
      "addr:housenumber": "10",
      "addr:street": "Rua São Francisco de Assis",
      "amenity": "restaurant",
      "name": "Charbonada",
      "website": "http://www.restaurantecharbonada.com/"
    }
  },
  {
    "type": "node",
    "id": 976669728,
    "lat": 39.6339773,
    "lon": -8.669366,
    "timestamp": "2017-03-28T19:35:43Z",
    "version": 2,
    "changeset": 47240003,
    "user": "RBCosta",
    "uid": 5360217,
    "tags": {
      "addr:housenumber": "18",
      "addr:postcode": "2495-401",
      "addr:street": "Rua dos Monfortinos",
      "amenity": "restaurant",
      "name": "A taberna",
      "name:pt": "A Tasquinha",
      "phone": "351249533446"
    }
  },
  {
    "type": "node",
    "id": 976685834,
    "lat": 39.6430584,
    "lon": -8.6126154,
    "timestamp": "2016-01-11T11:27:13Z",
    "version": 2,
    "changeset": 36500420,
    "user": "wheelmap_android",
    "uid": 524500,
    "tags": {
      "amenity": "restaurant",
      "name": "Chico de Stº Amaro",
      "wheelchair": "limited"
    }
  },
  {
    "type": "node",
    "id": 976685835,
    "lat": 39.643488,
    "lon": -8.6163705,
    "timestamp": "2021-07-01T17:59:08Z",
    "version": 3,
    "changeset": 107273546,
    "user": "lalolan",
    "uid": 11113526,
    "tags": {
      "amenity": "restaurant",
      "name": "Rodízio Boi Preto",
      "wheelchair": "limited"
    }
  },
  {
    "type": "node",
    "id": 1019057146,
    "lat": 39.1811833,
    "lon": -9.1858616,
    "timestamp": "2013-08-19T22:16:52Z",
    "version": 2,
    "changeset": 17418496,
    "user": "wheelmap_visitor",
    "uid": 290680,
    "tags": {
      "amenity": "restaurant",
      "name": "O Regional",
      "wheelchair": "limited"
    }
  },
  {
    "type": "node",
    "id": 1205891295,
    "lat": 39.5104911,
    "lon": -8.4889234,
    "timestamp": "2011-03-17T17:22:54Z",
    "version": 1,
    "changeset": 7587549,
    "user": "capitao murcelas",
    "uid": 423459,
    "tags": {
      "amenity": "restaurant",
      "name": "T'Idalina"
    }
  },
  {
    "type": "node",
    "id": 1234226476,
    "lat": 39.7503852,
    "lon": -8.8126326,
    "timestamp": "2011-04-05T23:43:02Z",
    "version": 1,
    "changeset": 7780359,
    "user": "WildSuriv",
    "uid": 236303,
    "tags": {
      "amenity": "restaurant"
    }
  },
  {
    "type": "node",
    "id": 1277814867,
    "lat": 39.0443224,
    "lon": -8.6461622,
    "timestamp": "2011-05-09T00:46:48Z",
    "version": 1,
    "changeset": 8088822,
    "user": "jmonteiro",
    "uid": 203703,
    "tags": {
      "amenity": "restaurant"
    }
  },
  {
    "type": "node",
    "id": 1326466664,
    "lat": 39.1559755,
    "lon": -8.8409426,
    "timestamp": "2015-03-30T00:35:55Z",
    "version": 3,
    "changeset": 29839867,
    "user": "Eysler",
    "uid": 2332125,
    "tags": {
      "amenity": "restaurant",
      "delivery": "no",
      "name": "\"A Mó\"",
      "source": "personal_knowlodge",
      "takeaway": "yes"
    }
  },
  {
    "type": "node",
    "id": 1343412527,
    "lat": 39.7441903,
    "lon": -8.8064091,
    "timestamp": "2020-05-30T02:20:01Z",
    "version": 5,
    "changeset": 85970941,
    "user": "AntMadeira",
    "uid": 2107121,
    "tags": {
      "addr:city": "Leiria",
      "addr:postcode": "2400",
      "addr:street": "Jardim Luis de Camões",
      "amenity": "restaurant",
      "cuisine": "regional",
      "name": "Cervejaria Camões",
      "website": "http://www.promolazer.pt",
      "wheelchair": "limited"
    }
  },
  {
    "type": "node",
    "id": 1385827495,
    "lat": 39.4589125,
    "lon": -8.4324264,
    "timestamp": "2023-08-08T00:23:05Z",
    "version": 2,
    "changeset": 139587487,
    "user": "Barquinha booster",
    "uid": 20052851,
    "tags": {
      "amenity": "restaurant",
      "name": "Restaurante Recanto da Barquinha"
    }
  },
  {
    "type": "node",
    "id": 1401646482,
    "lat": 39.8331766,
    "lon": -8.8394346,
    "timestamp": "2019-11-19T00:52:56Z",
    "version": 3,
    "changeset": 77251563,
    "user": "AntMadeira",
    "uid": 2107121,
    "tags": {
      "addr:city": "Ortigosa",
      "addr:postcode": "2425-734",
      "addr:street": "Rua Encarnação Pinto Mota",
      "amenity": "restaurant",
      "contact:phone": "244614261",
      "cuisine": "regional",
      "name": "O David"
    }
  },
  {
    "type": "node",
    "id": 1428257621,
    "lat": 39.4834033,
    "lon": -8.6320104,
    "timestamp": "2011-09-09T19:04:34Z",
    "version": 1,
    "changeset": 9256687,
    "user": "tiagomend",
    "uid": 519508,
    "tags": {
      "amenity": "restaurant"
    }
  },
  {
    "type": "node",
    "id": 1428257623,
    "lat": 39.4831383,
    "lon": -8.6322626,
    "timestamp": "2018-05-02T09:48:55Z",
    "version": 2,
    "changeset": 58609250,
    "user": "luluganeta",
    "uid": 5426692,
    "tags": {
      "addr:city": "Zibreira",
      "addr:postcode": "2350-800",
      "addr:street": "Rua Manuel Cardoso Rosa",
      "amenity": "restaurant",
      "email": "geral@restaurantecabacas.pt",
      "name": "Restaurante Cabaça's",
      "phone": "+351 249891348",
      "website": "http://www.restaurantecabacas.pt"
    }
  },
  {
    "type": "node",
    "id": 1428257627,
    "lat": 39.483482,
    "lon": -8.6314579,
    "timestamp": "2011-09-09T19:04:34Z",
    "version": 1,
    "changeset": 9256687,
    "user": "tiagomend",
    "uid": 519508,
    "tags": {
      "amenity": "restaurant"
    }
  },
  {
    "type": "node",
    "id": 1446379971,
    "lat": 39.3508789,
    "lon": -9.0070985,
    "timestamp": "2011-09-26T17:57:34Z",
    "version": 1,
    "changeset": 9404102,
    "user": "Tiago Santos",
    "uid": 492164,
    "tags": {
      "amenity": "restaurant",
      "name": "Café Leal"
    }
  },
  {
    "type": "node",
    "id": 1448766022,
    "lat": 39.7080543,
    "lon": -8.8282401,
    "timestamp": "2011-09-29T11:41:05Z",
    "version": 1,
    "changeset": 9426722,
    "user": "Pedro Beja",
    "uid": 529453,
    "tags": {
      "amenity": "restaurant",
      "cuisine": "regional",
      "name": "O Loureiro"
    }
  },
  {
    "type": "node",
    "id": 1450667870,
    "lat": 39.4639699,
    "lon": -8.354092,
    "timestamp": "2011-10-01T12:42:02Z",
    "version": 1,
    "changeset": 9442252,
    "user": "Vitor Almeida",
    "uid": 527665,
    "tags": {
      "amenity": "restaurant",
      "name": "Restaurante O Chico"
    }
  },
  {
    "type": "node",
    "id": 1450668021,
    "lat": 39.464266,
    "lon": -8.3582763,
    "timestamp": "2011-10-01T12:42:05Z",
    "version": 1,
    "changeset": 9442252,
    "user": "Vitor Almeida",
    "uid": 527665,
    "tags": {
      "amenity": "restaurant",
      "cuisine": "regional",
      "name": "Café Estrela"
    }
  },
  {
    "type": "node",
    "id": 1474621492,
    "lat": 39.5993646,
    "lon": -8.8116633,
    "timestamp": "2024-11-21T11:18:24Z",
    "version": 3,
    "changeset": 159404739,
    "user": "Rico557",
    "uid": 3281808,
    "tags": {
      "addr:city": "Porto de Mós",
      "addr:housenumber": "15",
      "addr:postcode": "2480-308",
      "addr:street": "Rua São Miguel",
      "amenity": "restaurant",
      "cuisine": "regional",
      "name": "Tasca de São Miguel",
      "operator": "Selma Alexandra Caetano Inácio",
      "phone": "+351 244401093;+351 967252812",
      "ref:vatin": "PT221752420",
      "source": "local knowledge"
    }
  },
  {
    "type": "node",
    "id": 1520027676,
    "lat": 39.0809037,
    "lon": -8.991633,
    "timestamp": "2025-03-02T14:10:41Z",
    "version": 2,
    "changeset": 163123698,
    "user": "AntMadeira",
    "uid": 2107121,
    "tags": {
      "amenity": "restaurant",
      "name": "Espírito Santo"
    }
  },
  {
    "type": "node",
    "id": 1520027906,
    "lat": 39.0803166,
    "lon": -8.991523,
    "timestamp": "2011-11-27T18:47:32Z",
    "version": 1,
    "changeset": 9970440,
    "user": "Marcelo Ribeiro",
    "uid": 560133,
    "tags": {
      "amenity": "restaurant",
      "name": "Restaurante O Rotações"
    }
  },
  {
    "type": "node",
    "id": 1559985755,
    "lat": 39.4716308,
    "lon": -8.5492393,
    "timestamp": "2020-11-05T21:34:26Z",
    "version": 4,
    "changeset": 93625318,
    "user": "topolusitania",
    "uid": 380552,
    "tags": {
      "amenity": "restaurant",
      "cuisine": "regional",
      "name": "Taberna da Avó"
    }
  },
  {
    "type": "node",
    "id": 1565746019,
    "lat": 39.4168982,
    "lon": -8.9194148,
    "timestamp": "2016-08-23T11:24:40Z",
    "version": 3,
    "changeset": 41635640,
    "user": "André Silvestre",
    "uid": 3238913,
    "tags": {
      "addr:city": "Chãos",
      "addr:housenumber": "1",
      "addr:postcode": "2040-018",
      "addr:street": "Largo do Centro Cultural",
      "amenity": "restaurant",
      "name": "Terra Chã"
    }
  },
  {
    "type": "node",
    "id": 1567288417,
    "lat": 39.737384,
    "lon": -8.7724085,
    "timestamp": "2014-03-23T00:39:23Z",
    "version": 2,
    "changeset": 21255805,
    "user": "Vitor Tavares",
    "uid": 1954565,
    "tags": {
      "amenity": "restaurant",
      "name": "Café Leão"
    }
  },
  {
    "type": "node",
    "id": 1567288818,
    "lat": 39.7407934,
    "lon": -8.7778668,
    "timestamp": "2011-12-29T14:10:08Z",
    "version": 1,
    "changeset": 10235726,
    "user": "Joana Pereira",
    "uid": 566148,
    "tags": {
      "amenity": "restaurant",
      "name": "Quinta das Palmeiras"
    }
  },
  {
    "type": "node",
    "id": 1570056440,
    "lat": 39.4724462,
    "lon": -8.5346299,
    "timestamp": "2011-12-30T22:49:41Z",
    "version": 1,
    "changeset": 10250497,
    "user": "Ana Rita Venda",
    "uid": 567726,
    "tags": {
      "amenity": "restaurant"
    }
  },
  {
    "type": "node",
    "id": 1574681403,
    "lat": 39.0228433,
    "lon": -8.9760584,
    "timestamp": "2012-01-02T21:01:25Z",
    "version": 1,
    "changeset": 10276017,
    "user": "Joanal",
    "uid": 554929,
    "tags": {
      "amenity": "restaurant",
      "name": "Good Grill"
    }
  },
  {
    "type": "node",
    "id": 1574681452,
    "lat": 39.0238894,
    "lon": -8.9770079,
    "timestamp": "2012-01-02T21:01:27Z",
    "version": 1,
    "changeset": 10276017,
    "user": "Joanal",
    "uid": 554929,
    "tags": {
      "amenity": "restaurant",
      "name": "Paparoca"
    }
  },
  {
    "type": "node",
    "id": 1574681453,
    "lat": 39.0226933,
    "lon": -8.9769328,
    "timestamp": "2012-01-02T21:01:28Z",
    "version": 1,
    "changeset": 10276017,
    "user": "Joanal",
    "uid": 554929,
    "tags": {
      "amenity": "restaurant",
      "name": "\"O Brilha\""
    }
  },
  {
    "type": "node",
    "id": 1574702615,
    "lat": 39.024229,
    "lon": -8.9743686,
    "timestamp": "2012-01-02T21:19:16Z",
    "version": 1,
    "changeset": 10276017,
    "user": "Joanal",
    "uid": 554929,
    "tags": {
      "amenity": "restaurant"
    }
  },
  {
    "type": "node",
    "id": 1585859733,
    "lat": 39.0978941,
    "lon": -9.0662181,
    "timestamp": "2012-01-11T16:54:15Z",
    "version": 1,
    "changeset": 10362114,
    "user": "Catarina Mauricio",
    "uid": 566683,
    "tags": {
      "amenity": "restaurant",
      "name": "O Barril"
    }
  },
  {
    "type": "node",
    "id": 1588821616,
    "lat": 39.5986154,
    "lon": -8.823397,
    "timestamp": "2020-10-23T20:06:09Z",
    "version": 6,
    "changeset": 92969423,
    "user": "AntMadeira",
    "uid": 2107121,
    "tags": {
      "addr:city": "Porto de Mós",
      "addr:housenumber": "66",
      "addr:postcode": "2480-330",
      "addr:street": "Av. Vila Forte",
      "amenity": "restaurant",
      "cuisine": "pizza",
      "name": "L'Italiana"
    }
  },
  {
    "type": "node",
    "id": 1598037962,
    "lat": 39.9116683,
    "lon": -8.4368221,
    "timestamp": "2012-01-19T20:09:35Z",
    "version": 1,
    "changeset": 10440015,
    "user": "Rita Bártolo",
    "uid": 554928,
    "tags": {
      "amenity": "restaurant"
    }
  },
  {
    "type": "node",
    "id": 1605816288,
    "lat": 39.6026868,
    "lon": -8.4145954,
    "timestamp": "2019-03-09T23:14:20Z",
    "version": 5,
    "changeset": 67974379,
    "user": "GBAB",
    "uid": 3335899,
    "tags": {
      "addr:housenumber": "25",
      "addr:street": "Rua Infantaria 15",
      "amenity": "restaurant",
      "name": "Snack Bar 15",
      "source": "knowledge"
    }
  },
  {
    "type": "node",
    "id": 1606909575,
    "lat": 39.4740544,
    "lon": -8.5404402,
    "timestamp": "2012-01-26T20:51:29Z",
    "version": 1,
    "changeset": 10507131,
    "user": "Ana Rita Venda",
    "uid": 567726,
    "tags": {
      "amenity": "restaurant",
      "name": "restaurante espalha brasas"
    }
  },
  {
    "type": "node",
    "id": 1606909578,
    "lat": 39.4774001,
    "lon": -8.5410731,
    "timestamp": "2014-08-11T17:06:20Z",
    "version": 4,
    "changeset": 24683278,
    "user": "gbl08ma",
    "uid": 1868281,
    "tags": {
      "amenity": "restaurant",
      "cuisine": "regional",
      "name": "Restaurante Mário Alturas"
    }
  },
  {
    "type": "node",
    "id": 1606976136,
    "lat": 39.4859459,
    "lon": -8.5411644,
    "timestamp": "2012-01-26T22:53:42Z",
    "version": 2,
    "changeset": 10507757,
    "user": "Ana Rita Venda",
    "uid": 567726,
    "tags": {
      "amenity": "restaurant",
      "cuisine": "pizza",
      "name": "pizzaria super agostos"
    }
  },
  {
    "type": "node",
    "id": 1606976150,
    "lat": 39.485565,
    "lon": -8.5433314,
    "timestamp": "2012-01-26T22:02:11Z",
    "version": 1,
    "changeset": 10507757,
    "user": "Ana Rita Venda",
    "uid": 567726,
    "tags": {
      "amenity": "restaurant",
      "name": "ff"
    }
  },
  {
    "type": "node",
    "id": 1607000452,
    "lat": 39.4734914,
    "lon": -8.5428625,
    "timestamp": "2019-04-28T16:37:32Z",
    "version": 4,
    "changeset": 69668631,
    "user": "pjorgeleitao",
    "uid": 9462773,
    "tags": {
      "amenity": "restaurant",
      "cuisine": "tapas",
      "name": "Paladares da esquina"
    }
  },
  {
    "type": "node",
    "id": 1607000463,
    "lat": 39.4732096,
    "lon": -8.5401291,
    "timestamp": "2012-01-26T22:53:42Z",
    "version": 2,
    "changeset": 10507757,
    "user": "Ana Rita Venda",
    "uid": 567726,
    "tags": {
      "amenity": "restaurant",
      "cuisine": "pizza",
      "name": "pizzaria dinapolli"
    }
  },
  {
    "type": "node",
    "id": 1607013929,
    "lat": 39.4715863,
    "lon": -8.5495577,
    "timestamp": "2020-11-05T21:34:26Z",
    "version": 3,
    "changeset": 93625318,
    "user": "topolusitania",
    "uid": 380552,
    "tags": {
      "amenity": "restaurant",
      "cuisine": "regional",
      "name": "Restaurante Manuel Francisco"
    }
  },
  {
    "type": "node",
    "id": 1607013937,
    "lat": 39.4772179,
    "lon": -8.5486907,
    "timestamp": "2012-01-26T22:53:41Z",
    "version": 1,
    "changeset": 10507757,
    "user": "Ana Rita Venda",
    "uid": 567726,
    "tags": {
      "amenity": "restaurant",
      "cuisine": "regional",
      "name": "solar da ilda"
    }
  },
  {
    "type": "node",
    "id": 1607079851,
    "lat": 39.4775469,
    "lon": -8.5436178,
    "timestamp": "2024-04-27T14:31:34Z",
    "version": 4,
    "changeset": 150582833,
    "user": "ricardo211",
    "uid": 8166404,
    "tags": {
      "amenity": "restaurant",
      "name": "Torre dos Leitões"
    }
  },
  {
    "type": "node",
    "id": 1611895948,
    "lat": 39.3293261,
    "lon": -8.9292909,
    "timestamp": "2016-08-23T10:24:39Z",
    "version": 3,
    "changeset": 41634541,
    "user": "André Silvestre",
    "uid": 3238913,
    "tags": {
      "addr:city": "Rio Maior",
      "addr:postcode": "2040-335",
      "addr:street": "Estrada Nacional 114",
      "amenity": "restaurant",
      "cuisine": "regional",
      "name": "Restaurante \"O Gato Preto\""
    }
  },
  {
    "type": "node",
    "id": 1611896206,
    "lat": 39.3276691,
    "lon": -8.929395,
    "timestamp": "2016-08-23T10:30:20Z",
    "version": 3,
    "changeset": 41634637,
    "user": "André Silvestre",
    "uid": 3238913,
    "tags": {
      "addr:city": "Rio Maior",
      "addr:postcode": "2040-335",
      "addr:street": "Estrada Nacional 114",
      "amenity": "restaurant",
      "name": "O Matias"
    }
  },
  {
    "type": "node",
    "id": 1628949216,
    "lat": 39.0930978,
    "lon": -9.259017,
    "timestamp": "2013-08-19T22:05:07Z",
    "version": 3,
    "changeset": 17418496,
    "user": "wheelmap_visitor",
    "uid": 290680,
    "tags": {
      "amenity": "restaurant",
      "name": "Pólo Norte",
      "source": "survey",
      "wheelchair": "no"
    }
  },
  {
    "type": "node",
    "id": 1629985230,
    "lat": 39.0926314,
    "lon": -9.2584831,
    "timestamp": "2022-11-12T10:55:29Z",
    "version": 3,
    "changeset": 128807747,
    "user": "carlosefonseca",
    "uid": 11236672,
    "tags": {
      "amenity": "restaurant",
      "check_date": "2022-11-12",
      "cuisine": "regional",
      "name": "Gordo",
      "wheelchair": "limited"
    }
  },
  {
    "type": "node",
    "id": 1640947346,
    "lat": 39.0416001,
    "lon": -9.2653114,
    "timestamp": "2012-02-20T20:15:52Z",
    "version": 1,
    "changeset": 10744461,
    "user": "asduarte",
    "uid": 607233,
    "tags": {
      "amenity": "restaurant",
      "cuisine": "regional",
      "name": "Churrasqueira Quaresma"
    }
  },
  {
    "type": "node",
    "id": 1640947349,
    "lat": 39.0417243,
    "lon": -9.2660729,
    "timestamp": "2012-02-20T20:15:52Z",
    "version": 1,
    "changeset": 10744461,
    "user": "asduarte",
    "uid": 607233,
    "tags": {
      "amenity": "restaurant",
      "cuisine": "regional",
      "name": "Lanterna"
    }
  },
  {
    "type": "node",
    "id": 1640947352,
    "lat": 39.0417137,
    "lon": -9.2659554,
    "timestamp": "2012-02-20T20:15:52Z",
    "version": 1,
    "changeset": 10744461,
    "user": "asduarte",
    "uid": 607233,
    "tags": {
      "amenity": "restaurant",
      "cuisine": "regional",
      "name": "O Lampião"
    }
  },
  {
    "type": "node",
    "id": 1642042656,
    "lat": 39.4273267,
    "lon": -8.9771898,
    "timestamp": "2012-02-21T18:11:52Z",
    "version": 1,
    "changeset": 10752427,
    "user": "batenaavo",
    "uid": 608251,
    "tags": {
      "amenity": "restaurant",
      "name": "Caldeira"
    }
  },
  {
    "type": "node",
    "id": 1642043176,
    "lat": 39.4267011,
    "lon": -8.9799417,
    "timestamp": "2012-02-21T18:12:00Z",
    "version": 1,
    "changeset": 10752427,
    "user": "batenaavo",
    "uid": 608251,
    "tags": {
      "amenity": "restaurant",
      "name": "Carmos"
    }
  },
  {
    "type": "node",
    "id": 1642043511,
    "lat": 39.4270926,
    "lon": -8.979695,
    "timestamp": "2012-02-21T18:12:05Z",
    "version": 1,
    "changeset": 10752427,
    "user": "batenaavo",
    "uid": 608251,
    "tags": {
      "amenity": "restaurant",
      "name": "Paraíso"
    }
  },
  {
    "type": "node",
    "id": 1642044252,
    "lat": 39.4079713,
    "lon": -8.9623567,
    "timestamp": "2014-05-07T22:32:24Z",
    "version": 2,
    "changeset": 22199400,
    "user": "Tintazul",
    "uid": 2042922,
    "tags": {
      "amenity": "restaurant",
      "name": "Restaurante Serrazina"
    }
  },
  {
    "type": "node",
    "id": 1642092141,
    "lat": 39.4280726,
    "lon": -8.9706372,
    "timestamp": "2012-02-21T18:38:34Z",
    "version": 1,
    "changeset": 10752427,
    "user": "batenaavo",
    "uid": 608251,
    "tags": {
      "amenity": "restaurant",
      "cuisine": "chicken",
      "name": "Toca do Coelho"
    }
  },
  {
    "type": "node",
    "id": 1650317405,
    "lat": 39.1648843,
    "lon": -9.2766626,
    "timestamp": "2012-02-27T13:17:04Z",
    "version": 1,
    "changeset": 10808295,
    "user": "efbento",
    "uid": 611385,
    "tags": {
      "amenity": "restaurant",
      "cuisine": "regional",
      "name": "Café Restaurante Valoásis"
    }
  },
  {
    "type": "node",
    "id": 1664324753,
    "lat": 39.231123,
    "lon": -8.6861967,
    "timestamp": "2024-10-05T12:41:29Z",
    "version": 4,
    "changeset": 157498990,
    "user": "Telegram Sam",
    "uid": 11845187,
    "tags": {
      "amenity": "restaurant",
      "check_date": "2024-10-05",
      "cuisine": "portuguese;local",
      "internet_access": "wlan",
      "name": "Taberna do Quinzena I",
      "opening_hours": "Mo-Sa 10:00-00:00"
    }
  },
  {
    "type": "node",
    "id": 1666319531,
    "lat": 39.1610011,
    "lon": -8.7879133,
    "timestamp": "2012-05-03T08:38:59Z",
    "version": 2,
    "changeset": 11486645,
    "user": "Lobinho",
    "uid": 571263,
    "tags": {
      "amenity": "restaurant",
      "name": "Martinica"
    }
  },
  {
    "type": "node",
    "id": 1666321332,
    "lat": 39.170328,
    "lon": -8.7946028,
    "timestamp": "2012-03-08T19:55:15Z",
    "version": 1,
    "changeset": 10912706,
    "user": "Lobinho",
    "uid": 571263,
    "tags": {
      "amenity": "restaurant"
    }
  },
  {
    "type": "node",
    "id": 1676742261,
    "lat": 39.1610692,
    "lon": -8.7884644,
    "timestamp": "2012-04-04T09:58:39Z",
    "version": 2,
    "changeset": 11174339,
    "user": "Lobinho",
    "uid": 571263,
    "tags": {
      "amenity": "restaurant",
      "name": "O Batalhoz"
    }
  },
  {
    "type": "node",
    "id": 1690029480,
    "lat": 39.4032368,
    "lon": -8.4871128,
    "timestamp": "2012-03-25T17:51:45Z",
    "version": 3,
    "changeset": 11097582,
    "user": "xybot",
    "uid": 70696,
    "tags": {
      "amenity": "restaurant",
      "cuisine": "fish",
      "name": "Adega Ribatejana",
      "old_name": "O Peixe Frito",
      "source": "local_knowledge"
    }
  },
  {
    "type": "node",
    "id": 1721856130,
    "lat": 39.3017933,
    "lon": -9.1337905,
    "timestamp": "2012-04-18T14:33:09Z",
    "version": 1,
    "changeset": 11344685,
    "user": "Helena Santos",
    "uid": 662500,
    "tags": {
      "amenity": "restaurant",
      "cuisine": "thai",
      "name": "Supatra Thaí"
    }
  },
  {
    "type": "node",
    "id": 1721859380,
    "lat": 39.2823551,
    "lon": -9.1456781,
    "timestamp": "2012-04-18T14:37:07Z",
    "version": 1,
    "changeset": 11344685,
    "user": "Helena Santos",
    "uid": 662500,
    "tags": {
      "amenity": "restaurant",
      "name": "Mãe d'Agua"
    }
  },
  {
    "type": "node",
    "id": 1727456796,
    "lat": 39.2073766,
    "lon": -8.7081316,
    "timestamp": "2012-04-23T08:09:35Z",
    "version": 1,
    "changeset": 11391940,
    "user": "Lobinho",
    "uid": 571263,
    "tags": {
      "amenity": "restaurant"
    }
  },
  {
    "type": "node",
    "id": 1727950694,
    "lat": 39.4556578,
    "lon": -8.4334792,
    "timestamp": "2025-04-26T09:20:26Z",
    "version": 2,
    "changeset": 165455409,
    "user": "@rcm",
    "uid": 22834962,
    "tags": {
      "amenity": "restaurant",
      "name": "Restaurante Loreto"
    }
  },
  {
    "type": "node",
    "id": 1747592785,
    "lat": 39.1634184,
    "lon": -8.7857559,
    "timestamp": "2018-04-10T09:18:18Z",
    "version": 2,
    "changeset": 57965944,
    "user": "Lobinho",
    "uid": 571263,
    "tags": {
      "amenity": "restaurant",
      "name": "Quinzena"
    }
  },
  {
    "type": "node",
    "id": 1750853408,
    "lat": 39.401923,
    "lon": -8.4319668,
    "timestamp": "2024-04-24T15:53:08Z",
    "version": 2,
    "changeset": 150454658,
    "user": "Goncas3500",
    "uid": 13199426,
    "tags": {
      "amenity": "restaurant",
      "name": "Clara Flor"
    }
  },
  {
    "type": "node",
    "id": 1765148826,
    "lat": 39.4365168,
    "lon": -9.2108509,
    "timestamp": "2021-07-15T13:19:41Z",
    "version": 3,
    "changeset": 108055367,
    "user": "lalolan",
    "uid": 11113526,
    "tags": {
      "amenity": "restaurant",
      "name": "Restaurante O Távola"
    }
  },
  {
    "type": "node",
    "id": 1765149826,
    "lat": 39.4367488,
    "lon": -9.2125514,
    "timestamp": "2017-10-09T22:39:18Z",
    "version": 3,
    "changeset": 52774394,
    "user": "osm-qa",
    "uid": 5670960,
    "tags": {
      "amenity": "restaurant"
    }
  },
  {
    "type": "node",
    "id": 1770564702,
    "lat": 39.3643139,
    "lon": -8.9455854,
    "timestamp": "2016-08-23T11:20:10Z",
    "version": 3,
    "changeset": 41635572,
    "user": "André Silvestre",
    "uid": 3238913,
    "tags": {
      "addr:city": "Marinhas de Sal",
      "addr:postcode": "2040-133",
      "addr:street": "Estrada das Marinhas de Sal",
      "amenity": "restaurant",
      "name": "Solar do Sal"
    }
  },
  {
    "type": "node",
    "id": 1795475719,
    "lat": 39.3804521,
    "lon": -8.455621,
    "timestamp": "2023-11-10T01:37:44Z",
    "version": 2,
    "changeset": 143844050,
    "user": "AntMadeira",
    "uid": 2107121,
    "tags": {
      "amenity": "restaurant",
      "name": "Paragem da Ponte"
    }
  },
  {
    "type": "node",
    "id": 1808715585,
    "lat": 39.4300939,
    "lon": -9.202421,
    "timestamp": "2012-07-01T12:32:41Z",
    "version": 1,
    "changeset": 12075361,
    "user": "Mountainman",
    "uid": 214557,
    "tags": {
      "amenity": "restaurant"
    }
  },
  {
    "type": "node",
    "id": 1866310375,
    "lat": 39.7426221,
    "lon": -8.8078874,
    "timestamp": "2019-12-03T01:38:48Z",
    "version": 4,
    "changeset": 77847647,
    "user": "AntMadeira",
    "uid": 2107121,
    "tags": {
      "amenity": "restaurant",
      "name": "O Manel"
    }
  },
  {
    "type": "node",
    "id": 1866310380,
    "lat": 39.7428893,
    "lon": -8.807756,
    "timestamp": "2019-12-03T01:38:48Z",
    "version": 5,
    "changeset": 77847647,
    "user": "AntMadeira",
    "uid": 2107121,
    "tags": {
      "amenity": "restaurant",
      "cuisine": "regional",
      "name": "Montecarlo"
    }
  },
  {
    "type": "node",
    "id": 1901275388,
    "lat": 39.4187111,
    "lon": -9.188623,
    "timestamp": "2012-09-05T21:17:29Z",
    "version": 1,
    "changeset": 13002390,
    "user": "Miguel Frazao",
    "uid": 860316,
    "tags": {
      "amenity": "restaurant",
      "cuisine": "regional",
      "name": "Maria Lagoa"
    }
  },
  {
    "type": "node",
    "id": 1901946178,
    "lat": 39.7095806,
    "lon": -8.8296345,
    "timestamp": "2021-07-15T16:43:36Z",
    "version": 2,
    "changeset": 108065218,
    "user": "lalolan",
    "uid": 11113526,
    "tags": {
      "addr:housename": "Adega Regional da Azoia",
      "addr:postcode": "2400-823",
      "addr:street": "Rua Sta. Catarina",
      "amenity": "restaurant",
      "cuisine": "regional",
      "name": "Adega Regional da Azóia"
    }
  },
  {
    "type": "node",
    "id": 1914430144,
    "lat": 39.4315946,
    "lon": -8.958203,
    "timestamp": "2014-02-20T11:52:55Z",
    "version": 3,
    "changeset": 20673486,
    "user": "lezurdis",
    "uid": 214968,
    "tags": {
      "amenity": "restaurant",
      "name": "O Fernando"
    }
  },
  {
    "type": "node",
    "id": 1949277846,
    "lat": 39.6286327,
    "lon": -8.6652596,
    "timestamp": "2012-10-06T15:23:58Z",
    "version": 1,
    "changeset": 13386417,
    "user": "lezurdis",
    "uid": 214968,
    "tags": {
      "amenity": "restaurant",
      "name": "O Pereira"
    }
  },
  {
    "type": "node",
    "id": 1949277864,
    "lat": 39.6284414,
    "lon": -8.6663695,
    "timestamp": "2019-03-06T21:04:57Z",
    "version": 2,
    "changeset": 67859347,
    "user": "GBAB",
    "uid": 3335899,
    "tags": {
      "amenity": "restaurant",
      "cuisine": "barbecue",
      "name": "O Manel"
    }
  },
  {
    "type": "node",
    "id": 1968801240,
    "lat": 39.4277766,
    "lon": -8.5506262,
    "timestamp": "2012-10-16T18:59:09Z",
    "version": 1,
    "changeset": 13523010,
    "user": "Oluapm",
    "uid": 966674,
    "tags": {
      "amenity": "restaurant",
      "cuisine": "regional",
      "name": "Restaurante Casa das Enguias"
    }
  },
  {
    "type": "node",
    "id": 1973528787,
    "lat": 39.0427519,
    "lon": -8.9997149,
    "timestamp": "2015-07-27T21:24:05Z",
    "version": 3,
    "changeset": 32918871,
    "user": "mjgc",
    "uid": 199141,
    "tags": {
      "addr:housenumber": "62",
      "addr:postcode": "2580-548",
      "addr:street": "Rua Maria Helena de Araújo Ribeiro Pinto Assoreira",
      "amenity": "restaurant",
      "cuisine": "regional",
      "name": "Restaurante Grelha Magica"
    }
  },
  {
    "type": "node",
    "id": 1985571835,
    "lat": 39.0780562,
    "lon": -8.990161,
    "timestamp": "2022-11-25T01:31:46Z",
    "version": 2,
    "changeset": 129347339,
    "user": "AntMadeira",
    "uid": 2107121,
    "tags": {
      "addr:city": "Cheganças",
      "addr:housenumber": "19",
      "addr:postcode": "2580-667",
      "addr:street": "Rua 25 de Abril",
      "amenity": "restaurant",
      "name": "A Prensa",
      "opening_hours": "Mo-Su 11:00-23:30",
      "phone": "+351 912 387 268"
    }
  },
  {
    "type": "node",
    "id": 2007271998,
    "lat": 39.0472924,
    "lon": -8.9977407,
    "timestamp": "2012-11-17T20:01:29Z",
    "version": 3,
    "changeset": 13910183,
    "user": "mjgc",
    "uid": 199141,
    "tags": {
      "addr:housenumber": "101",
      "addr:postcode": "2580-578",
      "addr:street": "Urb Quinta Bravo",
      "amenity": "restaurant",
      "cuisine": "regional",
      "name": "Dining Restaurante"
    }
  },
  {
    "type": "node",
    "id": 2011442922,
    "lat": 39.0508404,
    "lon": -9.006527,
    "timestamp": "2015-06-10T07:59:05Z",
    "version": 2,
    "changeset": 31863234,
    "user": "mjgc",
    "uid": 199141,
    "tags": {
      "addr:city": "Alenquer",
      "addr:housenumber": "40",
      "addr:postcode": "2580-371",
      "addr:street": "Rua Sacadura Cabral",
      "amenity": "restaurant",
      "name": "O Bichezas"
    }
  },
  {
    "type": "node",
    "id": 2011488746,
    "lat": 39.0491858,
    "lon": -8.9976908,
    "timestamp": "2012-11-12T21:55:47Z",
    "version": 1,
    "changeset": 13853066,
    "user": "mjgc",
    "uid": 199141,
    "tags": {
      "addr:city": "Alenquer",
      "addr:postcode": "2580-578",
      "addr:street": "Rua Gago Coutinho",
      "amenity": "restaurant",
      "name": "Dom Nuno",
      "phone": "+351 263 710 834"
    }
  },
  {
    "type": "node",
    "id": 2018604437,
    "lat": 39.0539663,
    "lon": -9.0080404,
    "timestamp": "2012-11-17T20:07:04Z",
    "version": 2,
    "changeset": 13910183,
    "user": "mjgc",
    "uid": 199141,
    "tags": {
      "addr:housenumber": "60",
      "addr:postcode": "2580-283",
      "addr:street": "Rua Triana",
      "amenity": "restaurant",
      "cuisine": "regional",
      "name": "Restaurante Churrasqueira Grill"
    }
  },
  {
    "type": "node",
    "id": 2052908585,
    "lat": 39.4033367,
    "lon": -8.4836283,
    "timestamp": "2012-12-06T16:07:15Z",
    "version": 1,
    "changeset": 14176952,
    "user": "victorferreira",
    "uid": 162435,
    "tags": {
      "amenity": "restaurant",
      "name": "Rédea Curta"
    }
  },
  {
    "type": "node",
    "id": 2052908590,
    "lat": 39.401575,
    "lon": -8.4824053,
    "timestamp": "2012-12-06T16:07:15Z",
    "version": 1,
    "changeset": 14176952,
    "user": "victorferreira",
    "uid": 162435,
    "tags": {
      "amenity": "restaurant",
      "cuisine": "regional",
      "name": "Lusitanus"
    }
  },
  {
    "type": "node",
    "id": 2053256151,
    "lat": 39.406624,
    "lon": -8.4790849,
    "timestamp": "2012-12-06T19:41:35Z",
    "version": 1,
    "changeset": 14179186,
    "user": "victorferreira",
    "uid": 162435,
    "tags": {
      "amenity": "restaurant",
      "cuisine": "regional",
      "name": "A TIjela"
    }
  },
  {
    "type": "node",
    "id": 2053256180,
    "lat": 39.4042862,
    "lon": -8.4780336,
    "timestamp": "2012-12-06T19:41:35Z",
    "version": 1,
    "changeset": 14179186,
    "user": "victorferreira",
    "uid": 162435,
    "tags": {
      "amenity": "restaurant",
      "name": "Fonte da Gaita"
    }
  },
  {
    "type": "node",
    "id": 2087949022,
    "lat": 39.8797121,
    "lon": -8.7556157,
    "timestamp": "2012-12-30T01:34:43Z",
    "version": 1,
    "changeset": 14458673,
    "user": "Pedro82",
    "uid": 1139562,
    "tags": {
      "amenity": "restaurant"
    }
  },
  {
    "type": "node",
    "id": 2125306738,
    "lat": 39.7435802,
    "lon": -8.9136922,
    "timestamp": "2013-01-23T16:32:32Z",
    "version": 1,
    "changeset": 14758354,
    "user": "Mica11",
    "uid": 1208423,
    "tags": {
      "amenity": "restaurant",
      "name": "Palhota"
    }
  },
  {
    "type": "node",
    "id": 2126245396,
    "lat": 39.7568421,
    "lon": -8.9239825,
    "timestamp": "2013-01-24T13:22:09Z",
    "version": 1,
    "changeset": 14768570,
    "user": "FranciscoPereira",
    "uid": 1209482,
    "tags": {
      "amenity": "restaurant",
      "name": "Casinha Branca"
    }
  },
  {
    "type": "node",
    "id": 2126490055,
    "lat": 39.7507833,
    "lon": -8.8057471,
    "timestamp": "2022-02-24T19:03:26Z",
    "version": 4,
    "changeset": 117823957,
    "user": "AntMadeira",
    "uid": 2107121,
    "tags": {
      "amenity": "restaurant",
      "cuisine": "chicken",
      "level": "0",
      "name": "Frangos do Lis"
    }
  },
  {
    "type": "node",
    "id": 2127383843,
    "lat": 39.7475054,
    "lon": -8.9369976,
    "timestamp": "2020-08-26T07:11:34Z",
    "version": 2,
    "changeset": 89952694,
    "user": "AntMadeira",
    "uid": 2107121,
    "tags": {
      "amenity": "restaurant",
      "cuisine": "chicken",
      "name": "Império dos Frangos"
    }
  },
  {
    "type": "node",
    "id": 2128098303,
    "lat": 39.7072903,
    "lon": -8.9439797,
    "timestamp": "2013-01-25T20:15:22Z",
    "version": 1,
    "changeset": 14784916,
    "user": "Patrícia Duarte",
    "uid": 1209487,
    "tags": {
      "addr:street": "Estrada da Nazaré",
      "amenity": "restaurant",
      "cuisine": "regional",
      "name": "Tulipa"
    }
  },
  {
    "type": "node",
    "id": 2128191276,
    "lat": 39.72602,
    "lon": -9.0463542,
    "timestamp": "2013-01-25T21:49:24Z",
    "version": 1,
    "changeset": 14786328,
    "user": "Patrícia Duarte",
    "uid": 1209487,
    "tags": {
      "amenity": "restaurant"
    }
  },
  {
    "type": "node",
    "id": 2128249921,
    "lat": 39.6888419,
    "lon": -8.9616363,
    "timestamp": "2023-06-29T17:08:22Z",
    "version": 3,
    "changeset": 137927400,
    "user": "TheSparta",
    "uid": 15424667,
    "tags": {
      "amenity": "restaurant",
      "cuisine": "regional",
      "name": "Estrelícia"
    }
  },
  {
    "type": "node",
    "id": 2128249925,
    "lat": 39.6888077,
    "lon": -8.9617676,
    "timestamp": "2023-06-29T17:08:22Z",
    "version": 3,
    "changeset": 137927400,
    "user": "TheSparta",
    "uid": 15424667,
    "tags": {
      "amenity": "restaurant",
      "name": "Anésia & Rui: Take-Away",
      "takeaway": "yes"
    }
  },
  {
    "type": "node",
    "id": 2128249940,
    "lat": 39.6805236,
    "lon": -8.9736635,
    "timestamp": "2023-06-30T15:03:53Z",
    "version": 4,
    "changeset": 137962770,
    "user": "TheSparta",
    "uid": 15424667,
    "tags": {
      "alt_name": "Restaurante Dom Dinis",
      "amenity": "restaurant",
      "cuisine": "regional",
      "name": "Restaurante D. Dinis"
    }
  },
  {
    "type": "node",
    "id": 2128249952,
    "lat": 39.6895741,
    "lon": -8.9596399,
    "timestamp": "2023-06-29T17:08:22Z",
    "version": 2,
    "changeset": 137927400,
    "user": "TheSparta",
    "uid": 15424667,
    "tags": {
      "amenity": "restaurant",
      "cuisine": "regional",
      "name": "Alberto"
    }
  },
  {
    "type": "node",
    "id": 2128952183,
    "lat": 39.5973798,
    "lon": -9.0712957,
    "timestamp": "2016-04-21T09:28:56Z",
    "version": 3,
    "changeset": 38746999,
    "user": "ulilu",
    "uid": 16881,
    "tags": {
      "amenity": "restaurant",
      "cuisine": "regional",
      "name": "Gaivota"
    }
  },
  {
    "type": "node",
    "id": 2128952197,
    "lat": 39.5978738,
    "lon": -9.0716328,
    "timestamp": "2023-10-17T21:08:13Z",
    "version": 6,
    "changeset": 142730642,
    "user": "manuel-128",
    "uid": 8357704,
    "tags": {
      "addr:housenumber": "12",
      "addr:street": "Rua das Traineiras",
      "amenity": "restaurant",
      "contact:email": "Taberna-da-adelia@hotmail.com",
      "contact:website": "http://www.tabernadadelia.pt/",
      "cuisine": "regional",
      "email": "geral@tabernadaadelia.pt",
      "name": "Taberna D'Adélia",
      "phone": "+351 262 552 134"
    }
  },
  {
    "type": "node",
    "id": 2129132808,
    "lat": 39.6015135,
    "lon": -9.0737729,
    "timestamp": "2022-07-19T00:11:05Z",
    "version": 4,
    "changeset": 123783196,
    "user": "Beton Krai",
    "uid": 14454329,
    "tags": {
      "addr:housenumber": "71",
      "addr:postcode": "2450-159",
      "addr:street": "Praça Sousa Oliveira",
      "amenity": "restaurant",
      "cuisine": "regional",
      "indoor_seating": "yes",
      "name": "Mar Bravo",
      "outdoor_seating": "yes"
    }
  },
  {
    "type": "node",
    "id": 2129132828,
    "lat": 39.5973737,
    "lon": -9.0714512,
    "timestamp": "2016-04-21T09:28:56Z",
    "version": 2,
    "changeset": 38746999,
    "user": "ulilu",
    "uid": 16881,
    "tags": {
      "amenity": "restaurant",
      "cuisine": "regional",
      "name": "Sete Saias"
    }
  },
  {
    "type": "node",
    "id": 2129132951,
    "lat": 39.597655,
    "lon": -9.0719999,
    "timestamp": "2013-02-23T22:19:41Z",
    "version": 2,
    "changeset": 15141930,
    "user": "Patrícia Duarte",
    "uid": 1209487,
    "tags": {
      "amenity": "restaurant",
      "cuisine": "regional",
      "name": "Mário Peixe"
    }
  },
  {
    "type": "node",
    "id": 2129132998,
    "lat": 39.6028444,
    "lon": -9.0745319,
    "timestamp": "2016-04-29T05:25:56Z",
    "version": 2,
    "changeset": 38972157,
    "user": "ulilu",
    "uid": 16881,
    "tags": {
      "amenity": "restaurant",
      "cuisine": "regional",
      "name": "São Miguel"
    }
  },
  {
    "type": "node",
    "id": 2129453965,
    "lat": 39.7014209,
    "lon": -9.0483294,
    "timestamp": "2013-01-26T16:54:52Z",
    "version": 1,
    "changeset": 14793954,
    "user": "Patrícia Duarte",
    "uid": 1209487,
    "tags": {
      "amenity": "restaurant",
      "cuisine": "seafood",
      "name": "O Tonico"
    }
  },
  {
    "type": "node",
    "id": 2129476543,
    "lat": 39.7460738,
    "lon": -8.9435855,
    "timestamp": "2013-01-26T17:16:32Z",
    "version": 1,
    "changeset": 14795091,
    "user": "MiguelSantos24",
    "uid": 1209494,
    "tags": {
      "amenity": "restaurant",
      "name": "Residencial Paris"
    }
  },
  {
    "type": "node",
    "id": 2129878007,
    "lat": 39.6019911,
    "lon": -9.073264,
    "timestamp": "2022-02-23T19:30:15Z",
    "version": 4,
    "changeset": 117784612,
    "user": "Cerritus",
    "uid": 12919,
    "tags": {
      "amenity": "restaurant",
      "name": "Village"
    }
  },
  {
    "type": "node",
    "id": 2129878075,
    "lat": 39.6019642,
    "lon": -9.0734491,
    "timestamp": "2022-02-23T19:30:14Z",
    "version": 3,
    "changeset": 117784612,
    "user": "Cerritus",
    "uid": 12919,
    "tags": {
      "amenity": "restaurant",
      "name": "Caravela"
    }
  },
  {
    "type": "node",
    "id": 2129878363,
    "lat": 39.6019965,
    "lon": -9.0730287,
    "timestamp": "2022-02-23T19:30:16Z",
    "version": 4,
    "changeset": 117784612,
    "user": "Cerritus",
    "uid": 12919,
    "tags": {
      "amenity": "restaurant",
      "cuisine": "seafood",
      "name": "Nova Costa"
    }
  },
  {
    "type": "node",
    "id": 2129878554,
    "lat": 39.6019581,
    "lon": -9.0735403,
    "timestamp": "2022-02-23T19:30:14Z",
    "version": 4,
    "changeset": 117784612,
    "user": "Cerritus",
    "uid": 12919,
    "tags": {
      "amenity": "restaurant",
      "name": "O Casalinho"
    }
  },
  {
    "type": "node",
    "id": 2129878699,
    "lat": 39.6017704,
    "lon": -9.0721243,
    "timestamp": "2024-05-24T13:24:00Z",
    "version": 8,
    "changeset": 151769927,
    "user": "rene78",
    "uid": 257555,
    "tags": {
      "addr:city": "Nazaré",
      "addr:postcode": "2450-256",
      "amenity": "restaurant",
      "cuisine": "chinese",
      "diet:vegetarian": "only",
      "name": "Tian Jie"
    }
  },
  {
    "type": "node",
    "id": 2129878916,
    "lat": 39.684728,
    "lon": -9.0568883,
    "timestamp": "2018-04-27T09:37:39Z",
    "version": 2,
    "changeset": 58470388,
    "user": "joelmatos",
    "uid": 2672734,
    "tags": {
      "addr:city": "Vale Furado",
      "addr:postcode": "2445-526",
      "addr:street": "Rua dos Moinhos",
      "amenity": "restaurant",
      "cuisine": "gastro;bistro",
      "name": "MAD",
      "opening_hours": "12:00-22:00",
      "phone": "+351 244 599 244",
      "website": "https://www.facebook.com/MAD-Vale-Furado-303152956683282"
    }
  },
  {
    "type": "node",
    "id": 2129951390,
    "lat": 39.6685721,
    "lon": -8.9985959,
    "timestamp": "2013-01-26T23:32:46Z",
    "version": 1,
    "changeset": 14799960,
    "user": "Patrícia Duarte",
    "uid": 1209487,
    "tags": {
      "amenity": "restaurant",
      "cuisine": "regional",
      "name": "Paladar"
    }
  },
  {
    "type": "node",
    "id": 2129951450,
    "lat": 39.670633,
    "lon": -8.9950455,
    "timestamp": "2025-02-05T15:34:09Z",
    "version": 5,
    "changeset": 162170465,
    "user": "dmfr",
    "uid": 15324596,
    "tags": {
      "amenity": "restaurant",
      "cuisine": "indian;kebab",
      "name": "Food Hut",
      "old_name": "Santander Totta"
    }
  },
  {
    "type": "node",
    "id": 2131025534,
    "lat": 39.7460867,
    "lon": -8.9136807,
    "timestamp": "2013-01-27T16:40:05Z",
    "version": 1,
    "changeset": 14810246,
    "user": "Nuno__C",
    "uid": 1212496,
    "tags": {
      "amenity": "restaurant",
      "cuisine": "chicken",
      "name": "Frangote"
    }
  },
  {
    "type": "node",
    "id": 2131051805,
    "lat": 39.7405287,
    "lon": -8.9254033,
    "timestamp": "2015-07-18T21:52:53Z",
    "version": 2,
    "changeset": 32724376,
    "user": "Cláudio tereso",
    "uid": 3071179,
    "tags": {
      "alt_name": "Antiga fabrica da palha",
      "amenity": "restaurant",
      "cuisine": "regional",
      "name": "Pintainho Piu"
    }
  },
  {
    "type": "node",
    "id": 2131373090,
    "lat": 39.7444618,
    "lon": -8.9348957,
    "timestamp": "2013-01-27T20:19:51Z",
    "version": 1,
    "changeset": 14813476,
    "user": "Vetok",
    "uid": 1209490,
    "tags": {
      "amenity": "restaurant",
      "cuisine": "kebab",
      "name": "La Bella Vitta"
    }
  },
  {
    "type": "node",
    "id": 2134829417,
    "lat": 39.7534826,
    "lon": -8.9280042,
    "timestamp": "2024-01-21T22:00:06Z",
    "version": 2,
    "changeset": 146529667,
    "user": "Rockedf",
    "uid": 7522075,
    "tags": {
      "addr:city": "Marinha Grande",
      "addr:housenumber": "1",
      "addr:postcode": "2430-143",
      "addr:street": "Rua Ilha do Corvo",
      "amenity": "restaurant",
      "check_date": "2024-01-21",
      "contact:facebook": "https://www.facebook.com/papadoccaffe.mg/",
      "contact:instagram": "https://www.instagram.com/papadocppmg/",
      "cuisine": "pizza;pasta;coffee_shop",
      "currency:XBT": "yes",
      "name": "Papadoc",
      "payment:lightning": "yes",
      "payment:lightning_contactless": "yes",
      "payment:onchain": "yes",
      "phone": "+351 244 568882",
      "website": "https://papadocmarinhagrande.negocio.site/"
    }
  },
  {
    "type": "node",
    "id": 2134829436,
    "lat": 39.753095,
    "lon": -8.9278755,
    "timestamp": "2013-01-30T12:46:30Z",
    "version": 1,
    "changeset": 14847116,
    "user": "ptcst",
    "uid": 1208447,
    "tags": {
      "amenity": "restaurant",
      "name": "Dose e Meia"
    }
  },
  {
    "type": "node",
    "id": 2134836549,
    "lat": 39.7555801,
    "lon": -9.0312854,
    "timestamp": "2021-07-16T23:48:44Z",
    "version": 4,
    "changeset": 108143586,
    "user": "AntMadeira",
    "uid": 2107121,
    "tags": {
      "amenity": "restaurant",
      "name": "Ponto de Encontro"
    }
  },
  {
    "type": "node",
    "id": 2134837489,
    "lat": 39.750715,
    "lon": -8.9324869,
    "timestamp": "2018-09-30T21:31:31Z",
    "version": 2,
    "changeset": 63076549,
    "user": "jorgerosa",
    "uid": 1653405,
    "tags": {
      "amenity": "restaurant",
      "name": "Cristal"
    }
  },
  {
    "type": "node",
    "id": 2134838429,
    "lat": 39.7506008,
    "lon": -8.9324535,
    "timestamp": "2013-01-30T12:56:31Z",
    "version": 2,
    "changeset": 14847116,
    "user": "ptcst",
    "uid": 1208447,
    "tags": {
      "amenity": "restaurant",
      "cuisine": "pizza",
      "name": "Rusticana"
    }
  },
  {
    "type": "node",
    "id": 2134843790,
    "lat": 39.7567256,
    "lon": -9.0305128,
    "timestamp": "2019-05-05T03:36:57Z",
    "version": 3,
    "changeset": 69893581,
    "user": "pvt",
    "uid": 499530,
    "tags": {
      "addr:city": "São Pedro de Moel",
      "addr:housenumber": "31",
      "addr:postcode": "2430-490",
      "addr:street": "Rua Doutor Adolfo Leitão",
      "amenity": "restaurant",
      "name": "Âncora Azul"
    }
  },
  {
    "type": "node",
    "id": 2134845084,
    "lat": 39.9210898,
    "lon": -8.952028,
    "timestamp": "2022-09-25T18:15:02Z",
    "version": 2,
    "changeset": 126625558,
    "user": "FooFooBar",
    "uid": 10362413,
    "tags": {
      "amenity": "restaurant",
      "check_date": "2022-09-25",
      "cuisine": "regional",
      "name": "Quebra Mar"
    }
  },
  {
    "type": "node",
    "id": 2134848634,
    "lat": 39.7562156,
    "lon": -9.031498,
    "timestamp": "2022-12-01T16:10:35Z",
    "version": 3,
    "changeset": 129610326,
    "user": "AntMadeira",
    "uid": 2107121,
    "tags": {
      "amenity": "restaurant",
      "name": "A Fonte"
    }
  },
  {
    "type": "node",
    "id": 2134855118,
    "lat": 39.7319928,
    "lon": -8.9332504,
    "timestamp": "2019-12-13T03:04:34Z",
    "version": 2,
    "changeset": 78346070,
    "user": "AntMadeira",
    "uid": 2107121,
    "tags": {
      "amenity": "restaurant",
      "name": "Os Ferreirinhas"
    }
  },
  {
    "type": "node",
    "id": 2134857193,
    "lat": 39.7322775,
    "lon": -8.9359782,
    "timestamp": "2013-03-08T18:32:58Z",
    "version": 2,
    "changeset": 15293447,
    "user": "Bárbara Catarino",
    "uid": 1215819,
    "tags": {
      "amenity": "restaurant",
      "name": "Parreira"
    }
  },
  {
    "type": "node",
    "id": 2134865797,
    "lat": 39.728699,
    "lon": -8.9287739,
    "timestamp": "2020-09-05T00:46:31Z",
    "version": 3,
    "changeset": 90436455,
    "user": "AntMadeira",
    "uid": 2107121,
    "tags": {
      "amenity": "restaurant",
      "cuisine": "sandwich",
      "name": "Prazer de Comer"
    }
  },
  {
    "type": "node",
    "id": 2134867077,
    "lat": 39.7305143,
    "lon": -8.9298467,
    "timestamp": "2013-03-07T22:31:05Z",
    "version": 2,
    "changeset": 15287616,
    "user": "andreiafino",
    "uid": 1210977,
    "tags": {
      "amenity": "restaurant",
      "name": "A Nora"
    }
  },
  {
    "type": "node",
    "id": 2134869411,
    "lat": 39.9223076,
    "lon": -8.9516686,
    "timestamp": "2013-01-30T13:22:44Z",
    "version": 1,
    "changeset": 14847335,
    "user": "FaBeatriz",
    "uid": 1209491,
    "tags": {
      "amenity": "restaurant",
      "cuisine": "regional",
      "name": "Marés Vivas"
    }
  },
  {
    "type": "node",
    "id": 2135004410,
    "lat": 39.7317727,
    "lon": -8.9216609,
    "timestamp": "2013-01-30T15:23:19Z",
    "version": 1,
    "changeset": 14848541,
    "user": "Mica11",
    "uid": 1208423,
    "tags": {
      "amenity": "restaurant",
      "name": "Churrascaria Guerra"
    }
  },
  {
    "type": "node",
    "id": 2135923422,
    "lat": 39.7579504,
    "lon": -8.8267282,
    "timestamp": "2024-03-26T13:15:42Z",
    "version": 2,
    "changeset": 149177408,
    "user": "AntMadeira",
    "uid": 2107121,
    "tags": {
      "amenity": "restaurant",
      "level": "0",
      "name": "O Gordo"
    }
  },
  {
    "type": "node",
    "id": 2135938370,
    "lat": 39.7013006,
    "lon": -9.0488292,
    "timestamp": "2020-08-11T19:11:55Z",
    "version": 2,
    "changeset": 89266784,
    "user": "slautenb",
    "uid": 8094367,
    "tags": {
      "amenity": "restaurant",
      "name": "Beira Mar"
    }
  },
  {
    "type": "node",
    "id": 2135940635,
    "lat": 39.92226,
    "lon": -8.9507115,
    "timestamp": "2022-10-10T13:51:20Z",
    "version": 3,
    "changeset": 127305360,
    "user": "AntMadeira",
    "uid": 2107121,
    "tags": {
      "amenity": "restaurant",
      "cuisine": "chicken",
      "name": "O Pescador"
    }
  },
  {
    "type": "node",
    "id": 2135940638,
    "lat": 39.922365,
    "lon": -8.950464,
    "timestamp": "2016-03-28T02:00:10Z",
    "version": 3,
    "changeset": 38110432,
    "user": "Joel OSM",
    "uid": 2927399,
    "tags": {
      "amenity": "restaurant",
      "cuisine": "regional",
      "name": "Ponto De Encontro"
    }
  },
  {
    "type": "node",
    "id": 2135944635,
    "lat": 39.7546074,
    "lon": -8.9199222,
    "timestamp": "2024-10-27T09:44:38Z",
    "version": 6,
    "changeset": 158404628,
    "user": "Claudius Henrichs",
    "uid": 18069,
    "tags": {
      "addr:housenumber": "22",
      "addr:street": "Rua 32",
      "amenity": "restaurant",
      "cuisine": "seafood;steak",
      "description": "Traditional Portuguese Tapas Restaurant",
      "name": "Fabioca",
      "opening_hours": "Mo-Sa 10:00-02:00",
      "phone": "+351244504528"
    }
  },
  {
    "type": "node",
    "id": 2135950777,
    "lat": 39.4301413,
    "lon": -9.2227561,
    "timestamp": "2016-04-14T22:13:53Z",
    "version": 3,
    "changeset": 38571251,
    "user": "Cartixa",
    "uid": 3770223,
    "tags": {
      "amenity": "restaurant",
      "name": "Inatel Foz do Arelho",
      "stars": "3"
    }
  },
  {
    "type": "node",
    "id": 2135963282,
    "lat": 39.7507816,
    "lon": -8.9322108,
    "timestamp": "2013-01-31T13:14:43Z",
    "version": 1,
    "changeset": 14858997,
    "user": "AdrianaPalmela74",
    "uid": 1209488,
    "tags": {
      "amenity": "restaurant",
      "name": "Tasca Nova"
    }
  },
  {
    "type": "node",
    "id": 2135965430,
    "lat": 39.758329,
    "lon": -8.9062035,
    "timestamp": "2013-04-12T15:56:42Z",
    "version": 2,
    "changeset": 15702650,
    "user": "dcp",
    "uid": 44221,
    "tags": {
      "amenity": "restaurant",
      "name": "Linita"
    }
  },
  {
    "type": "node",
    "id": 2135967169,
    "lat": 39.7403954,
    "lon": -8.9348801,
    "timestamp": "2013-02-22T19:04:36Z",
    "version": 3,
    "changeset": 15125901,
    "user": "Patrícia Duarte",
    "uid": 1209487,
    "tags": {
      "amenity": "restaurant",
      "name": "Leitões da Cerca"
    }
  },
  {
    "type": "node",
    "id": 2140121571,
    "lat": 39.8730328,
    "lon": -8.9726488,
    "timestamp": "2020-09-10T02:14:02Z",
    "version": 2,
    "changeset": 90670400,
    "user": "AntMadeira",
    "uid": 2107121,
    "tags": {
      "amenity": "restaurant",
      "cuisine": "pizza",
      "name": "Pizzaria XL"
    }
  },
  {
    "type": "node",
    "id": 2140121572,
    "lat": 39.8734363,
    "lon": -8.9725629,
    "timestamp": "2013-02-03T13:59:41Z",
    "version": 1,
    "changeset": 14896500,
    "user": "pauloneves",
    "uid": 1219587,
    "tags": {
      "amenity": "restaurant"
    }
  },
  {
    "type": "node",
    "id": 2140121574,
    "lat": 39.8734692,
    "lon": -8.9727775,
    "timestamp": "2020-09-10T02:14:02Z",
    "version": 3,
    "changeset": 90670400,
    "user": "AntMadeira",
    "uid": 2107121,
    "tags": {
      "addr:city": "Vieira de Leiria",
      "addr:housenumber": "1",
      "addr:postcode": "2430-688",
      "addr:street": "Rua da Boavista",
      "amenity": "restaurant",
      "cuisine": "seafood",
      "name": "Marisqueira Flor do Liz",
      "phone": "+351 244 695280"
    }
  },
  {
    "type": "node",
    "id": 2140121575,
    "lat": 39.8736051,
    "lon": -8.9726863,
    "timestamp": "2013-02-03T13:59:41Z",
    "version": 1,
    "changeset": 14896500,
    "user": "pauloneves",
    "uid": 1219587,
    "tags": {
      "amenity": "restaurant",
      "name": "Cantinho do Mar"
    }
  },
  {
    "type": "node",
    "id": 2140121576,
    "lat": 39.8735639,
    "lon": -8.9724395,
    "timestamp": "2014-06-10T01:41:14Z",
    "version": 2,
    "changeset": 22841161,
    "user": "Rui Oliveira",
    "uid": 445220,
    "tags": {
      "addr:street": "Rua da Boavista",
      "amenity": "restaurant",
      "cuisine": "regional",
      "name": "O Mirante"
    }
  },
  {
    "type": "node",
    "id": 2143313540,
    "lat": 39.7464969,
    "lon": -8.8970085,
    "timestamp": "2013-02-05T22:53:22Z",
    "version": 1,
    "changeset": 14927667,
    "user": "Sofia João",
    "uid": 1221967,
    "tags": {
      "amenity": "restaurant",
      "name": "Chiringuitto"
    }
  },
  {
    "type": "node",
    "id": 2143334099,
    "lat": 39.758583,
    "lon": -8.786134,
    "timestamp": "2019-10-29T13:54:15Z",
    "version": 3,
    "changeset": 76347996,
    "user": "AntMadeira",
    "uid": 2107121,
    "tags": {
      "addr:housenumber": "2186",
      "addr:street": "Rua Paulo VI",
      "amenity": "restaurant",
      "cuisine": "chinese",
      "name": "Ming Yuan",
      "website": "http://restaurantemingyuan.pt"
    }
  },
  {
    "type": "node",
    "id": 2143334100,
    "lat": 39.7587247,
    "lon": -8.7860645,
    "timestamp": "2022-02-10T15:53:12Z",
    "version": 4,
    "changeset": 117251941,
    "user": "AntMadeira",
    "uid": 2107121,
    "tags": {
      "amenity": "restaurant",
      "name": "O Buraco da Velha"
    }
  },
  {
    "type": "node",
    "id": 2156019471,
    "lat": 39.7628182,
    "lon": -8.9272396,
    "timestamp": "2020-08-29T18:52:21Z",
    "version": 2,
    "changeset": 90127940,
    "user": "AntMadeira",
    "uid": 2107121,
    "tags": {
      "amenity": "restaurant",
      "cuisine": "regional",
      "name": "A Ratoeira"
    }
  },
  {
    "type": "node",
    "id": 2159889760,
    "lat": 39.7554107,
    "lon": -8.9316264,
    "timestamp": "2020-09-01T00:33:40Z",
    "version": 3,
    "changeset": 90214602,
    "user": "AntMadeira",
    "uid": 2107121,
    "tags": {
      "amenity": "restaurant",
      "name": "Vasco da Gama"
    }
  },
  {
    "type": "node",
    "id": 2169676736,
    "lat": 39.6016516,
    "lon": -9.0726795,
    "timestamp": "2022-02-23T19:30:51Z",
    "version": 3,
    "changeset": 117784629,
    "user": "Cerritus",
    "uid": 12919,
    "tags": {
      "amenity": "restaurant",
      "cuisine": "coffee_shop",
      "name": "O Pucador"
    }
  },
  {
    "type": "node",
    "id": 2169676743,
    "lat": 39.6012073,
    "lon": -9.0733928,
    "timestamp": "2016-04-24T18:59:21Z",
    "version": 2,
    "changeset": 38839063,
    "user": "ulilu",
    "uid": 16881,
    "tags": {
      "amenity": "restaurant",
      "cuisine": "seafood"
    }
  },
  {
    "type": "node",
    "id": 2172626389,
    "lat": 39.1239869,
    "lon": -8.9075054,
    "timestamp": "2021-01-04T17:50:13Z",
    "version": 2,
    "changeset": 96922145,
    "user": "TijoloAzul",
    "uid": 1730055,
    "tags": {
      "amenity": "restaurant",
      "name": "Como"
    }
  },
  {
    "type": "node",
    "id": 2172647934,
    "lat": 39.3927164,
    "lon": -8.6403091,
    "timestamp": "2013-02-25T01:13:19Z",
    "version": 1,
    "changeset": 15156008,
    "user": "topolusitania",
    "uid": 380552,
    "tags": {
      "amenity": "restaurant"
    }
  },
  {
    "type": "node",
    "id": 2172719545,
    "lat": 39.7137209,
    "lon": -8.7101922,
    "timestamp": "2023-08-11T00:48:39Z",
    "version": 2,
    "changeset": 139727995,
    "user": "FlipPipe",
    "uid": 11572186,
    "tags": {
      "amenity": "restaurant",
      "name": "Colibri"
    }
  },
  {
    "type": "node",
    "id": 2180603857,
    "lat": 39.7465113,
    "lon": -8.9131631,
    "timestamp": "2020-09-12T03:46:37Z",
    "version": 2,
    "changeset": 90782834,
    "user": "AntMadeira",
    "uid": 2107121,
    "tags": {
      "amenity": "restaurant",
      "name": "O João"
    }
  },
  {
    "type": "node",
    "id": 2180613288,
    "lat": 39.7526578,
    "lon": -8.9335069,
    "timestamp": "2020-08-27T22:16:22Z",
    "version": 5,
    "changeset": 90047686,
    "user": "AntMadeira",
    "uid": 2107121,
    "tags": {
      "amenity": "restaurant",
      "name": "D. Francisca"
    }
  },
  {
    "type": "node",
    "id": 2187741771,
    "lat": 39.9264173,
    "lon": -8.9490093,
    "timestamp": "2013-03-05T22:03:11Z",
    "version": 1,
    "changeset": 15264326,
    "user": "FaBeatriz",
    "uid": 1209491,
    "tags": {
      "amenity": "restaurant",
      "cuisine": "regional",
      "name": "Restaurante Santola "
    }
  },
  {
    "type": "node",
    "id": 2187741776,
    "lat": 39.922315,
    "lon": -8.9503848,
    "timestamp": "2022-10-10T13:51:20Z",
    "version": 4,
    "changeset": 127305360,
    "user": "AntMadeira",
    "uid": 2107121,
    "tags": {
      "amenity": "restaurant",
      "cuisine": "regional;chicken",
      "name": "O Avô dos Frangos"
    }
  },
  {
    "type": "node",
    "id": 2188660563,
    "lat": 39.7480683,
    "lon": -8.9120642,
    "timestamp": "2024-06-28T20:01:42Z",
    "version": 2,
    "changeset": 153309159,
    "user": "AntMadeira",
    "uid": 2107121,
    "tags": {
      "addr:city": "Marinha Grande",
      "addr:housenumber": "149",
      "addr:postcode": "2430-091",
      "addr:street": "Rua de Leiria",
      "amenity": "restaurant",
      "email": "restaurantenini@gmail.com",
      "name": "Nini",
      "opening_hours": "Mo-Sa 12:00-15:00,19:30-22:30",
      "phone": "+351 244 029 790"
    }
  },
  {
    "type": "node",
    "id": 2188671994,
    "lat": 39.7189411,
    "lon": -8.8170631,
    "timestamp": "2013-03-06T17:08:18Z",
    "version": 1,
    "changeset": 15272935,
    "user": "MagdaRocha",
    "uid": 1209816,
    "tags": {
      "amenity": "restaurant",
      "name": "Selva do Lena"
    }
  },
  {
    "type": "node",
    "id": 2188918015,
    "lat": 39.7455444,
    "lon": -8.8894041,
    "timestamp": "2013-03-06T20:23:22Z",
    "version": 1,
    "changeset": 15275074,
    "user": "Nicole_Fernandes",
    "uid": 1209484,
    "tags": {
      "amenity": "restaurant",
      "name": "Monte Grande"
    }
  },
  {
    "type": "node",
    "id": 2189927834,
    "lat": 39.6877068,
    "lon": -8.881852,
    "timestamp": "2013-03-07T16:47:05Z",
    "version": 1,
    "changeset": 15284095,
    "user": "bsampainho",
    "uid": 1208434,
    "tags": {
      "amenity": "restaurant",
      "cuisine": "pizza",
      "name": "Café Costa"
    }
  },
  {
    "type": "node",
    "id": 2189934864,
    "lat": 39.7031669,
    "lon": -8.9105811,
    "timestamp": "2013-03-07T16:54:52Z",
    "version": 1,
    "changeset": 15284095,
    "user": "bsampainho",
    "uid": 1208434,
    "tags": {
      "amenity": "restaurant",
      "name": "Barracuda"
    }
  },
  {
    "type": "node",
    "id": 2189948394,
    "lat": 39.6967486,
    "lon": -8.9063153,
    "timestamp": "2013-03-07T17:09:36Z",
    "version": 1,
    "changeset": 15284246,
    "user": "mimii_10",
    "uid": 1209481,
    "tags": {
      "amenity": "restaurant",
      "name": "Churrasqueira"
    }
  },
  {
    "type": "node",
    "id": 2189984607,
    "lat": 39.6665947,
    "lon": -9.0036762,
    "timestamp": "2023-07-01T13:30:47Z",
    "version": 5,
    "changeset": 137992563,
    "user": "TheSparta",
    "uid": 15424667,
    "tags": {
      "amenity": "restaurant",
      "name": "Floresta",
      "phone": "244 580 022"
    }
  },
  {
    "type": "node",
    "id": 2190036205,
    "lat": 39.7443958,
    "lon": -8.9198207,
    "timestamp": "2020-09-05T00:46:31Z",
    "version": 2,
    "changeset": 90436455,
    "user": "AntMadeira",
    "uid": 2107121,
    "tags": {
      "amenity": "restaurant",
      "name": "3 Manias"
    }
  },
  {
    "type": "node",
    "id": 2190147807,
    "lat": 39.7748571,
    "lon": -8.886122,
    "timestamp": "2020-03-19T13:19:39Z",
    "version": 2,
    "changeset": 82391812,
    "user": "luisforte",
    "uid": 3305165,
    "tags": {
      "amenity": "restaurant"
    }
  },
  {
    "type": "node",
    "id": 2190186552,
    "lat": 39.7495641,
    "lon": -8.9307048,
    "timestamp": "2020-09-12T20:17:21Z",
    "version": 2,
    "changeset": 90804001,
    "user": "AntMadeira",
    "uid": 2107121,
    "tags": {
      "amenity": "restaurant",
      "name": "Monumental"
    }
  },
  {
    "type": "node",
    "id": 2190377122,
    "lat": 39.7379824,
    "lon": -8.923794,
    "timestamp": "2024-10-19T09:14:08Z",
    "version": 2,
    "changeset": 158080795,
    "user": "peter_osm",
    "uid": 1996520,
    "tags": {
      "addr:city": "Marinha Grande",
      "addr:housenumber": "28",
      "addr:postcode": "2430-219",
      "addr:street": "Rua João Ferreira Gândara",
      "amenity": "restaurant",
      "name": "Mesquita"
    }
  },
  {
    "type": "node",
    "id": 2190464348,
    "lat": 39.7517747,
    "lon": -8.9333599,
    "timestamp": "2013-03-08T17:28:55Z",
    "version": 2,
    "changeset": 15292601,
    "user": "AdrianaPalmela74",
    "uid": 1209488,
    "tags": {
      "amenity": "restaurant"
    }
  },
  {
    "type": "node",
    "id": 2191109383,
    "lat": 39.7360177,
    "lon": -8.9139888,
    "timestamp": "2020-01-06T01:21:54Z",
    "version": 2,
    "changeset": 79226934,
    "user": "AntMadeira",
    "uid": 2107121,
    "tags": {
      "amenity": "restaurant",
      "name": "O Ninho"
    }
  },
  {
    "type": "node",
    "id": 2191188983,
    "lat": 39.8748725,
    "lon": -8.9711418,
    "timestamp": "2013-03-08T17:46:44Z",
    "version": 1,
    "changeset": 15292853,
    "user": "pauloneves",
    "uid": 1219587,
    "tags": {
      "amenity": "restaurant",
      "name": "O Coelho "
    }
  },
  {
    "type": "node",
    "id": 2191233140,
    "lat": 39.8695964,
    "lon": -8.9342254,
    "timestamp": "2015-06-30T16:42:40Z",
    "version": 2,
    "changeset": 32313129,
    "user": "Catia Mendes",
    "uid": 3025944,
    "tags": {
      "amenity": "restaurant",
      "name": "O Farto"
    }
  },
  {
    "type": "node",
    "id": 2192194099,
    "lat": 39.8092518,
    "lon": -8.9135938,
    "timestamp": "2020-08-29T18:15:39Z",
    "version": 2,
    "changeset": 90127203,
    "user": "AntMadeira",
    "uid": 2107121,
    "tags": {
      "amenity": "restaurant",
      "name": "Xchafarica"
    }
  },
  {
    "type": "node",
    "id": 2194786230,
    "lat": 39.8454143,
    "lon": -8.7001405,
    "timestamp": "2020-07-22T06:10:00Z",
    "version": 3,
    "changeset": 88326537,
    "user": "AntMadeira",
    "uid": 2107121,
    "tags": {
      "amenity": "restaurant",
      "cuisine": "chicken",
      "name": "Adega da Hortinha",
      "phone": "+351 236948337"
    }
  },
  {
    "type": "node",
    "id": 2195735734,
    "lat": 39.7535497,
    "lon": -8.9284837,
    "timestamp": "2020-09-01T01:00:14Z",
    "version": 2,
    "changeset": 90214847,
    "user": "AntMadeira",
    "uid": 2107121,
    "tags": {
      "amenity": "restaurant",
      "cuisine": "chinese"
    }
  },
  {
    "type": "node",
    "id": 2195737881,
    "lat": 39.7465422,
    "lon": -8.9364443,
    "timestamp": "2013-03-11T14:11:37Z",
    "version": 1,
    "changeset": 15328245,
    "user": "David Ribeiro",
    "uid": 1260704,
    "tags": {
      "amenity": "restaurant",
      "name": "Restaurante Asiático"
    }
  },
  {
    "type": "node",
    "id": 2198359363,
    "lat": 39.4014838,
    "lon": -9.1020674,
    "timestamp": "2014-06-08T01:43:16Z",
    "version": 2,
    "changeset": 22801963,
    "user": "newscene",
    "uid": 2020515,
    "tags": {
      "addr:housenumber": "7",
      "addr:postcode": "2500-312",
      "addr:street": "Rua Júlio Sousa",
      "amenity": "restaurant",
      "name": "Adega do Albertino"
    }
  },
  {
    "type": "node",
    "id": 2204480453,
    "lat": 39.8912554,
    "lon": -8.6612083,
    "timestamp": "2020-06-25T19:46:59Z",
    "version": 3,
    "changeset": 87156658,
    "user": "AntMadeira",
    "uid": 2107121,
    "tags": {
      "amenity": "restaurant",
      "cuisine": "regional",
      "name": "Pedro's"
    }
  },
  {
    "type": "node",
    "id": 2204480454,
    "lat": 39.8940184,
    "lon": -8.6555575,
    "timestamp": "2020-06-25T20:01:14Z",
    "version": 3,
    "changeset": 87157064,
    "user": "AntMadeira",
    "uid": 2107121,
    "tags": {
      "amenity": "restaurant",
      "name": "São Sebastião"
    }
  },
  {
    "type": "node",
    "id": 2218462230,
    "lat": 39.8420473,
    "lon": -8.7106666,
    "timestamp": "2020-07-07T21:51:28Z",
    "version": 3,
    "changeset": 87675621,
    "user": "AntMadeira",
    "uid": 2107121,
    "tags": {
      "amenity": "restaurant",
      "cuisine": "chicken",
      "name": "Paris",
      "phone": "+351 236948476",
      "website": "http://www.churrasqueiraparis.com"
    }
  },
  {
    "type": "node",
    "id": 2265001162,
    "lat": 39.5899148,
    "lon": -8.8199694,
    "timestamp": "2025-04-19T13:42:23Z",
    "version": 2,
    "changeset": 165154408,
    "user": "insbdp00",
    "uid": 1856039,
    "tags": {
      "amenity": "restaurant",
      "name": "Taberna D'Avó"
    }
  },
  {
    "type": "node",
    "id": 2271532140,
    "lat": 39.7360512,
    "lon": -8.7987346,
    "timestamp": "2021-04-21T19:44:47Z",
    "version": 4,
    "changeset": 103361913,
    "user": "lalolan",
    "uid": 11113526,
    "tags": {
      "addr:housenumber": "1",
      "amenity": "restaurant",
      "cuisine": "pizza",
      "name": "Pizzaria Rossini",
      "opening_hours": "Tu-Su 12:00-14:30,19:00-23:00",
      "phone": "+351 244 811 310",
      "website": "http://www.pizzeriarossini.pt/"
    }
  },
  {
    "type": "node",
    "id": 2271532151,
    "lat": 39.7832742,
    "lon": -8.8421499,
    "timestamp": "2013-04-18T10:31:45Z",
    "version": 1,
    "changeset": 15771851,
    "user": "jmoleano",
    "uid": 1343056,
    "tags": {
      "amenity": "restaurant",
      "name": "Abissinia"
    }
  },
  {
    "type": "node",
    "id": 2272025629,
    "lat": 39.5882157,
    "lon": -8.8238752,
    "timestamp": "2024-06-03T19:20:53Z",
    "version": 2,
    "changeset": 152214344,
    "user": "jmoleano",
    "uid": 1343056,
    "tags": {
      "amenity": "restaurant",
      "name": "Restaurante do Coração"
    }
  },
  {
    "type": "node",
    "id": 2314535743,
    "lat": 39.0184213,
    "lon": -9.1510612,
    "timestamp": "2023-08-07T15:24:15Z",
    "version": 3,
    "changeset": 139570868,
    "user": "osvano-marva",
    "uid": 8921851,
    "tags": {
      "amenity": "restaurant",
      "check_date": "2023-08-07",
      "name": "O Chafariz",
      "outdoor_seating": "no",
      "smoking": "no"
    }
  },
  {
    "type": "node",
    "id": 2379815098,
    "lat": 39.5412568,
    "lon": -8.4971171,
    "timestamp": "2013-11-26T16:04:57Z",
    "version": 3,
    "changeset": 19129234,
    "user": "Josef73",
    "uid": 213831,
    "tags": {
      "amenity": "restaurant",
      "cuisine": "regional",
      "name": "Os Maias",
      "opening_hours": "Tu-Sa 19:00-01:00"
    }
  },
  {
    "type": "node",
    "id": 2385217247,
    "lat": 39.6115631,
    "lon": -8.4991694,
    "timestamp": "2018-11-28T23:35:54Z",
    "version": 2,
    "changeset": 64990914,
    "user": "ottokar55",
    "uid": 101355,
    "tags": {
      "amenity": "restaurant",
      "name": "O Baril"
    }
  },
  {
    "type": "node",
    "id": 2385388712,
    "lat": 39.615888,
    "lon": -8.4318266,
    "timestamp": "2021-07-03T09:59:22Z",
    "version": 3,
    "changeset": 107346862,
    "user": "meioserrano",
    "uid": 11844438,
    "tags": {
      "amenity": "restaurant",
      "cuisine": "regional",
      "name": "Café Restaurante Os Manos"
    }
  },
  {
    "type": "node",
    "id": 2395622476,
    "lat": 39.6034878,
    "lon": -8.412692,
    "timestamp": "2022-03-12T23:10:31Z",
    "version": 5,
    "changeset": 118415016,
    "user": "Bombarda",
    "uid": 3685422,
    "tags": {
      "addr:housenumber": "54",
      "addr:postcode": "2300",
      "addr:street": "Rua dos Moinhos",
      "amenity": "restaurant",
      "cuisine": "regional",
      "name": "Restaurante Piri-Piri",
      "phone": "919295930",
      "source": "GPS",
      "website": "https://restaurantepiri-piri.webs.com/"
    }
  },
  {
    "type": "node",
    "id": 2395628467,
    "lat": 39.6037622,
    "lon": -8.4120118,
    "timestamp": "2014-09-03T13:19:36Z",
    "version": 4,
    "changeset": 25204668,
    "user": "Diana Nunes",
    "uid": 2042611,
    "tags": {
      "addr:housenumber": "6",
      "addr:postcode": "2300-577",
      "addr:street": "Rua Doutor Joaquim Jacinto",
      "amenity": "restaurant",
      "cuisine": "regional",
      "name": "Casa Das Ratas",
      "source": "GPS"
    }
  },
  {
    "type": "node",
    "id": 2395630233,
    "lat": 39.6036967,
    "lon": -8.4119756,
    "timestamp": "2014-09-03T13:19:36Z",
    "version": 5,
    "changeset": 25204668,
    "user": "Diana Nunes",
    "uid": 2042611,
    "tags": {
      "addr:housenumber": "6",
      "addr:postcode": "2300-577",
      "addr:street": "Rua Doutor Joaquim Jacinto",
      "amenity": "restaurant",
      "cuisine": "regional",
      "name": "Casa Matreno",
      "source": "GPS"
    }
  },
  {
    "type": "node",
    "id": 2411765345,
    "lat": 39.6720224,
    "lon": -8.5373252,
    "timestamp": "2022-11-16T14:29:56Z",
    "version": 2,
    "changeset": 128995504,
    "user": "meioserrano",
    "uid": 11844438,
    "tags": {
      "amenity": "restaurant",
      "cuisine": "regional",
      "internet_access": "no",
      "internet_access:fee": "no",
      "name": "A locomotiva",
      "opening_hours": "closed",
      "phone": "+351249543494",
      "smoking": "no",
      "wheelchair": "yes"
    }
  },
  {
    "type": "node",
    "id": 2418980545,
    "lat": 39.6318946,
    "lon": -8.678378,
    "timestamp": "2022-07-19T00:31:53Z",
    "version": 3,
    "changeset": 123783196,
    "user": "Beton Krai",
    "uid": 14454329,
    "tags": {
      "amenity": "restaurant",
      "indoor_seating": "yes",
      "name": "Turpial",
      "outdoor_seating": "yes"
    }
  },
  {
    "type": "node",
    "id": 2418980586,
    "lat": 39.6318231,
    "lon": -8.6762281,
    "timestamp": "2023-04-05T21:04:23Z",
    "version": 3,
    "changeset": 134554093,
    "user": "Blauwdruk",
    "uid": 4517210,
    "tags": {
      "amenity": "restaurant",
      "indoor_seating": "yes",
      "name": "SantaCruz",
      "outdoor_seating": "yes"
    }
  },
  {
    "type": "node",
    "id": 2438128275,
    "lat": 39.5484692,
    "lon": -8.3082529,
    "timestamp": "2024-06-27T06:38:18Z",
    "version": 3,
    "changeset": 153231824,
    "user": "b-jazz-bot",
    "uid": 9451067,
    "tags": {
      "addr:housenumber": "5",
      "addr:street": "Rua do Rio",
      "amenity": "restaurant",
      "cuisine": "regional",
      "email": "restaurante@osabordapedra.com",
      "fax": "+351 918 227 432",
      "name": "O SABOR DA PEDRA",
      "phone": "+351 249 371 750",
      "website": "https://www.osabordapedra.com/"
    }
  },
  {
    "type": "node",
    "id": 2448064523,
    "lat": 39.2381784,
    "lon": -8.7033388,
    "timestamp": "2025-01-03T12:43:32Z",
    "version": 4,
    "changeset": 160947326,
    "user": "GabrielFerr",
    "uid": 884540,
    "tags": {
      "addr:housename": "Pingo Doce",
      "addr:street": "Rua Atriz Alda Rodrigues",
      "amenity": "restaurant",
      "indoor_seating": "yes",
      "name": "O Sítio do Costume",
      "outdoor_seating": "no"
    }
  },
  {
    "type": "node",
    "id": 2455797962,
    "lat": 39.6180354,
    "lon": -8.4330986,
    "timestamp": "2013-09-12T16:20:46Z",
    "version": 1,
    "changeset": 17802609,
    "user": "RKS00",
    "uid": 1646000,
    "tags": {
      "amenity": "restaurant",
      "cuisine": "regional",
      "name": "O Arsénio"
    }
  },
  {
    "type": "node",
    "id": 2468571483,
    "lat": 39.3374818,
    "lon": -8.9335452,
    "timestamp": "2016-08-23T10:09:24Z",
    "version": 8,
    "changeset": 41634237,
    "user": "André Silvestre",
    "uid": 3238913,
    "tags": {
      "addr:city": "Rio Maior",
      "addr:housenumber": "7",
      "addr:postcode": "2040-326",
      "addr:street": "Praceta de S. Gregório",
      "amenity": "restaurant",
      "name": "Cantinho Saudável"
    }
  },
  {
    "type": "node",
    "id": 2468869771,
    "lat": 39.3387772,
    "lon": -8.935063,
    "timestamp": "2021-01-26T16:52:47Z",
    "version": 4,
    "changeset": 98174449,
    "user": "luisforte",
    "uid": 3305165,
    "tags": {
      "addr:city": "Rio Maior",
      "addr:housenumber": "27C",
      "addr:postcode": "2040-325",
      "addr:street": "Avenida Paulo VI",
      "amenity": "restaurant",
      "name": "Bistro - Bellini"
    }
  },
  {
    "type": "node",
    "id": 2468908535,
    "lat": 39.3373108,
    "lon": -8.9355797,
    "timestamp": "2016-08-23T10:30:20Z",
    "version": 4,
    "changeset": 41634637,
    "user": "André Silvestre",
    "uid": 3238913,
    "tags": {
      "addr:city": "Rio Maior",
      "addr:housenumber": "68A",
      "addr:postcode": "2040-325",
      "addr:street": "Avenida Paulo VI",
      "amenity": "restaurant",
      "name": "Novo Horizonte"
    }
  },
  {
    "type": "node",
    "id": 2469763988,
    "lat": 39.3364294,
    "lon": -8.9364663,
    "timestamp": "2021-01-26T16:52:47Z",
    "version": 4,
    "changeset": 98174449,
    "user": "luisforte",
    "uid": 3305165,
    "tags": {
      "addr:city": "Rio Maior",
      "addr:housenumber": "51",
      "addr:postcode": "2040-320",
      "addr:street": "Praça da República",
      "amenity": "restaurant",
      "name": "Avis - Cervejaria"
    }
  },
  {
    "type": "node",
    "id": 2490513156,
    "lat": 39.4699453,
    "lon": -8.4826247,
    "timestamp": "2013-10-10T01:19:11Z",
    "version": 1,
    "changeset": 18274033,
    "user": "rui_c_marques",
    "uid": 1770413,
    "tags": {
      "amenity": "restaurant",
      "name": "O Barbas"
    }
  },
  {
    "type": "node",
    "id": 2494868562,
    "lat": 39.1619252,
    "lon": -8.7855113,
    "timestamp": "2013-10-13T11:14:59Z",
    "version": 1,
    "changeset": 18330510,
    "user": "Lobinho",
    "uid": 571263,
    "tags": {
      "amenity": "restaurant"
    }
  },
  {
    "type": "node",
    "id": 2504755338,
    "lat": 39.3785592,
    "lon": -8.6612232,
    "timestamp": "2020-04-19T21:43:09Z",
    "version": 3,
    "changeset": 83786414,
    "user": "luisforte",
    "uid": 3305165,
    "tags": {
      "amenity": "restaurant",
      "name": "Mário restaurant"
    }
  },
  {
    "type": "node",
    "id": 2504774634,
    "lat": 39.3873943,
    "lon": -8.6560634,
    "timestamp": "2021-10-03T20:50:00Z",
    "version": 2,
    "changeset": 112048691,
    "user": "Rui 228",
    "uid": 6590092,
    "tags": {
      "amenity": "restaurant",
      "name": "A Tufeira"
    }
  },
  {
    "type": "node",
    "id": 2504787867,
    "lat": 39.6258667,
    "lon": -8.3793229,
    "timestamp": "2022-03-12T22:52:20Z",
    "version": 2,
    "changeset": 118414719,
    "user": "Bombarda",
    "uid": 3685422,
    "tags": {
      "amenity": "restaurant",
      "cuisine": "regional",
      "name": "A Familiar",
      "phone": "919595586"
    }
  },
  {
    "type": "node",
    "id": 2505119168,
    "lat": 39.603633,
    "lon": -8.4069237,
    "timestamp": "2025-04-18T17:58:35Z",
    "version": 4,
    "changeset": 165124751,
    "user": "mikedld",
    "uid": 284757,
    "tags": {
      "amenity": "restaurant",
      "name": "Marisqueira\"Sereia do Nabão\""
    }
  },
  {
    "type": "node",
    "id": 2505425450,
    "lat": 39.6027734,
    "lon": -8.4066032,
    "timestamp": "2025-04-18T17:58:35Z",
    "version": 3,
    "changeset": 165124751,
    "user": "mikedld",
    "uid": 284757,
    "tags": {
      "amenity": "restaurant",
      "cuisine": "italian",
      "name": "Mundo das Pizzas",
      "phone": "249322208"
    }
  },
  {
    "type": "node",
    "id": 2506485416,
    "lat": 39.6019013,
    "lon": -8.4125979,
    "timestamp": "2014-07-09T15:16:55Z",
    "version": 2,
    "changeset": 24047711,
    "user": "Diana Nunes",
    "uid": 2042611,
    "tags": {
      "amenity": "restaurant",
      "cuisine": "regional",
      "name": "Restaurante Tomaz"
    }
  },
  {
    "type": "node",
    "id": 2571402921,
    "lat": 39.4587863,
    "lon": -8.4321371,
    "timestamp": "2019-05-08T01:52:56Z",
    "version": 2,
    "changeset": 70003568,
    "user": "mapman44",
    "uid": 2888253,
    "tags": {
      "amenity": "restaurant",
      "name": "Tasquinha da Adélia"
    }
  },
  {
    "type": "node",
    "id": 2588836982,
    "lat": 39.3602512,
    "lon": -9.1578404,
    "timestamp": "2013-12-21T10:23:30Z",
    "version": 1,
    "changeset": 19563694,
    "user": "Alvaro Almeida",
    "uid": 1850545,
    "tags": {
      "amenity": "restaurant",
      "cuisine": "regional",
      "name": "O Lidador",
      "wheelchair": "limited"
    }
  },
  {
    "type": "node",
    "id": 2588837017,
    "lat": 39.3600021,
    "lon": -9.1578404,
    "timestamp": "2013-12-21T10:23:55Z",
    "version": 1,
    "changeset": 19563698,
    "user": "Alvaro Almeida",
    "uid": 1850545,
    "tags": {
      "amenity": "restaurant",
      "cuisine": "regional",
      "name": "Memória",
      "wheelchair": "yes"
    }
  },
  {
    "type": "node",
    "id": 2588837414,
    "lat": 39.3602765,
    "lon": -9.1572753,
    "timestamp": "2013-12-21T10:24:19Z",
    "version": 1,
    "changeset": 19563701,
    "user": "Alvaro Almeida",
    "uid": 1850545,
    "tags": {
      "amenity": "restaurant",
      "cuisine": "regional",
      "name": "Adega do Ramada",
      "wheelchair": "no"
    }
  },
  {
    "type": "node",
    "id": 2588837489,
    "lat": 39.3601664,
    "lon": -9.1575882,
    "timestamp": "2013-12-21T10:24:40Z",
    "version": 1,
    "changeset": 19563706,
    "user": "Alvaro Almeida",
    "uid": 1850545,
    "tags": {
      "amenity": "restaurant",
      "name": "O Conquistador"
    }
  },
  {
    "type": "node",
    "id": 2588837504,
    "lat": 39.3601591,
    "lon": -9.1576699,
    "timestamp": "2013-12-21T10:24:58Z",
    "version": 1,
    "changeset": 19563710,
    "user": "Alvaro Almeida",
    "uid": 1850545,
    "tags": {
      "amenity": "restaurant",
      "name": "O Burgo"
    }
  },
  {
    "type": "node",
    "id": 2588837617,
    "lat": 39.360244,
    "lon": -9.1575438,
    "timestamp": "2013-12-21T10:25:14Z",
    "version": 1,
    "changeset": 19563712,
    "user": "Alvaro Almeida",
    "uid": 1850545,
    "tags": {
      "amenity": "restaurant",
      "name": "Lounge"
    }
  },
  {
    "type": "node",
    "id": 2588837788,
    "lat": 39.3612784,
    "lon": -9.1558463,
    "timestamp": "2013-12-21T10:26:21Z",
    "version": 1,
    "changeset": 19563726,
    "user": "Alvaro Almeida",
    "uid": 1850545,
    "tags": {
      "amenity": "restaurant",
      "name": "Ilustre Casa de Ramiro"
    }
  },
  {
    "type": "node",
    "id": 2598761818,
    "lat": 39.597439,
    "lon": -9.0718662,
    "timestamp": "2013-12-28T19:44:15Z",
    "version": 1,
    "changeset": 19685143,
    "user": "Dmytro Ovdiienko",
    "uid": 211459,
    "tags": {
      "amenity": "restaurant",
      "name": "O Gaivinha",
      "source": "Bing"
    }
  },
  {
    "type": "node",
    "id": 2630083036,
    "lat": 39.5747707,
    "lon": -8.6429687,
    "timestamp": "2023-11-01T02:29:00Z",
    "version": 4,
    "changeset": 143450816,
    "user": "b-jazz-bot",
    "uid": 9451067,
    "tags": {
      "addr:city": "Boleiros",
      "addr:housename": "Complexo Turístico D. Nuno",
      "addr:housenumber": "326",
      "addr:postcode": "2495-079",
      "addr:street": "EN 360",
      "amenity": "restaurant",
      "cuisine": "regional",
      "name": "D. Nuno",
      "opening_hours": "Summer 10:00-21:30; Winter 10:00-20:00",
      "phone": "249 539 040",
      "source": "http://www.dnuno.com/?m=pages&page=contactos",
      "website": "https://www.dnuno.com/",
      "wheelchair": "yes"
    }
  },
  {
    "type": "node",
    "id": 2639849352,
    "lat": 39.3068564,
    "lon": -8.6799708,
    "timestamp": "2014-01-28T13:06:27Z",
    "version": 2,
    "changeset": 20246619,
    "user": "lezurdis",
    "uid": 214968,
    "tags": {
      "amenity": "restaurant",
      "name": "O Galego"
    }
  },
  {
    "type": "node",
    "id": 2651673696,
    "lat": 39.6274895,
    "lon": -8.6662546,
    "timestamp": "2019-03-06T21:04:58Z",
    "version": 2,
    "changeset": 67859347,
    "user": "GBAB",
    "uid": 3335899,
    "tags": {
      "amenity": "restaurant"
    }
  },
  {
    "type": "node",
    "id": 2651938876,
    "lat": 39.2568021,
    "lon": -8.8949041,
    "timestamp": "2016-08-23T10:24:39Z",
    "version": 4,
    "changeset": 41634541,
    "user": "André Silvestre",
    "uid": 3238913,
    "tags": {
      "addr:city": "Arrouquelas",
      "addr:housenumber": "3",
      "addr:postcode": "2040-031",
      "amenity": "restaurant",
      "name": "Mãe Luísa"
    }
  },
  {
    "type": "node",
    "id": 2657609974,
    "lat": 39.3348305,
    "lon": -8.9379296,
    "timestamp": "2016-08-23T11:22:09Z",
    "version": 5,
    "changeset": 41635601,
    "user": "André Silvestre",
    "uid": 3238913,
    "tags": {
      "addr:city": "Rio Maior",
      "addr:housename": "Rua Serpa Pinto",
      "addr:housenumber": "131",
      "addr:postcode": "2040-249",
      "addr:street": "Rua Serpa Pinto",
      "amenity": "restaurant",
      "cuisine": "regional",
      "name": "Taverna do Sócio"
    }
  },
  {
    "type": "node",
    "id": 2657812606,
    "lat": 39.3607688,
    "lon": -8.8893316,
    "timestamp": "2014-02-06T17:10:38Z",
    "version": 1,
    "changeset": 20415462,
    "user": "Ulmi®",
    "uid": 37214,
    "tags": {
      "amenity": "restaurant",
      "name": "Retiro do Zé"
    }
  },
  {
    "type": "node",
    "id": 2657812607,
    "lat": 39.3712826,
    "lon": -8.9643356,
    "timestamp": "2016-08-23T11:10:56Z",
    "version": 2,
    "changeset": 41635387,
    "user": "André Silvestre",
    "uid": 3238913,
    "tags": {
      "addr:city": "Alto da Serra",
      "addr:postcode": "2040-074",
      "addr:street": "Estrada Nacional 1",
      "amenity": "restaurant",
      "name": "O Talego"
    }
  },
  {
    "type": "node",
    "id": 2657812608,
    "lat": 39.3706506,
    "lon": -8.9642294,
    "timestamp": "2016-08-23T11:24:40Z",
    "version": 2,
    "changeset": 41635640,
    "user": "André Silvestre",
    "uid": 3238913,
    "tags": {
      "addr:city": "Alto da Serra",
      "addr:postcode": "2040-074",
      "addr:street": "Estrada Nacional 1",
      "amenity": "restaurant",
      "name": "Ti Cristina"
    }
  },
  {
    "type": "node",
    "id": 2657812616,
    "lat": 39.3294524,
    "lon": -8.9370211,
    "timestamp": "2014-02-06T17:10:39Z",
    "version": 1,
    "changeset": 20415462,
    "user": "Ulmi®",
    "uid": 37214,
    "tags": {
      "amenity": "restaurant",
      "name": "Sabores d'Aqui"
    }
  },
  {
    "type": "node",
    "id": 2657812617,
    "lat": 39.2910456,
    "lon": -8.9093698,
    "timestamp": "2014-02-06T17:10:39Z",
    "version": 1,
    "changeset": 20415462,
    "user": "Ulmi®",
    "uid": 37214,
    "tags": {
      "amenity": "restaurant",
      "name": "Lombo Ibérico"
    }
  },
  {
    "type": "node",
    "id": 2657812618,
    "lat": 39.4215444,
    "lon": -8.9061158,
    "timestamp": "2017-06-16T15:26:22Z",
    "version": 3,
    "changeset": 49594604,
    "user": "Ulmi®",
    "uid": 37214,
    "tags": {
      "addr:city": "Alcobertas",
      "addr:postcode": "2040-011",
      "addr:street": "Rua do Olho de Água",
      "amenity": "restaurant",
      "name": "Olho d'Água"
    }
  },
  {
    "type": "node",
    "id": 2657812619,
    "lat": 39.3613373,
    "lon": -8.9629045,
    "timestamp": "2016-08-23T10:20:37Z",
    "version": 2,
    "changeset": 41634464,
    "user": "André Silvestre",
    "uid": 3238913,
    "tags": {
      "addr:city": "Alto da Serra",
      "addr:postcode": "2040-063",
      "addr:street": "Rua António Costa",
      "amenity": "restaurant",
      "name": "Fortaleza"
    }
  },
  {
    "type": "node",
    "id": 2657812620,
    "lat": 39.3032626,
    "lon": -8.9166658,
    "timestamp": "2014-02-06T17:10:39Z",
    "version": 1,
    "changeset": 20415462,
    "user": "Ulmi®",
    "uid": 37214,
    "tags": {
      "amenity": "restaurant",
      "name": "Recantão"
    }
  },
  {
    "type": "node",
    "id": 2657812621,
    "lat": 39.3362067,
    "lon": -8.9363742,
    "timestamp": "2014-02-06T17:10:39Z",
    "version": 1,
    "changeset": 20415462,
    "user": "Ulmi®",
    "uid": 37214,
    "tags": {
      "amenity": "restaurant",
      "name": "Adega Económica"
    }
  },
  {
    "type": "node",
    "id": 2657812622,
    "lat": 39.3368262,
    "lon": -8.9370043,
    "timestamp": "2014-02-06T17:10:39Z",
    "version": 1,
    "changeset": 20415462,
    "user": "Ulmi®",
    "uid": 37214,
    "tags": {
      "amenity": "restaurant",
      "name": "Avis"
    }
  },
  {
    "type": "node",
    "id": 2657812623,
    "lat": 39.3359536,
    "lon": -8.9368885,
    "timestamp": "2016-08-23T11:13:21Z",
    "version": 2,
    "changeset": 41635435,
    "user": "André Silvestre",
    "uid": 3238913,
    "tags": {
      "addr:city": "Rio Maior",
      "addr:housenumber": "5",
      "addr:postcode": "2040-250",
      "addr:street": "Travessa do Palhinhas",
      "amenity": "restaurant",
      "name": "Palhinhas Gold"
    }
  },
  {
    "type": "node",
    "id": 2657812624,
    "lat": 39.3411025,
    "lon": -8.9352755,
    "timestamp": "2016-08-23T11:17:39Z",
    "version": 3,
    "changeset": 41635530,
    "user": "André Silvestre",
    "uid": 3238913,
    "tags": {
      "addr:city": "Rio Maior",
      "addr:housenumber": "18C",
      "addr:postcode": "2040-325",
      "addr:street": "Avenida Paulo VI",
      "amenity": "restaurant",
      "cuisine": "pizza",
      "name": "Pizza Café"
    }
  },
  {
    "type": "node",
    "id": 2657812625,
    "lat": 39.3396592,
    "lon": -8.9365368,
    "timestamp": "2014-02-06T17:10:39Z",
    "version": 1,
    "changeset": 20415462,
    "user": "Ulmi®",
    "uid": 37214,
    "tags": {
      "amenity": "restaurant",
      "name": "Retiro do Cândido"
    }
  },
  {
    "type": "node",
    "id": 2657812626,
    "lat": 39.3365746,
    "lon": -8.9373296,
    "timestamp": "2016-08-23T11:22:08Z",
    "version": 2,
    "changeset": 41635601,
    "user": "André Silvestre",
    "uid": 3238913,
    "tags": {
      "addr:city": "Rio Maior",
      "addr:postcode": "2040-277",
      "addr:street": "Travessa da Estalagem",
      "amenity": "restaurant",
      "name": "Taverna da Raposa"
    }
  },
  {
    "type": "node",
    "id": 2657812627,
    "lat": 39.3381812,
    "lon": -8.9264714,
    "timestamp": "2016-08-23T10:58:03Z",
    "version": 3,
    "changeset": 41635146,
    "user": "André Silvestre",
    "uid": 3238913,
    "tags": {
      "addr:city": "Rio Maior",
      "addr:housenumber": "4",
      "addr:postcode": "2040-210",
      "addr:street": "Estrada de Alcanede",
      "amenity": "restaurant",
      "name": "Morgado"
    }
  },
  {
    "type": "node",
    "id": 2657812628,
    "lat": 39.3416592,
    "lon": -8.9526536,
    "timestamp": "2016-08-23T10:02:30Z",
    "version": 2,
    "changeset": 41634097,
    "user": "André Silvestre",
    "uid": 3238913,
    "tags": {
      "addr:city": "Rio Maior",
      "addr:housenumber": "6",
      "addr:postcode": "2040-061",
      "addr:street": "Rua da Aberta",
      "amenity": "restaurant",
      "name": "Agulha"
    }
  },
  {
    "type": "node",
    "id": 2657812637,
    "lat": 39.353919,
    "lon": -8.8958004,
    "timestamp": "2014-02-06T17:10:40Z",
    "version": 1,
    "changeset": 20415462,
    "user": "Ulmi®",
    "uid": 37214,
    "tags": {
      "amenity": "restaurant",
      "name": "Petisqueira Pinheiro"
    }
  },
  {
    "type": "node",
    "id": 2657812638,
    "lat": 39.2802685,
    "lon": -8.8675093,
    "timestamp": "2014-07-11T13:59:15Z",
    "version": 2,
    "changeset": 24083207,
    "user": "Ulmi®",
    "uid": 37214,
    "tags": {
      "amenity": "restaurant",
      "name": "Mediterrânea"
    }
  },
  {
    "type": "node",
    "id": 2657812639,
    "lat": 39.2958292,
    "lon": -8.9327308,
    "timestamp": "2016-08-23T11:20:11Z",
    "version": 3,
    "changeset": 41635572,
    "user": "André Silvestre",
    "uid": 3238913,
    "tags": {
      "addr:city": "Asseiceira",
      "addr:housenumber": "121",
      "addr:postcode": "2040-481",
      "addr:street": "Estrada Nacional 1",
      "amenity": "restaurant",
      "name": "Marisqueira São Domingos"
    }
  },
  {
    "type": "node",
    "id": 2657812640,
    "lat": 39.257946,
    "lon": -8.8585995,
    "timestamp": "2016-08-23T10:02:31Z",
    "version": 2,
    "changeset": 41634097,
    "user": "André Silvestre",
    "uid": 3238913,
    "tags": {
      "addr:city": "Assentiz",
      "addr:housenumber": "15",
      "addr:postcode": "2040-536",
      "addr:street": "Rua do Arneiro",
      "amenity": "restaurant",
      "name": "Alambique"
    }
  },
  {
    "type": "node",
    "id": 2657812641,
    "lat": 39.3384604,
    "lon": -8.9336956,
    "timestamp": "2016-08-23T11:29:58Z",
    "version": 3,
    "changeset": 41635729,
    "user": "André Silvestre",
    "uid": 3238913,
    "tags": {
      "addr:city": "Rio Maior",
      "addr:housenumber": "5",
      "addr:postcode": "2040-361",
      "addr:street": "Rua Fausta Sequeira Nobre",
      "amenity": "restaurant",
      "name": "PIzza Time"
    }
  },
  {
    "type": "node",
    "id": 2657812642,
    "lat": 39.334563,
    "lon": -8.9374103,
    "timestamp": "2014-02-06T17:10:40Z",
    "version": 1,
    "changeset": 20415462,
    "user": "Ulmi®",
    "uid": 37214,
    "tags": {
      "amenity": "restaurant",
      "name": "Cantinho do Rio"
    }
  },
  {
    "type": "node",
    "id": 2657812645,
    "lat": 39.3262962,
    "lon": -8.9274204,
    "timestamp": "2016-08-22T14:38:03Z",
    "version": 2,
    "changeset": 41616208,
    "user": "André Silvestre",
    "uid": 3238913,
    "tags": {
      "addr:city": "Rio Maior",
      "addr:housenumber": "5",
      "addr:postcode": "2040-410",
      "addr:street": "Rua do Barreiro",
      "amenity": "restaurant",
      "name": "São José"
    }
  },
  {
    "type": "node",
    "id": 2657812646,
    "lat": 39.298645,
    "lon": -8.9251959,
    "timestamp": "2014-02-06T17:10:40Z",
    "version": 1,
    "changeset": 20415462,
    "user": "Ulmi®",
    "uid": 37214,
    "tags": {
      "amenity": "restaurant",
      "name": "A Lareira"
    }
  },
  {
    "type": "node",
    "id": 2657812647,
    "lat": 39.3415226,
    "lon": -8.9501048,
    "timestamp": "2016-08-29T16:06:02Z",
    "version": 3,
    "changeset": 41781235,
    "user": "André Silvestre",
    "uid": 3238913,
    "tags": {
      "addr:city": "Rio Maior",
      "addr:postcode": "2040-124",
      "addr:street": "Avenida dos Combatentes",
      "amenity": "restaurant",
      "name": "O Lusitano"
    }
  },
  {
    "type": "node",
    "id": 2657812648,
    "lat": 39.3826769,
    "lon": -8.9839706,
    "timestamp": "2014-02-06T17:10:40Z",
    "version": 1,
    "changeset": 20415462,
    "user": "Ulmi®",
    "uid": 37214,
    "tags": {
      "amenity": "restaurant",
      "name": "Casaleiro"
    }
  },
  {
    "type": "node",
    "id": 2657815625,
    "lat": 39.3640906,
    "lon": -8.9454579,
    "timestamp": "2014-02-06T17:13:07Z",
    "version": 1,
    "changeset": 20415513,
    "user": "Ulmi®",
    "uid": 37214,
    "tags": {
      "amenity": "restaurant",
      "name": "Taverna do Salineiro"
    }
  },
  {
    "type": "node",
    "id": 2726236089,
    "lat": 39.698312,
    "lon": -8.7949854,
    "timestamp": "2014-03-19T01:05:31Z",
    "version": 1,
    "changeset": 21184942,
    "user": "Luis Marcelino",
    "uid": 1516145,
    "tags": {
      "amenity": "restaurant"
    }
  },
  {
    "type": "node",
    "id": 2726236090,
    "lat": 39.6984032,
    "lon": -8.7954636,
    "timestamp": "2015-08-12T09:53:41Z",
    "version": 3,
    "changeset": 33287233,
    "user": "RomainDC",
    "uid": 363489,
    "tags": {
      "amenity": "restaurant",
      "email": "restaurantejota@ymail.com",
      "name": "Jota",
      "opening_hours": "Mo off; Tu-Sa 12:00-14:30,19:00-22:00; Su 12:00-15:00,19:00-21:00",
      "phone": "+351 244891655",
      "smoking": "no",
      "source": "http://restaurantejota.pai.pt/",
      "website": "http://restaurantejota.pai.pt/"
    }
  },
  {
    "type": "node",
    "id": 2735058089,
    "lat": 39.2548347,
    "lon": -8.7139022,
    "timestamp": "2014-03-22T22:00:07Z",
    "version": 1,
    "changeset": 21253805,
    "user": "Gondsm",
    "uid": 1989036,
    "tags": {
      "amenity": "restaurant",
      "cuisine": "sandwich",
      "name": "Roulotte Bar"
    }
  },
  {
    "type": "node",
    "id": 2735509782,
    "lat": 39.7391783,
    "lon": -8.7739016,
    "timestamp": "2014-03-23T01:07:33Z",
    "version": 1,
    "changeset": 21256051,
    "user": "Vitor Tavares",
    "uid": 1954565,
    "tags": {
      "amenity": "restaurant"
    }
  },