[
  {
    "type": "node",
    "id": 26065697,
    "lat": 40.428732,
    "lon": -3.7020018,
    "timestamp": "2024-02-14T11:48:12Z",
    "version": 10,
    "changeset": 147447403,
    "user": "kapazao_import",
    "uid": 8770019,
    "tags": {
      "addr:city": "Madrid",
      "addr:housenumber": "7",
      "addr:postcode": "28004",
      "addr:street": "Glorieta de Bilbao",
      "amenity": "restaurant",
      "email": "info@cafecomercialmadrid.com",
      "name": "Café Comercial",
      "opening_hours": "Mo-Th 08:30-01:00; Fr-Su 08:30-02:00",
      "phone": "+34 910 88 25 25",
      "website": "http://cafecomercialmadrid.com/",
      "wikidata": "Q5017237",
      "wikipedia": "es:Café Comercial"
    }
  },
  {
    "type": "node",
    "id": 26065699,
    "lat": 40.4270276,
    "lon": -3.7016997,
    "timestamp": "2024-08-06T20:12:35Z",
    "version": 8,
    "changeset": 154908738,
    "user": "Bustikiller",
    "uid": 20600467,
    "tags": {
      "addr:city": "Madrid",
      "addr:housenumber": "95",
      "addr:postcode": "28004",
      "addr:street": "Calle de Fuencarral",
      "amenity": "restaurant",
      "branch": "Fuencarral",
      "brand": "Honest Greens",
      "brand:wikidata": "Q116859710",
      "diet:gluten_free": "yes",
      "diet:healthy": "yes",
      "diet:vegan": "yes",
      "diet:vegetarian": "yes",
      "name": "Honest Greens",
      "old_name": "Sidrería la Camocha",
      "opening_hours": "Mo-Th 08:30-23:00, Fr 08:30-24:00, Sa 09:30-24:00, Su,PH 09:30-23:00",
      "website": "https://honestgreens.com/",
      "wheelchair": "no",
      "wheelchair:description": "Escalón alto, puerta que abre hacia fuera."
    }
  },
  {
    "type": "node",
    "id": 26808568,
    "lat": 40.4257656,
    "lon": -3.7120898,
    "timestamp": "2023-09-27T10:48:48Z",
    "version": 10,
    "changeset": 141813362,
    "user": "Graeme Herbert",
    "uid": 526776,
    "tags": {
      "addr:city": "Madrid",
      "addr:housenumber": "2",
      "addr:postcode": "28015",
      "addr:street": "Plaza de Cristino Martos",
      "amenity": "restaurant",
      "check_date": "2023-09-26",
      "contact:facebook": "https://es-es.facebook.com/parrillanino/",
      "contact:phone": "+34 915 59 60 11",
      "name": "La Parrilla de Nino",
      "outdoor_seating": "yes",
      "wheelchair": "limited"
    }
  },
  {
    "type": "node",
    "id": 26808571,
    "lat": 40.42514,
    "lon": -3.7118533,
    "timestamp": "2024-11-30T17:13:37Z",
    "version": 13,
    "changeset": 159781352,
    "user": "Etzharai",
    "uid": 3771138,
    "tags": {
      "addr:city": "Madrid",
      "addr:housenumber": "6",
      "addr:postcode": "28015",
      "addr:street": "Calle del Duque de Osuna",
      "air_conditioning": "yes",
      "amenity": "restaurant",
      "check_date": "2024-11-30",
      "check_date:diet:vegan": "2024-11-30",
      "check_date:diet:vegetarian": "2024-11-30",
      "check_date:smoking": "2024-11-30",
      "contact:phone": "+34 917 377 090",
      "contact:website": "https://www.restaurantetajmahal.es/",
      "cuisine": "indian",
      "diet:vegan": "yes",
      "diet:vegetarian": "yes",
      "indoor_seating": "yes",
      "name": "Taj Mahal",
      "name:en": "Taj Mahal",
      "name:es": "Taj Mahal",
      "outdoor_seating": "yes",
      "payment:credit_cards": "yes",
      "payment:debit_cards": "yes",
      "smoking": "outside",
      "takeaway": "yes",
      "wheelchair": "no"
    }
  },
  {
    "type": "node",
    "id": 27505289,
    "lat": 40.426008,
    "lon": -3.7115084,
    "timestamp": "2023-10-08T16:17:37Z",
    "version": 8,
    "changeset": 142311809,
    "user": "sanchi",
    "uid": 170106,
    "tags": {
      "addr:city": "Madrid",
      "addr:postcode": "28015",
      "addr:street": "Calle del Conde Duque",
      "amenity": "restaurant",
      "check_date": "2023-09-26",
      "cuisine": "regional",
      "email": "info@lapomarada.es",
      "name": "La Pomarada",
      "old_name": "Restaurante El Alberche",
      "phone": "+34 915 482 792",
      "source": "survey",
      "website": "https://lapomarada.es/",
      "wheelchair": "no"
    }
  },
  {
    "type": "node",
    "id": 27507931,
    "lat": 40.4252476,
    "lon": -3.6963836,
    "timestamp": "2019-01-16T21:04:24Z",
    "version": 5,
    "changeset": 66375877,
    "user": "vohokudul",
    "uid": 9211483,
    "tags": {
      "addr:city": "Madrid",
      "addr:housenumber": "6",
      "addr:postcode": "28004",
      "addr:street": "Calle de Fernando VI",
      "amenity": "restaurant",
      "contact:phone": "+34 608566104",
      "contact:website": "http://thesexto.com/",
      "name": "Sexto",
      "old_name": "Speakeasy"
    }
  },
  {
    "type": "node",
    "id": 27728064,
    "lat": 40.4162327,
    "lon": -3.7088498,
    "timestamp": "2019-06-17T21:06:37Z",
    "version": 9,
    "changeset": 71344128,
    "user": "blno",
    "uid": 1883762,
    "tags": {
      "addr:city": "Madrid",
      "addr:housenumber": "3",
      "addr:postcode": "28013",
      "addr:street": "Plaza del Comandante Las Morenas",
      "amenity": "restaurant",
      "contact:website": "http://www.brasaylena.com/#",
      "name": "Brasa y Leña",
      "old_name": "Colonia del Sacramento",
      "old_name_1": "Por Una Cabeza"
    }
  },
  {
    "type": "node",
    "id": 27792111,
    "lat": 40.4136118,
    "lon": -3.7087304,
    "timestamp": "2024-11-28T08:22:23Z",
    "version": 6,
    "changeset": 159690375,
    "user": "AlvaroRC",
    "uid": 3538570,
    "tags": {
      "amenity": "restaurant",
      "brand": "100 Montaditos",
      "brand:wikidata": "Q8355805",
      "cuisine": "sandwich",
      "name": "100 Montaditos"
    }
  },
  {
    "type": "node",
    "id": 47215976,
    "lat": 40.4116487,
    "lon": -3.7101786,
    "timestamp": "2024-12-04T09:25:21Z",
    "version": 9,
    "changeset": 159910698,
    "user": "wheelmap_visitor",
    "uid": 290680,
    "tags": {
      "addr:city": "Madrid",
      "addr:country": "ES",
      "addr:housenumber": "11",
      "addr:postcode": "28005",
      "addr:street": "Plaza de la Cebada",
      "amenity": "restaurant",
      "name": "El Viajero",
      "website": "http://www.elviajeromadrid.com/",
      "wheelchair": "no"
    }
  },
  {
    "type": "node",
    "id": 47216026,
    "lat": 40.412068,
    "lon": -3.7105933,
    "timestamp": "2020-01-07T03:27:01Z",
    "version": 4,
    "changeset": 79272896,
    "user": "mor",
    "uid": 220932,
    "tags": {
      "amenity": "restaurant",
      "name": "Que trabaje Rita",
      "old_name": "Tapasentao"
    }
  },
  {
    "type": "node",
    "id": 47216126,
    "lat": 40.4131593,
    "lon": -3.7117469,
    "timestamp": "2024-12-04T09:33:40Z",
    "version": 5,
    "changeset": 159911048,
    "user": "wheelmap_visitor",
    "uid": 290680,
    "tags": {
      "addr:city": "Madrid",
      "addr:housenumber": "8",
      "addr:postcode": "28005",
      "addr:street": "Costanilla de San Andrés",
      "amenity": "restaurant",
      "contact:website": "http://tiotimon.com/",
      "cuisine": "regional",
      "name": "Tío Timón",
      "old_name": "Taberna Bilbao",
      "outdoor_seating": "yes",
      "wheelchair": "limited"
    }
  },
  {
    "type": "node",
    "id": 47216198,
    "lat": 40.4137154,
    "lon": -3.7127335,
    "timestamp": "2014-03-02T11:02:50Z",
    "version": 3,
    "changeset": 20862022,
    "user": "Graeme Herbert",
    "uid": 526776,
    "tags": {
      "amenity": "restaurant",
      "name": "Taquería del Alamillo"
    }
  },
  {
    "type": "node",
    "id": 143097960,
    "lat": 40.485413,
    "lon": -3.6852544,
    "timestamp": "2016-06-12T21:15:24Z",
    "version": 2,
    "changeset": 39979913,
    "user": "mor",
    "uid": 220932,
    "tags": {
      "amenity": "restaurant",
      "name": "Casa Ginés"
    }
  },
  {
    "type": "node",
    "id": 143098013,
    "lat": 40.4857882,
    "lon": -3.6926733,
    "timestamp": "2023-12-10T14:52:56Z",
    "version": 8,
    "changeset": 144967300,
    "user": "Barrunterio",
    "uid": 17808034,
    "tags": {
      "amenity": "restaurant",
      "indoor_seating": "yes",
      "name": "Mesón Gallego",
      "outdoor_seating": "yes",
      "wheelchair": "limited"
    }
  },
  {
    "type": "node",
    "id": 143098015,
    "lat": 40.4855645,
    "lon": -3.6920333,
    "timestamp": "2023-12-10T14:52:53Z",
    "version": 11,
    "changeset": 144967316,
    "user": "Barrunterio",
    "uid": 17808034,
    "tags": {
      "addr:city": "Madrid",
      "addr:country": "ES",
      "addr:housenumber": "34",
      "addr:postcode": "28034",
      "addr:street": "Calle de San Modesto",
      "air_conditioning": "yes",
      "amenity": "restaurant",
      "cuisine": "burger",
      "email": "info@queenburgergourmet.com",
      "indoor_seating": "yes",
      "name": "Queen Burger Gourmet",
      "opening_hours": "Mo-Su 00:00-02:00,11:00-24:00",
      "outdoor_seating": "yes",
      "phone": "+34 913 580 542",
      "website": "https://queenburgergourmet.com/restaurantes-queen-burger-madrid/"
    }
  },
  {
    "type": "node",
    "id": 143098017,
    "lat": 40.4862924,
    "lon": -3.6924531,
    "timestamp": "2007-12-02T15:22:47Z",
    "version": 3,
    "changeset": 41370,
    "user": "eSe",
    "uid": 13091,
    "tags": {
      "amenity": "restaurant",
      "created_by": "Potlatch 0.5d",
      "name": "tele-bocata"
    }
  },
  {
    "type": "node",
    "id": 143098032,
    "lat": 40.4843585,
    "lon": -3.6868649,
    "timestamp": "2007-12-02T13:15:55Z",
    "version": 2,
    "changeset": 35046,
    "user": "eSe",
    "uid": 13091,
    "tags": {
      "amenity": "restaurant",
      "created_by": "Potlatch 0.5d"
    }
  },
  {
    "type": "node",
    "id": 143098039,
    "lat": 40.4844368,
    "lon": -3.6870451,
    "timestamp": "2007-12-02T13:15:56Z",
    "version": 2,
    "changeset": 35046,
    "user": "eSe",
    "uid": 13091,
    "tags": {
      "amenity": "restaurant",
      "created_by": "Potlatch 0.5d"
    }
  },
  {
    "type": "node",
    "id": 143098102,
    "lat": 40.485544,
    "lon": -3.6895993,
    "timestamp": "2023-11-18T17:10:27Z",
    "version": 3,
    "changeset": 144183171,
    "user": "Barrunterio",
    "uid": 17808034,
    "tags": {
      "amenity": "restaurant",
      "created_by": "JOSM",
      "indoor_seating": "yes",
      "name": "Casa Mouriño",
      "outdoor_seating": "no"
    }
  },
  {
    "type": "node",
    "id": 143098181,
    "lat": 40.4849065,
    "lon": -3.68482,
    "timestamp": "2022-05-20T20:10:08Z",
    "version": 3,
    "changeset": 121259602,
    "user": "ielham",
    "uid": 462218,
    "tags": {
      "amenity": "restaurant",
      "name": "Tapería de Fuencarral"
    }
  },
  {
    "type": "node",
    "id": 150760857,
    "lat": 40.4468248,
    "lon": -3.714308,
    "timestamp": "2021-01-24T11:04:17Z",
    "version": 5,
    "changeset": 98052152,
    "user": "rustypotato",
    "uid": 12513377,
    "tags": {
      "amenity": "restaurant",
      "name": "Taberna la Tortuga"
    }
  },
  {
    "type": "node",
    "id": 151223394,
    "lat": 40.4868023,
    "lon": -3.6892489,
    "timestamp": "2023-12-08T20:08:45Z",
    "version": 4,
    "changeset": 144916399,
    "user": "Barrunterio",
    "uid": 17808034,
    "tags": {
      "amenity": "restaurant",
      "cuisine": "equatorian",
      "indoor_seating": "yes",
      "name": "Restaurante otavaleño",
      "outdoor_seating": "no"
    }
  },
  {
    "type": "node",
    "id": 151223419,
    "lat": 40.4854963,
    "lon": -3.6895029,
    "timestamp": "2023-11-18T17:10:26Z",
    "version": 3,
    "changeset": 144183171,
    "user": "Barrunterio",
    "uid": 17808034,
    "tags": {
      "amenity": "restaurant",
      "created_by": "JOSM",
      "indoor_seating": "yes",
      "name": "Restaurante Fereva",
      "outdoor_seating": "yes"
    }
  },
  {
    "type": "node",
    "id": 160739518,
    "lat": 40.4486523,
    "lon": -3.7297735,
    "timestamp": "2025-02-26T13:35:27Z",
    "version": 7,
    "changeset": 162972211,
    "user": "Etzharai",
    "uid": 3771138,
    "tags": {
      "amenity": "restaurant",
      "diet:vegan": "yes",
      "diet:vegetarian": "yes",
      "indoor_seating": "yes",
      "name": "Cafetería Filosofía",
      "outdoor_seating": "yes",
      "smoking": "outside",
      "wheelchair": "limited"
    }
  },
  {
    "type": "node",
    "id": 167301973,
    "lat": 40.4115676,
    "lon": -3.6978097,
    "timestamp": "2017-03-18T21:24:26Z",
    "version": 3,
    "changeset": 46966732,
    "user": "mor",
    "uid": 220932,
    "tags": {
      "amenity": "restaurant",
      "name": "Fuente de la Fama",
      "website": "http://www.restaurantefuentedelafama.com/es/"
    }
  },
  {
    "type": "node",
    "id": 167302052,
    "lat": 40.4112109,
    "lon": -3.69567,
    "timestamp": "2024-12-18T10:26:19Z",
    "version": 5,
    "changeset": 160343712,
    "user": "Graeme Herbert",
    "uid": 526776,
    "tags": {
      "addr:housenumber": "20",
      "addr:street": "Calle de Fúcar",
      "amenity": "restaurant",
      "check_date": "2024-12-18",
      "name": "A Cañada",
      "survey:date": "2022-07-23",
      "wheelchair": "no"
    }
  },
  {
    "type": "node",
    "id": 167302123,
    "lat": 40.412427,
    "lon": -3.6963071,
    "timestamp": "2016-01-31T20:50:40Z",
    "version": 4,
    "changeset": 36925645,
    "user": "mor",
    "uid": 220932,
    "tags": {
      "amenity": "restaurant",
      "name": "Arrocería Gala",
      "wheelchair": "no"
    }
  },
  {
    "type": "node",
    "id": 167302180,
    "lat": 40.4122937,
    "lon": -3.6939658,
    "timestamp": "2023-11-10T13:28:55Z",
    "version": 7,
    "changeset": 143863474,
    "user": "b-jazz-bot",
    "uid": 9451067,
    "tags": {
      "addr:city": "Madrid",
      "addr:housenumber": "4",
      "addr:postcode": "28014",
      "addr:street": "Calle de la Alameda",
      "amenity": "restaurant",
      "cuisine": "spanish",
      "diet:vegan": "yes",
      "diet:vegetarian": "only",
      "name": "El Fogón Verde",
      "old_name": "Las 4 Fuentes",
      "website": "https://elfogonverde.net/"
    }
  },
  {
    "type": "node",
    "id": 167302521,
    "lat": 40.4125537,
    "lon": -3.6951865,
    "timestamp": "2025-02-13T19:48:46Z",
    "version": 8,
    "changeset": 162479155,
    "user": "paulbrunner",
    "uid": 15541433,
    "tags": {
      "addr:city": "Madrid",
      "addr:housenumber": "40",
      "addr:postcode": "28014",
      "addr:street": "Calle de Moratín",
      "amenity": "restaurant",
      "check_date": "2025-02-13",
      "name": "Moratin 40",
      "old_name": "La Fetén",
      "wheelchair": "no"
    }
  },
  {
    "type": "node",
    "id": 167302661,
    "lat": 40.4134319,
    "lon": -3.6957085,
    "timestamp": "2016-01-29T21:04:12Z",
    "version": 3,
    "changeset": 36887852,
    "user": "mor",
    "uid": 220932,
    "tags": {
      "amenity": "restaurant",
      "name": "El Rábano"
    }
  },
  {
    "type": "node",
    "id": 167302675,
    "lat": 40.4136237,
    "lon": -3.6960696,
    "timestamp": "2024-10-11T09:39:53Z",
    "version": 6,
    "changeset": 157748696,
    "user": "Graeme Herbert",
    "uid": 526776,
    "tags": {
      "addr:city": "Madrid",
      "addr:country": "ES",
      "addr:housenumber": "32",
      "addr:postcode": "28014",
      "addr:street": "Calle de Lope de Vega",
      "amenity": "restaurant",
      "check_date": "2024-10-11",
      "cuisine": "regional",
      "email": "restaurante@terramundi.net",
      "name": "Terra Mundi",
      "phone": "+34 914295280;+34 914296380",
      "website": "https://terramundi.net/",
      "wheelchair": "no"
    }
  },
  {
    "type": "node",
    "id": 167302888,
    "lat": 40.4169233,
    "lon": -3.6966322,
    "timestamp": "2023-01-22T17:04:22Z",
    "version": 4,
    "changeset": 131572721,
    "user": "wheelmap_visitor",
    "uid": 290680,
    "tags": {
      "amenity": "restaurant",
      "name": "Edelweiss",
      "source": "survey",
      "toilets:wheelchair": "no",
      "wheelchair": "yes"
    }
  },
  {
    "type": "node",
    "id": 167302891,
    "lat": 40.4171806,
    "lon": -3.6965924,
    "timestamp": "2015-06-15T21:03:27Z",
    "version": 3,
    "changeset": 31993437,
    "user": "gpesquero",
    "uid": 3584,
    "tags": {
      "amenity": "restaurant",
      "name": "El Secreto de Castilla",
      "source": "survey"
    }
  },
  {
    "type": "node",
    "id": 167302905,
    "lat": 40.4173325,
    "lon": -3.6966034,
    "timestamp": "2024-07-19T19:20:45Z",
    "version": 5,
    "changeset": 154156060,
    "user": "b-jazz-bot",
    "uid": 9451067,
    "tags": {
      "addr:housenumber": "3",
      "addr:postcode": "28014",
      "addr:street": "Calle de Jovellanos",
      "amenity": "restaurant",
      "email": "reservas@sagardi.com",
      "name": "Sagardi",
      "phone": "+34 91 531 2564",
      "source": "survey",
      "website": "https://sagardi.com/"
    }
  },
  {
    "type": "node",
    "id": 167302928,
    "lat": 40.416822,
    "lon": -3.6971908,
    "timestamp": "2023-02-08T17:10:08Z",
    "version": 3,
    "changeset": 132266979,
    "user": "Kristjan ESPERANTO",
    "uid": 77904,
    "tags": {
      "amenity": "restaurant",
      "diet:vegetarian": "only",
      "fixme": "Google claims this place is permanently closed. Can someone confirm that?",
      "name": "Vegetariano"
    }
  },
  {
    "type": "node",
    "id": 170951688,
    "lat": 40.4040925,
    "lon": -3.7009208,
    "timestamp": "2023-10-16T15:07:20Z",
    "version": 4,
    "changeset": 142670287,
    "user": "Martitasea",
    "uid": 4141553,
    "tags": {
      "amenity": "restaurant",
      "check_date": "2023-10-16",
      "cuisine": "regional",
      "name": "Uskar"
    }
  },
  {
    "type": "node",
    "id": 170951714,
    "lat": 40.4047549,
    "lon": -3.7014847,
    "timestamp": "2015-01-04T18:53:48Z",
    "version": 2,
    "changeset": 27917312,
    "user": "Iván_",
    "uid": 1773299,
    "tags": {
      "amenity": "restaurant",
      "name": "A Cañada"
    }
  },
  {
    "type": "node",
    "id": 170951928,
    "lat": 40.4037373,
    "lon": -3.6995978,
    "timestamp": "2024-02-19T21:20:06Z",
    "version": 7,
    "changeset": 147668557,
    "user": "5R-MFT",
    "uid": 3417876,
    "tags": {
      "addr:city": "Madrid",
      "addr:country": "ES",
      "addr:housenumber": "6",
      "addr:postcode": "28012",
      "addr:street": "Calle de Sebastián Herrera",
      "amenity": "restaurant",
      "check_date": "2023-10-03",
      "cuisine": "spanish",
      "name": "El Valle",
      "outdoor_seating": "yes",
      "phone": "+34 957 50 19 74",
      "website": "https://restauranteelvalle.es"
    }
  },
  {
    "type": "node",
    "id": 170952060,
    "lat": 40.4049362,
    "lon": -3.6986721,
    "timestamp": "2023-10-16T17:04:48Z",
    "version": 5,
    "changeset": 142675651,
    "user": "Martitasea",
    "uid": 4141553,
    "tags": {
      "amenity": "restaurant",
      "name": "Tia Julia"
    }
  },
  {
    "type": "node",
    "id": 170952439,
    "lat": 40.4051914,
    "lon": -3.6973199,
    "timestamp": "2024-01-16T22:27:32Z",
    "version": 3,
    "changeset": 146340896,
    "user": "Iván_",
    "uid": 1773299,
    "tags": {
      "addr:city": "Madrid",
      "addr:country": "ES",
      "addr:housenumber": "12",
      "addr:postcode": "28012",
      "addr:street": "Calle de José Antonio Armona",
      "amenity": "restaurant",
      "cuisine": "ramen",
      "name": "Ramen Kagura",
      "phone": "+34915278058",
      "source": "survey",
      "website": "https://www.ramenkagura.com/es/atocha/"
    }
  },
  {
    "type": "node",
    "id": 170992698,
    "lat": 40.4038286,
    "lon": -3.6964406,
    "timestamp": "2025-04-23T10:04:10Z",
    "version": 3,
    "changeset": 165324626,
    "user": "wtrdrnkr",
    "uid": 6327070,
    "tags": {
      "addr:city": "Madrid",
      "addr:housenumber": "35",
      "addr:postcode": "28045",
      "addr:street": "P.º de Sta. María de la Cabeza",
      "amenity": "restaurant",
      "check_date": "2025-04-23",
      "cuisine": "burger",
      "currency:XBT": "yes",
      "name": "Mama Teresa Burger",
      "payment:lightning": "yes",
      "payment:lightning_contactless": "yes",
      "payment:onchain": "yes",
      "survey:date": "2025-04-23"
    }
  },
  {
    "type": "node",
    "id": 170992709,
    "lat": 40.4050712,
    "lon": -3.6952969,
    "timestamp": "2024-08-27T05:40:47Z",
    "version": 5,
    "changeset": 155811369,
    "user": "_Atlas_",
    "uid": 1308756,
    "tags": {
      "addr:city": "Madrid",
      "addr:housenumber": "27",
      "addr:postcode": "28045",
      "addr:street": "Paseo de Santa María de la Cabeza",
      "amenity": "restaurant",
      "cuisine": "indian",
      "email": "atochatandoori27@gmail.com",
      "name": "Atocha Tandoori",
      "opening_hours": "Mo-Su 12:30-17:00, 19:30-00:00",
      "outdoor_seating": "no",
      "phone": "+34609060283;+34911386610",
      "website": "https://atochatandoori.es"
    }
  },
  {
    "type": "node",
    "id": 178820924,
    "lat": 40.4152606,
    "lon": -3.7115508,
    "timestamp": "2019-06-17T21:06:37Z",
    "version": 3,
    "changeset": 71344128,
    "user": "blno",
    "uid": 1883762,
    "tags": {
      "addr:city": "Madrid",
      "addr:housenumber": "73",
      "addr:postcode": "28013",
      "addr:street": "Calle Mayor",
      "amenity": "restaurant",
      "contact:email": "info@restaurantearcade.es",
      "contact:phone": "+34 91 431 40 83",
      "contact:website": "http://www.restaurantearcade.es/",
      "cuisine": "regional",
      "name": "Arcade"
    }
  },
  {
    "type": "node",
    "id": 178820939,
    "lat": 40.4156653,
    "lon": -3.7102121,
    "timestamp": "2024-11-30T08:29:07Z",
    "version": 5,
    "changeset": 159765680,
    "user": "AlvaroRC",
    "uid": 3538570,
    "tags": {
      "addr:city": "Madrid",
      "addr:housenumber": "68",
      "addr:postcode": "28013",
      "addr:street": "Calle Mayor",
      "amenity": "restaurant",
      "check_date": "2023-09-01",
      "contact:phone": "+34 915476715",
      "contact:website": "https://cerveceriacruzblanca.es/local/cervecer%C3%ADa-cruz-blanca-madrid-mayor",
      "name": "Cruz Blanca",
      "wheelchair": "no"
    }
  },
  {
    "type": "node",
    "id": 178820945,
    "lat": 40.4155515,
    "lon": -3.7099687,
    "timestamp": "2024-12-22T20:03:39Z",
    "version": 4,
    "changeset": 160514057,
    "user": "Tonushka",
    "uid": 3419975,
    "tags": {
      "amenity": "restaurant",
      "contact:phone": "+34 643 98 70 36",
      "cuisine": "chinese",
      "name": "Jiao Jiao",
      "name:zh": "饺饺者"
    }
  },
  {
    "type": "node",
    "id": 178820965,
    "lat": 40.4153729,
    "lon": -3.7094547,
    "timestamp": "2015-07-06T08:49:23Z",
    "version": 2,
    "changeset": 32443014,
    "user": "polkillas",
    "uid": 42055,
    "tags": {
      "amenity": "restaurant",
      "contact:phone": "+34917589339",
      "name": "Taste Gallery"
    }
  },
  {
    "type": "node",
    "id": 178821005,
    "lat": 40.4163669,
    "lon": -3.7104348,
    "timestamp": "2024-11-20T08:48:31Z",
    "version": 5,
    "changeset": 159355844,
    "user": "Etzharai",
    "uid": 3771138,
    "tags": {
      "addr:city": "Madrid",
      "addr:housenumber": "9",
      "addr:postcode": "28013",
      "addr:street": "Calle de Santiago",
      "amenity": "restaurant",
      "contact:phone": "+34 91 542 21 60",
      "contact:website": "http://www.restaurantetaberneros.es/",
      "name": "Taberneros"
    }
  },
  {
    "type": "node",
    "id": 178821006,
    "lat": 40.4164826,
    "lon": -3.7106873,
    "timestamp": "2017-04-10T02:24:53Z",
    "version": 4,
    "changeset": 47607819,
    "user": "mor",
    "uid": 220932,
    "tags": {
      "addr:city": "Madrid",
      "addr:housenumber": "11",
      "addr:postcode": "28013",
      "addr:street": "Calle de Santiago",
      "amenity": "restaurant",
      "contact:facebook": "https://es-es.facebook.com/arbonaidabar/",
      "contact:phone": "+34 639 50 00 68",
      "name": "Arbonaida",
      "old_name": "El Gato Cañí"
    }
  },
  {
    "type": "node",
    "id": 178821207,
    "lat": 40.4161161,
    "lon": -3.7075072,
    "timestamp": "2017-06-05T01:14:18Z",
    "version": 4,
    "changeset": 49254450,
    "user": "mor",
    "uid": 220932,
    "tags": {
      "amenity": "restaurant",
      "name": "Grazie Mille"
    }
  },
  {
    "type": "node",
    "id": 184049060,
    "lat": 40.4186369,
    "lon": -3.7090308,
    "timestamp": "2023-11-10T13:36:28Z",
    "version": 8,
    "changeset": 143863878,
    "user": "b-jazz-bot",
    "uid": 9451067,
    "tags": {
      "addr:city": "Madrid",
      "addr:housenumber": "3",
      "addr:postcode": "28013",
      "addr:street": "Calle de Caños del Peral",
      "amenity": "restaurant",
      "contact:phone": "+34 915 420 644",
      "cuisine": "mexican",
      "name": "Entre suspiro y suspiro",
      "source": "survey",
      "website": "https://www.entresuspiroysuspiro.com/"
    }
  },
  {
    "type": "node",
    "id": 184049103,
    "lat": 40.4185506,
    "lon": -3.7089327,
    "timestamp": "2020-09-21T10:57:26Z",
    "version": 6,
    "changeset": 91223712,
    "user": "sanchi",
    "uid": 170106,
    "tags": {
      "addr:city": "Madrid",
      "addr:housenumber": "2",
      "addr:postcode": "28013",
      "addr:street": "Calle de Caños del Peral",
      "amenity": "restaurant",
      "contact:phone": "+34 918 313 489",
      "contact:website": "http://www.grupandilana.com/opera-victoria/",
      "name": "Ópera Victoria",
      "old_name": "La Vaca Argentina"
    }
  },
  {
    "type": "node",
    "id": 184049146,
    "lat": 40.4195999,
    "lon": -3.7077336,
    "timestamp": "2024-12-06T20:11:08Z",
    "version": 4,
    "changeset": 160007776,
    "user": "AlvaroRC",
    "uid": 3538570,
    "tags": {
      "addr:city": "Madrid",
      "addr:housenumber": "9",
      "addr:postcode": "28013",
      "addr:street": "Calle de las Veneras",
      "amenity": "restaurant",
      "cuisine": "chinese",
      "name": "Wok King"
    }
  },
  {
    "type": "node",
    "id": 184049159,
    "lat": 40.4186643,
    "lon": -3.7082433,
    "timestamp": "2021-03-02T22:54:04Z",
    "version": 9,
    "changeset": 100307410,
    "user": "Iván_",
    "uid": 1773299,
    "tags": {
      "addr:city": "Madrid",
      "addr:housenumber": "8",
      "addr:postcode": "28013",
      "addr:street": "Costanilla de los Ángeles",
      "amenity": "restaurant",
      "name": "Taberna de los Ángeles"
    }
  },
  {
    "type": "node",
    "id": 184049171,
    "lat": 40.4196449,
    "lon": -3.7070086,
    "timestamp": "2024-04-28T12:25:49Z",
    "version": 9,
    "changeset": 150616206,
    "user": "Creando",
    "uid": 132740,
    "tags": {
      "addr:city": "Madrid",
      "addr:housenumber": "33",
      "addr:postcode": "28013",
      "addr:street": "Calle Preciados",
      "amenity": "restaurant",
      "cuisine": "crepes",
      "name": "Prep‘ la Crêpe",
      "old_name": "Lizarrán",
      "outdoor_seating": "yes",
      "website": "https://www.preplacrepe.com",
      "wheelchair": "limited"
    }
  },
  {
    "type": "node",
    "id": 184049293,
    "lat": 40.418183,
    "lon": -3.7031236,
    "timestamp": "2020-11-08T22:05:37Z",
    "version": 5,
    "changeset": 93758572,
    "user": "Iván_",
    "uid": 1773299,
    "tags": {
      "addr:city": "Madrid",
      "addr:housenumber": "34",
      "addr:postcode": "28013",
      "addr:street": "Calle de Tetuán",
      "amenity": "restaurant",
      "contact:phone": "+34 915 22 47 93",
      "contact:website": "http://parrillaelgaucho.es/",
      "name": "El Gaucho"
    }
  },
  {
    "type": "node",
    "id": 184049330,
    "lat": 40.419207,
    "lon": -3.7029076,
    "timestamp": "2019-06-17T20:17:48Z",
    "version": 6,
    "changeset": 71342915,
    "user": "blno",
    "uid": 1883762,
    "tags": {
      "addr:housenumber": "4",
      "addr:postcode": "28013",
      "addr:street": "Calle de las Tres Cruces",
      "amenity": "restaurant",
      "contact:website": "https://restaurantevegetarianosolgranvia.com/",
      "diet:gluten_free": "only",
      "diet:vegetarian": "only",
      "name": "Artemisa",
      "reservation": "yes"
    }
  },
  {
    "type": "node",
    "id": 184049370,
    "lat": 40.418948,
    "lon": -3.7037389,
    "timestamp": "2019-06-17T20:17:48Z",
    "version": 6,
    "changeset": 71342915,
    "user": "blno",
    "uid": 1883762,
    "tags": {
      "addr:city": "Madrid",
      "addr:housenumber": "2",
      "addr:postcode": "28013",
      "addr:street": "Calle Abada",
      "amenity": "restaurant",
      "contact:facebook": "https://es-es.facebook.com/takosalpastormadrid",
      "contact:phone": "+34 680 24 72 17",
      "cuisine": "mexican",
      "name": "Takos Al Pastor",
      "opening_hours": "13:30-00:00; Mo off"
    }
  },
  {
    "type": "node",
    "id": 184049552,
    "lat": 40.4205737,
    "lon": -3.7068314,
    "timestamp": "2021-01-13T23:58:16Z",
    "version": 10,
    "changeset": 97468560,
    "user": "Iván_",
    "uid": 1773299,
    "tags": {
      "addr:city": "Madrid",
      "addr:housenumber": "43",
      "addr:postcode": "28013",
      "addr:street": "Gran Vía",
      "amenity": "restaurant",
      "brand": "Ginos",
      "brand:wikidata": "Q98503664",
      "cuisine": "italian",
      "name": "Ginos",
      "old_name": "VIPS"
    }
  },
  {
    "type": "node",
    "id": 244755792,
    "lat": 40.4102862,
    "lon": -3.7008582,
    "timestamp": "2008-02-02T01:32:26Z",
    "version": 1,
    "changeset": 11621,
    "user": "ivansanchez",
    "uid": 5265,
    "tags": {
      "amenity": "restaurant",
      "created_by": "JOSM",
      "name": "Preity Raj",
      "note": "Restaurante Hindú"
    }
  },
  {
    "type": "node",
    "id": 244757864,
    "lat": 40.4109653,
    "lon": -3.7004479,
    "timestamp": "2017-04-14T22:43:52Z",
    "version": 2,
    "changeset": 47798763,
    "user": "mor",
    "uid": 220932,
    "tags": {
      "addr:city": "Madrid",
      "addr:housenumber": "17",
      "addr:postcode": "28012",
      "addr:street": "Calle del Ave María",
      "amenity": "restaurant",
      "contact:website": "http://sidreriaacanada.com/",
      "cuisine": "regional",
      "name": "A Cañada",
      "old_name": "Bar Viriato"
    }
  },
  {
    "type": "node",
    "id": 244757871,
    "lat": 40.4111374,
    "lon": -3.700326,
    "timestamp": "2017-04-22T12:40:09Z",
    "version": 3,
    "changeset": 48031424,
    "user": "mor",
    "uid": 220932,
    "tags": {
      "addr:city": "Madrid",
      "addr:housenumber": "15",
      "addr:postcode": "28012",
      "addr:street": "Calle del Ave María",
      "amenity": "restaurant",
      "contact:website": "http://www.rajamahal.es/",
      "cuisine": "indian",
      "name": "Raja Mahal"
    }
  },
  {
    "type": "node",
    "id": 244757875,
    "lat": 40.4110886,
    "lon": -3.700589,
    "timestamp": "2017-04-22T12:40:09Z",
    "version": 3,
    "changeset": 48031424,
    "user": "mor",
    "uid": 220932,
    "tags": {
      "amenity": "restaurant",
      "name": "Moharaj",
      "old_name": "Rani Mahal"
    }
  },
  {
    "type": "node",
    "id": 244761676,
    "lat": 40.4108202,
    "lon": -3.7005322,
    "timestamp": "2025-02-14T12:18:23Z",
    "version": 5,
    "changeset": 162501175,
    "user": "paulbrunner",
    "uid": 15541433,
    "tags": {
      "addr:city": "Madrid",
      "addr:country": "ES",
      "addr:postcode": "28012",
      "addr:street": "Calle del Ave María",
      "amenity": "restaurant",
      "check_date": "2025-02-14",
      "cuisine": "pizza",
      "name": "Nap",
      "old_name": "SinPecado",
      "opening_hours": "Mo-Fr 13:00-16:30,20:00-21:00, Fr,Sa 13:00-01:00, Su 13:00-24:00",
      "wheelchair": "limited"
    }
  },
  {
    "type": "node",
    "id": 244761679,
    "lat": 40.4107264,
    "lon": -3.7008747,
    "timestamp": "2017-04-22T12:40:09Z",
    "version": 3,
    "changeset": 48031424,
    "user": "mor",
    "uid": 220932,
    "tags": {
      "amenity": "restaurant",
      "name": "Bombay Palace"
    }
  },
  {
    "type": "node",
    "id": 244761696,
    "lat": 40.4093708,
    "lon": -3.7009194,
    "timestamp": "2017-04-22T12:40:09Z",
    "version": 3,
    "changeset": 48031424,
    "user": "mor",
    "uid": 220932,
    "tags": {
      "amenity": "restaurant"
    }
  },
  {
    "type": "node",
    "id": 244766788,
    "lat": 40.4114924,
    "lon": -3.6994308,
    "timestamp": "2016-02-01T10:25:26Z",
    "version": 2,
    "changeset": 36933519,
    "user": "Graeme Herbert",
    "uid": 526776,
    "tags": {
      "addr:city": "Madrid",
      "addr:housenumber": "3",
      "addr:postcode": "28012",
      "addr:street": "Calle de la Torrecilla del Leal",
      "amenity": "restaurant",
      "contact:phone": "+34 915 28 25 42",
      "contact:website": "http://www.mesonobarquino.es/",
      "name": "O'Barquiño"
    }
  },
  {
    "type": "node",
    "id": 244766796,
    "lat": 40.4117492,
    "lon": -3.700322,
    "timestamp": "2022-04-01T20:07:02Z",
    "version": 5,
    "changeset": 119216170,
    "user": "Iván_",
    "uid": 1773299,
    "tags": {
      "addr:city": "Madrid",
      "addr:country": "ES",
      "addr:housenumber": "8",
      "addr:postcode": "28012",
      "addr:street": "Calle del Ave María",
      "amenity": "restaurant",
      "cuisine": "italian;creative",
      "name": "La Temeraria"
    }
  },
  {
    "type": "node",
    "id": 244767593,
    "lat": 40.4116655,
    "lon": -3.700364,
    "timestamp": "2025-02-19T15:23:34Z",
    "version": 5,
    "changeset": 162705669,
    "user": "juparras",
    "uid": 2959946,
    "tags": {
      "amenity": "restaurant",
      "name": "Taberna Garibaldi",
      "old_name": "Tetería Puerta de Damasco",
      "old_name:es": "El Dinosaurio"
    }
  },
  {
    "type": "node",
    "id": 251564793,
    "lat": 40.455063,
    "lon": -3.6226906,
    "timestamp": "2021-11-16T00:02:12Z",
    "version": 3,
    "changeset": 113829173,
    "user": "Cuenqui",
    "uid": 3649461,
    "tags": {
      "amenity": "restaurant",
      "brand": "Ginos",
      "brand:wikidata": "Q98503664",
      "cuisine": "italian",
      "name": "Ginos",
      "source": "local knowledge"
    }
  },
  {
    "type": "node",
    "id": 251564794,
    "lat": 40.4550377,
    "lon": -3.622496,
    "timestamp": "2008-03-10T22:23:52Z",
    "version": 1,
    "changeset": 300031,
    "user": "ivansanchez",
    "uid": 5265,
    "tags": {
      "amenity": "restaurant",
      "created_by": "JOSM",
      "name": "Wok",
      "source": "local knowledge"
    }
  },
  {
    "type": "node",
    "id": 251564795,
    "lat": 40.4549871,
    "lon": -3.6222587,
    "timestamp": "2020-10-07T14:10:55Z",
    "version": 2,
    "changeset": 92118029,
    "user": "ansuta",
    "uid": 3188422,
    "tags": {
      "amenity": "restaurant",
      "brand": "Vips",
      "brand:wikidata": "Q66087862",
      "created_by": "JOSM",
      "cuisine": "international",
      "name": "Vips",
      "source": "local knowledge"
    }
  },
  {
    "type": "node",
    "id": 251912322,
    "lat": 40.4367886,
    "lon": -3.6226101,
    "timestamp": "2023-07-02T17:13:19Z",
    "version": 6,
    "changeset": 138032136,
    "user": "Hugoren Martinako",
    "uid": 3392826,
    "tags": {
      "addr:housenumber": "47",
      "addr:postcode": "28037",
      "addr:street": "Calle de Julián Camarillo",
      "amenity": "restaurant",
      "cuisine": "international",
      "name": "Como Como Slow Food"
    }
  },
  {
    "type": "node",
    "id": 253414015,
    "lat": 40.7175029,
    "lon": -3.9201748,
    "timestamp": "2020-05-10T19:55:32Z",
    "version": 7,
    "changeset": 84984904,
    "user": "robertogeb",
    "uid": 491515,
    "tags": {
      "addr:city": "El Boalo",
      "addr:housenumber": "10",
      "addr:postcode": "28412",
      "addr:street": "Plaza de la Constitución",
      "amenity": "restaurant",
      "description": "Cocina casera y raciones. Terraza. Paellas para llevar. Especialidades: Paellas y cordero por encargo.",
      "name": "Los Reyes",
      "outdoor_seating": "yes",
      "phone": "+34 918 55 90 31"
    }
  },
  {
    "type": "node",
    "id": 253414088,
    "lat": 40.7174658,
    "lon": -3.9203127,
    "timestamp": "2020-05-10T19:55:32Z",
    "version": 7,
    "changeset": 84984904,
    "user": "robertogeb",
    "uid": 491515,
    "tags": {
      "addr:city": "El Boalo",
      "addr:housenumber": "7",
      "addr:postcode": "28413",
      "addr:street": "Plaza de la Constitución",
      "amenity": "restaurant",
      "description": "Cocina tradicional. Especialidad en asados en horno de leña y carnes rojas... Barra de Pinchos.",
      "name": "Asador don Baco",
      "outdoor_seating": "yes",
      "phone": "+34 918 55 94 16",
      "website": "http://www.asadorsierramadrid.com/"
    }
  },
  {
    "type": "node",
    "id": 253414098,
    "lat": 40.7174281,
    "lon": -3.9203733,
    "timestamp": "2024-10-29T09:58:54Z",
    "version": 9,
    "changeset": 158490007,
    "user": "kapazao_import",
    "uid": 8770019,
    "tags": {
      "addr:city": "El Boalo",
      "addr:housenumber": "4",
      "addr:postcode": "28413",
      "addr:street": "Plaza de la Constitución",
      "amenity": "restaurant",
      "contact:facebook": "https://www.facebook.com/pages/La-Venta-del-Boalo/148965915208750",
      "description": "En plena plaza de El Boalo se encuentra este rincón, donde poder tomar una cerveza con un buen pincho. Sus paellas hay que probarlas ya que todos los fines de semana es la especialidad para llevar",
      "name": "La Venta de El Boalo",
      "outdoor_seating": "yes",
      "phone": "+34 661 66 80 05"
    }
  },
  {
    "type": "node",
    "id": 253414106,
    "lat": 40.7173984,
    "lon": -3.920457,
    "timestamp": "2013-12-01T00:32:32Z",
    "version": 6,
    "changeset": 19203308,
    "user": "robertogeb",
    "uid": 491515,
    "tags": {
      "addr:city": "El Boalo",
      "addr:housenumber": "9",
      "addr:postcode": "28413",
      "addr:street": "Plaza de la Constitución",
      "amenity": "restaurant",
      "description": "Cocina Casera y de Mercado.",
      "name": "La Venta de Isidro",
      "phone": "+34 918 90 88 27"
    }
  },
  {
    "type": "node",
    "id": 253414125,
    "lat": 40.7174142,
    "lon": -3.9196009,
    "timestamp": "2020-05-10T19:55:32Z",
    "version": 5,
    "changeset": 84984904,
    "user": "robertogeb",
    "uid": 491515,
    "tags": {
      "addr:city": "El Boalo",
      "addr:housenumber": "4",
      "addr:postcode": "28413",
      "addr:street": "Calle Audiencia",
      "amenity": "restaurant",
      "description": "Acogedor asador en el que priman las carnes rojas (de León) a la brasa. Con un amplio salón, cuenta con una terraza abaldosada en un jardín, a la que proporciona sombra una higuera. Especialidades en Cocina de Autor: Flambe de Cigalitas con Boletus Edulis",
      "description_1": ", Corazones de Egipto con Birutas de Ibérico, Habitas de Alcaudete con Chopitos. Especialidades en Cocina Tradicional: Carnes al Sarmiento, Chuletón de Ternera Avileña, Chuletón de Cebón, Chuletillas de Lechal, etc.",
      "name": "Mesón Agustín",
      "outdoor_seating": "yes",
      "phone": "+34 918 55 94 88"
    }
  },
  {
    "type": "node",
    "id": 254758650,
    "lat": 40.445038,
    "lon": -3.6411778,
    "timestamp": "2015-04-13T19:57:57Z",
    "version": 5,
    "changeset": 30197357,
    "user": "mor",
    "uid": 220932,
    "tags": {
      "amenity": "restaurant",
      "name": "Restaurante Pico Pico",
      "old_name": "Sheng",
      "website": "http://www.picopicorestaurantes.com/"
    }
  },
  {
    "type": "node",
    "id": 254758815,
    "lat": 40.4445989,
    "lon": -3.6403865,
    "timestamp": "2017-09-14T16:20:41Z",
    "version": 5,
    "changeset": 52043540,
    "user": "alcatoo",
    "uid": 2203560,
    "tags": {
      "amenity": "restaurant",
      "name": "Asador Rías Bajas",
      "opening_hours": "Mo-Su 08:00-24:00",
      "wheelchair": "yes"
    }
  },
  {
    "type": "node",
    "id": 254761024,
    "lat": 40.4424437,
    "lon": -3.6384083,
    "timestamp": "2016-07-28T13:24:00Z",
    "version": 5,
    "changeset": 41085863,
    "user": "MaRoRo",
    "uid": 4331198,
    "tags": {
      "amenity": "restaurant",
      "name": "El Racó",
      "smoking": "no",
      "wheelchair": "limited"
    }
  },
  {
    "type": "node",
    "id": 254761025,
    "lat": 40.4423564,
    "lon": -3.6383442,
    "timestamp": "2015-05-30T15:27:50Z",
    "version": 4,
    "changeset": 31586444,
    "user": "Canellone",
    "uid": 2277975,
    "tags": {
      "amenity": "restaurant",
      "name": "Happiness",
      "wheelchair": "no"
    }
  },
  {
    "type": "node",
    "id": 254931933,
    "lat": 40.4704992,
    "lon": -3.5803968,
    "timestamp": "2024-08-15T00:33:46Z",
    "version": 7,
    "changeset": 155263287,
    "user": "alrico88",
    "uid": 3377635,
    "tags": {
      "amenity": "restaurant",
      "check_date": "2024-08-15",
      "name": "Chutoro Madrid",
      "phone": "+34 722 20 44 42",
      "website": "https://www.chutoromadrid.com"
    }
  },
  {
    "type": "node",
    "id": 254932642,
    "lat": 40.4739074,
    "lon": -3.5771263,
    "timestamp": "2024-11-20T15:36:27Z",
    "version": 4,
    "changeset": 159371361,
    "user": "AlvaroRC",
    "uid": 3538570,
    "tags": {
      "amenity": "restaurant",
      "check_date": "2024-08-21",
      "name": "La Plaza"
    }
  },
  {
    "type": "node",
    "id": 254933262,
    "lat": 40.4710865,
    "lon": -3.5798455,
    "timestamp": "2024-08-14T22:57:48Z",
    "version": 3,
    "changeset": 155261970,
    "user": "alrico88",
    "uid": 3377635,
    "tags": {
      "amenity": "restaurant",
      "check_date": "2024-08-15",
      "cuisine": "seafood;regional",
      "name": "Miravalles"
    }
  },
  {
    "type": "node",
    "id": 254933304,
    "lat": 40.4724032,
    "lon": -3.5820736,
    "timestamp": "2024-08-14T23:21:01Z",
    "version": 5,
    "changeset": 155262342,
    "user": "alrico88",
    "uid": 3377635,
    "tags": {
      "amenity": "restaurant",
      "check_date": "2023-06-20",
      "name": "Al Tran Tran"
    }
  },
  {
    "type": "node",
    "id": 255249713,
    "lat": 40.4382334,
    "lon": -3.6373154,
    "timestamp": "2017-09-20T17:04:02Z",
    "version": 3,
    "changeset": 52217393,
    "user": "alcatoo",
    "uid": 2203560,
    "tags": {
      "amenity": "restaurant",
      "name": "Jota Cinco",
      "opening_hours": "Mo-Su 08:00-02:00"
    }
  },
  {
    "type": "node",
    "id": 255249715,
    "lat": 40.438217,
    "lon": -3.6373926,
    "timestamp": "2014-08-08T17:05:32Z",
    "version": 3,
    "changeset": 24619835,
    "user": "chostes",
    "uid": 2245498,
    "tags": {
      "amenity": "restaurant",
      "name": "Mamma Juana"
    }
  },
  {
    "type": "node",
    "id": 255250303,
    "lat": 40.4397488,
    "lon": -3.6364268,
    "timestamp": "2015-05-30T15:27:49Z",
    "version": 2,
    "changeset": 31586444,
    "user": "Canellone",
    "uid": 2277975,
    "tags": {
      "amenity": "restaurant",
      "name": "Grant's"
    }
  },
  {
    "type": "node",
    "id": 255256261,
    "lat": 40.4375703,
    "lon": -3.6370092,
    "timestamp": "2013-11-21T00:36:05Z",
    "version": 2,
    "changeset": 19026794,
    "user": "Iván_",
    "uid": 1773299,
    "tags": {
      "amenity": "restaurant",
      "cuisine": "asian",
      "name": "Go"
    }
  },
  {
    "type": "node",
    "id": 255257576,
    "lat": 40.443889,
    "lon": -3.6345377,
    "timestamp": "2022-01-21T21:56:38Z",
    "version": 5,
    "changeset": 116449128,
    "user": "5R-MFT",
    "uid": 3417876,
    "tags": {
      "addr:housenumber": "38",
      "addr:street": "Calle López de Aranda",
      "amenity": "restaurant",
      "contact:phone": "+34 917 43 43 98",
      "cuisine": "asian",
      "name": "Matsuri",
      "opening_hours": "Mo-Su 13:00-16:30, 20:00-00:00",
      "source": "survey",
      "website": "https://matsurimadrid.com/matsuri-restaurante-asiatico-arturo-soria/"
    }
  },
  {
    "type": "node",
    "id": 255258358,
    "lat": 40.4439935,
    "lon": -3.6344424,
    "timestamp": "2017-06-05T01:14:18Z",
    "version": 2,
    "changeset": 49254450,
    "user": "mor",
    "uid": 220932,
    "tags": {
      "amenity": "restaurant",
      "name": "Unus",
      "old_name": "Sushi Ya!"
    }
  },
  {
    "type": "node",
    "id": 255258806,
    "lat": 40.4440493,
    "lon": -3.6343156,
    "timestamp": "2017-06-05T01:14:18Z",
    "version": 2,
    "changeset": 49254450,
    "user": "mor",
    "uid": 220932,
    "tags": {
      "amenity": "restaurant",
      "name": "Carlos"
    }
  },
  {
    "type": "node",
    "id": 255259094,
    "lat": 40.4441386,
    "lon": -3.6341149,
    "timestamp": "2017-06-05T01:14:19Z",
    "version": 3,
    "changeset": 49254450,
    "user": "mor",
    "uid": 220932,
    "tags": {
      "amenity": "restaurant",
      "name": "El Ratito"
    }
  },
  {
    "type": "node",
    "id": 255259896,
    "lat": 40.4445466,
    "lon": -3.6346069,
    "timestamp": "2017-01-22T19:36:26Z",
    "version": 3,
    "changeset": 45377206,
    "user": "JMSB113",
    "uid": 4866290,
    "tags": {
      "amenity": "restaurant",
      "name": "Eu Mundo"
    }
  },
  {
    "type": "node",
    "id": 255260629,
    "lat": 40.4448785,
    "lon": -3.635335,
    "timestamp": "2016-11-19T21:31:47Z",
    "version": 2,
    "changeset": 43809951,
    "user": "mor",
    "uid": 220932,
    "tags": {
      "amenity": "restaurant",
      "name": "Casa Tampico"
    }
  },
  {
    "type": "node",
    "id": 259059208,
    "lat": 40.5187667,
    "lon": -3.7754372,
    "timestamp": "2019-01-21T19:10:37Z",
    "version": 4,
    "changeset": 66514989,
    "user": "Luiyo",
    "uid": 316694,
    "tags": {
      "amenity": "restaurant",
      "name": "La Montaña"
    }
  },
  {
    "type": "node",
    "id": 259059283,
    "lat": 40.5194084,
    "lon": -3.7767025,
    "timestamp": "2016-05-03T16:19:04Z",
    "version": 3,
    "changeset": 39070316,
    "user": "Luiyo",
    "uid": 316694,
    "tags": {
      "addr:housenumber": "4",
      "amenity": "restaurant",
      "name": "Mesón del Pardo",
      "source": "survey"
    }
  },
  {
    "type": "node",
    "id": 259730936,
    "lat": 40.5059026,
    "lon": -3.6757441,
    "timestamp": "2024-12-11T18:41:15Z",
    "version": 5,
    "changeset": 160180329,
    "user": "Hublan",
    "uid": 21711066,
    "tags": {
      "addr:city": "Madrid",
      "addr:housenumber": "68",
      "addr:postcode": "28050",
      "addr:street": "Calle de San Juan de Ortega",
      "amenity": "restaurant",
      "name": "Canalla Tacos y Tragos"
    }
  },
  {
    "type": "node",
    "id": 259969971,
    "lat": 40.5338476,
    "lon": -3.6261189,
    "timestamp": "2022-05-20T16:28:04Z",
    "version": 8,
    "changeset": 121252757,
    "user": "gpesquero",
    "uid": 3584,
    "tags": {
      "addr:city": "Alcobendas",
      "addr:housenumber": "11",
      "addr:postcode": "28108",
      "addr:street": "Calle de Anabel Segura",
      "amenity": "restaurant",
      "email": "reservas@lavegaexperience.com",
      "mobile": "+34 605 061 152",
      "name": "La Vega Experience",
      "old_name": "La Mafia",
      "phone": "+34 91 999 57 57",
      "website": "https://lavega.buenacarta.com"
    }
  },
  {
    "type": "node",
    "id": 262312595,
    "lat": 40.4605707,
    "lon": -3.6872821,
    "timestamp": "2023-10-30T21:21:24Z",
    "version": 6,
    "changeset": 143387709,
    "user": "b-jazz-bot",
    "uid": 9451067,
    "tags": {
      "addr:housenumber": "11",
      "addr:postcode": "28036",
      "addr:street": "Calle de Juan Hurtado de Mendoza",
      "amenity": "restaurant",
      "cuisine": "burger",
      "name": "Alfredo's Barbacoa",
      "phone": "+34 91 345 1639",
      "website": "https://www.alfredos-barbacoa.es/"
    }
  },
  {
    "type": "node",
    "id": 262319745,
    "lat": 40.5060565,
    "lon": -3.6676655,
    "timestamp": "2021-08-25T07:38:54Z",
    "version": 2,
    "changeset": 110211881,
    "user": "20jgo",
    "uid": 136696,
    "tags": {
      "amenity": "restaurant"
    }
  },
  {
    "type": "node",
    "id": 262352801,
    "lat": 40.4740954,
    "lon": -3.7054024,
    "timestamp": "2020-12-07T12:39:04Z",
    "version": 7,
    "changeset": 95422322,
    "user": "b-jazz-bot",
    "uid": 9451067,
    "tags": {
      "addr:housenumber": "25",
      "addr:street": "Avenida de El Ferrol",
      "amenity": "restaurant",
      "cuisine": "galician",
      "name": "Petiscos Galegos",
      "phone": "+34 315 8515",
      "website": "https://www.petiscos-galegos.es/"
    }
  },
  {
    "type": "node",
    "id": 262353457,
    "lat": 40.479773,
    "lon": -3.7085001,
    "timestamp": "2021-09-02T10:50:38Z",
    "version": 5,
    "changeset": 110612800,
    "user": "Cuenqui",
    "uid": 3649461,
    "tags": {
      "amenity": "restaurant",
      "brand": "Vips",
      "brand:wikidata": "Q66087862",
      "cuisine": "international",
      "name": "Vips"
    }
  },
  {
    "type": "node",
    "id": 262353489,
    "lat": 40.4793935,
    "lon": -3.7083499,
    "timestamp": "2023-12-04T15:25:48Z",
    "version": 4,
    "changeset": 144759757,
    "user": "Barrunterio",
    "uid": 17808034,
    "tags": {
      "amenity": "restaurant",
      "brand": "TGI Fridays",
      "brand:wikidata": "Q1524184",
      "brand:wikipedia": "en:TGI Fridays",
      "cuisine": "american",
      "name": "TGI Fridays"
    }
  },
  {
    "type": "node",
    "id": 262659711,
    "lat": 40.5090251,
    "lon": -3.6675001,
    "timestamp": "2016-09-23T12:15:05Z",
    "version": 5,
    "changeset": 42372538,
    "user": "Cuenqui",
    "uid": 3649461,
    "tags": {
      "amenity": "restaurant",
      "cuisine": "italian",
      "name": "La Nicoletta"
    }
  },
  {
    "type": "node",
    "id": 265666268,
    "lat": 40.5100394,
    "lon": -3.6673737,
    "timestamp": "2016-11-15T21:19:06Z",
    "version": 3,
    "changeset": 43681422,
    "user": "mor",
    "uid": 220932,
    "tags": {
      "amenity": "restaurant",
      "name": "Kobe"
    }
  },
  {
    "type": "node",
    "id": 265668383,
    "lat": 40.5182775,
    "lon": -3.8987664,
    "timestamp": "2014-08-30T16:53:02Z",
    "version": 4,
    "changeset": 25122019,
    "user": "Luiyo",
    "uid": 316694,
    "tags": {
      "amenity": "restaurant",
      "cuisine": "asian",
      "name": "Kyoto",
      "wheelchair": "yes"
    }
  },
  {
    "type": "node",
    "id": 265674307,
    "lat": 40.5081627,
    "lon": -3.6709914,
    "timestamp": "2024-07-06T07:18:04Z",
    "version": 9,
    "changeset": 153612720,
    "user": "Hublan",
    "uid": 21711066,
    "tags": {
      "amenity": "restaurant",
      "name": "Taberna La Bonica"
    }
  },
  {
    "type": "node",
    "id": 266169997,
    "lat": 40.4033042,
    "lon": -3.7081487,
    "timestamp": "2025-03-05T18:30:14Z",
    "version": 11,
    "changeset": 163255840,
    "user": "Etzharai",
    "uid": 3771138,
    "tags": {
      "addr:housenumber": "29",
      "addr:postcode": "28005",
      "addr:street": "Paseo de las Acacias",
      "amenity": "restaurant",
      "cuisine": "sushi",
      "disused:amenity": "kindergarten",
      "indoor_seating": "yes",
      "name": "Go! Sushing",
      "old_name": "Garabatos y Ocho Patos",
      "outdoor_seating": "no",
      "phone": "+34914687089",
      "smoking": "outside"
    }
  },
  {
    "type": "node",
    "id": 266761261,
    "lat": 40.4189239,
    "lon": -3.6890563,
    "timestamp": "2018-02-21T00:08:21Z",
    "version": 2,
    "changeset": 56535641,
    "user": "rusefkuma",
    "uid": 7637564,
    "tags": {
      "amenity": "restaurant",
      "name": "La Gamella"
    }
  },
  {
    "type": "node",
    "id": 268378915,
    "lat": 40.3486886,
    "lon": -3.8493533,
    "timestamp": "2023-05-20T09:23:26Z",
    "version": 4,
    "changeset": 136329425,
    "user": "serrgiofdezz",
    "uid": 15494924,
    "tags": {
      "amenity": "restaurant",
      "brand": "Vips",
      "brand:wikidata": "Q66087862",
      "cuisine": "international",
      "name": "Vips"
    }
  },
  {
    "type": "node",
    "id": 283593784,
    "lat": 40.4936118,
    "lon": -3.6554348,
    "timestamp": "2024-08-27T14:52:43Z",
    "version": 13,
    "changeset": 155836177,
    "user": "DocGato",
    "uid": 21861917,
    "tags": {
      "addr:city": "Madrid",
      "addr:postcode": "28050",
      "addr:street": "Calle del Príncipe Carlos",
      "amenity": "restaurant",
      "atm:network": "Servired",
      "name": "Cantina"
    }
  },
  {
    "type": "node",
    "id": 287327426,
    "lat": 40.5903124,
    "lon": -4.048332,
    "timestamp": "2021-07-13T21:22:47Z",
    "version": 2,
    "changeset": 107934569,
    "user": "tecleandor",
    "uid": 6802043,
    "tags": {
      "amenity": "restaurant",
      "created_by": "Potlatch 0.10b",
      "name": "El Nautico"
    }
  },
  {
    "type": "node",
    "id": 292259861,
    "lat": 40.6385755,
    "lon": -4.1527447,
    "timestamp": "2008-08-30T13:45:38Z",
    "version": 2,
    "changeset": 462345,
    "user": "ivansanchez",
    "uid": 5265,
    "tags": {
      "amenity": "restaurant",
      "source": "PNOA"
    }
  },
  {
    "type": "node",
    "id": 296518014,
    "lat": 40.4958129,
    "lon": -3.6755645,
    "timestamp": "2010-11-15T09:24:59Z",
    "version": 2,
    "changeset": 6375890,
    "user": "Rummidge",
    "uid": 31545,
    "tags": {
      "amenity": "restaurant",
      "name": "El Rincón de las Tablas"
    }
  },
  {
    "type": "node",
    "id": 297327470,
    "lat": 40.4512504,
    "lon": -3.5813898,
    "timestamp": "2008-09-15T21:15:16Z",
    "version": 1,
    "changeset": 646725,
    "user": "Davidegb",
    "uid": 43471,
    "tags": {
      "amenity": "restaurant",
      "created_by": "Potlatch 0.10b",
      "name": "Bar-Restaurante La Parada"
    }
  },
  {
    "type": "node",
    "id": 297336912,
    "lat": 40.4512553,
    "lon": -3.5815503,
    "timestamp": "2014-08-18T13:00:22Z",
    "version": 3,
    "changeset": 24832078,
    "user": "Cugino",
    "uid": 2268104,
    "tags": {
      "amenity": "restaurant",
      "name": "Bar los Arcos"
    }
  },
  {
    "type": "node",
    "id": 298391978,
    "lat": 40.4829998,
    "lon": -3.6940691,
    "timestamp": "2014-07-29T18:59:35Z",
    "version": 2,
    "changeset": 24428784,
    "user": "Luiyo",
    "uid": 316694,
    "tags": {
      "amenity": "restaurant",
      "name": "El Rosario"
    }
  },
  {
    "type": "node",
    "id": 298396498,
    "lat": 40.4833027,
    "lon": -3.6958009,
    "timestamp": "2008-10-08T08:57:45Z",
    "version": 2,
    "changeset": 154315,
    "user": "Rummidge",
    "uid": 31545,
    "tags": {
      "amenity": "restaurant",
      "name": "El Escondite Jamonal"
    }
  },
  {
    "type": "node",
    "id": 299299741,
    "lat": 40.5302584,
    "lon": -3.6384537,
    "timestamp": "2019-10-27T20:50:28Z",
    "version": 2,
    "changeset": 76276150,
    "user": "Marion_Moseby",
    "uid": 5379200,
    "tags": {
      "amenity": "restaurant",
      "name": "Goiko Grill"
    }
  },
  {
    "type": "node",
    "id": 299400338,
    "lat": 40.5059739,
    "lon": -3.6572587,
    "timestamp": "2008-09-24T07:33:59Z",
    "version": 1,
    "changeset": 688079,
    "user": "Rummidge",
    "uid": 31545,
    "tags": {
      "amenity": "restaurant",
      "name": "El Oso"
    }
  },
  {
    "type": "node",
    "id": 299649779,
    "lat": 40.3167699,
    "lon": -3.7328316,
    "timestamp": "2017-08-16T02:53:51Z",
    "version": 4,
    "changeset": 51156600,
    "user": "mor",
    "uid": 220932,
    "tags": {
      "addr:housenumber": "6",
      "addr:street": "Calle Ramón Rubial",
      "amenity": "restaurant",
      "name": "Las Ventas de Diego de Velázquez"
    }
  },
  {
    "type": "node",
    "id": 299916229,
    "lat": 40.5045383,
    "lon": -3.6748903,
    "timestamp": "2016-10-19T18:02:05Z",
    "version": 3,
    "changeset": 43014789,
    "user": "Luiyo",
    "uid": 316694,
    "tags": {
      "amenity": "restaurant",
      "name": "Ôven"
    }
  },
  {
    "type": "node",
    "id": 299916230,
    "lat": 40.5059631,
    "lon": -3.6746957,
    "timestamp": "2008-10-06T07:19:44Z",
    "version": 2,
    "changeset": 99359,
    "user": "Rummidge",
    "uid": 31545,
    "tags": {
      "amenity": "restaurant",
      "created_by": "JOSM",
      "name": "La Lola"
    }
  },
  {
    "type": "node",
    "id": 302804812,
    "lat": 40.504532,
    "lon": -3.6855922,
    "timestamp": "2014-03-30T17:50:13Z",
    "version": 2,
    "changeset": 21405082,
    "user": "Almorca",
    "uid": 71626,
    "tags": {
      "addr:housenumber": "191",
      "addr:street": "Calle de Nuestra Señora de Valverde",
      "amenity": "restaurant",
      "name": "El Barracón"
    }
  },
  {
    "type": "node",
    "id": 303092574,
    "lat": 40.4968493,
    "lon": -3.6665137,
    "timestamp": "2021-08-31T10:22:47Z",
    "version": 5,
    "changeset": 110505541,
    "user": "Cuenqui",
    "uid": 3649461,
    "tags": {
      "amenity": "restaurant",
      "brand": "Vips",
      "brand:wikidata": "Q66087862",
      "cuisine": "international",
      "name": "Vips"
    }
  },
  {
    "type": "node",
    "id": 303092578,
    "lat": 40.4969066,
    "lon": -3.6663936,
    "timestamp": "2021-08-31T10:22:47Z",
    "version": 3,
    "changeset": 110505541,
    "user": "Cuenqui",
    "uid": 3649461,
    "tags": {
      "amenity": "restaurant",
      "brand": "Ginos",
      "brand:wikidata": "Q98503664",
      "cuisine": "italian",
      "name": "Ginos"
    }
  },
  {
    "type": "node",
    "id": 303816138,
    "lat": 40.4828907,
    "lon": -3.667816,
    "timestamp": "2019-08-10T13:12:39Z",
    "version": 6,
    "changeset": 73220666,
    "user": "sanchi",
    "uid": 170106,
    "tags": {
      "amenity": "restaurant",
      "name": "Cafetería Globcafé",
      "phone": "+34 91 384 61 65"
    }
  },
  {
    "type": "node",
    "id": 303816141,
    "lat": 40.4825647,
    "lon": -3.6705259,
    "timestamp": "2021-01-25T19:50:57Z",
    "version": 6,
    "changeset": 98141979,
    "user": "Hugoren Martinako",
    "uid": 3392826,
    "tags": {
      "addr:street": "Calle de Caleruega",
      "amenity": "restaurant",
      "cuisine": "regional",
      "name": "La Fragua Del Pinar"
    }
  },
  {
    "type": "node",
    "id": 303816216,
    "lat": 40.4817015,
    "lon": -3.6659151,
    "timestamp": "2016-02-19T17:08:15Z",
    "version": 5,
    "changeset": 37312834,
    "user": "Luiyo",
    "uid": 316694,
    "tags": {
      "addr:city": "Madrid",
      "addr:housenumber": "335",
      "addr:postcode": "28033",
      "addr:street": "Calle de Arturo Soria",
      "amenity": "restaurant",
      "cuisine": "chinese",
      "name": "Ni Hao"
    }
  },
  {
    "type": "node",
    "id": 303824203,
    "lat": 40.4862506,
    "lon": -3.6655135,
    "timestamp": "2023-06-11T23:02:41Z",
    "version": 7,
    "changeset": 137222054,
    "user": "yopaseopor",
    "uid": 500572,
    "tags": {
      "addr:city": "Madrid",
      "addr:country": "ES",
      "addr:housenumber": "40",
      "addr:postcode": "28050",
      "addr:street": "Avenida de Manoteras",
      "amenity": "restaurant",
      "name": "La Tagliatella"
    }
  },
  {
    "type": "node",
    "id": 305536401,
    "lat": 40.4230858,
    "lon": -3.6935468,
    "timestamp": "2024-09-04T08:38:34Z",
    "version": 6,
    "changeset": 156174552,
    "user": "Graeme Herbert",
    "uid": 526776,
    "tags": {
      "amenity": "restaurant",
      "check_date": "2024-09-04",
      "name": "La Castafiore",
      "wheelchair": "limited"
    }
  },
  {
    "type": "node",
    "id": 305537112,
    "lat": 40.4458464,
    "lon": -3.4631402,
    "timestamp": "2020-10-07T12:10:38Z",
    "version": 8,
    "changeset": 92111597,
    "user": "ansuta",
    "uid": 3188422,
    "tags": {
      "amenity": "restaurant",
      "cuisine": "peruvian",
      "name": "Todo Rico",
      "old_name": "Al-Andalus",
      "old_name2": "La Hacienda de Torrejón",
      "source": "survey"
    }
  },
  {
    "type": "node",
    "id": 305592018,
    "lat": 40.4708871,
    "lon": -3.583035,
    "timestamp": "2016-11-10T21:55:27Z",
    "version": 5,
    "changeset": 43546578,
    "user": "Jorge SMM",
    "uid": 28803,
    "tags": {
      "amenity": "restaurant",
      "name": "Finca Lucero Celebraciones"
    }
  },
  {
    "type": "node",
    "id": 305592176,
    "lat": 40.4705945,
    "lon": -3.582929,
    "timestamp": "2017-07-02T21:00:29Z",
    "version": 3,
    "changeset": 49993857,
    "user": "mor",
    "uid": 220932,
    "tags": {
      "amenity": "restaurant",
      "cuisine": "italian",
      "description": "Italo-Argentino",
      "name": "Finca Lucero",
      "takeaway": "yes"
    }
  },
  {
    "type": "node",
    "id": 305592439,
    "lat": 40.4708744,
    "lon": -3.5826133,
    "timestamp": "2017-07-02T21:00:29Z",
    "version": 4,
    "changeset": 49993857,
    "user": "mor",
    "uid": 220932,
    "tags": {
      "amenity": "restaurant",
      "name": "El Porche"
    }
  },
  {
    "type": "node",
    "id": 307056158,
    "lat": 40.4159664,
    "lon": -3.710711,
    "timestamp": "2023-08-22T01:47:19Z",
    "version": 8,
    "changeset": 140205821,
    "user": "SomeoneElse_Revert",
    "uid": 1778799,
    "tags": {
      "amenity": "restaurant",
      "name": "Can Punyetes",
      "name:ru": "Какауцук"
    }
  },
  {
    "type": "node",
    "id": 307151666,
    "lat": 40.5322395,
    "lon": -3.6443392,
    "timestamp": "2025-04-19T17:19:53Z",
    "version": 3,
    "changeset": 165163881,
    "user": "gpesquero",
    "uid": 3584,
    "tags": {
      "addr:housenumber": "1",
      "addr:street": "Carretera de Fuencarral",
      "amenity": "restaurant",
      "cuisine": "mexican",
      "name": "Órale Compadre",
      "opening_hours": "Mo-Th 13:15-16:30, 20:30-23:30; Fr 13:15-16:30, 20:30-01:00; Sa-Su 13:30-17:00, 20:30-01:00",
      "phone": "+34 91 662 66 94",
      "website": "https://www.oralecompadre.com/"
    }
  },
  {
    "type": "node",
    "id": 307262761,
    "lat": 40.4375239,
    "lon": -3.7931761,
    "timestamp": "2017-07-14T10:30:55Z",
    "version": 2,
    "changeset": 50279475,
    "user": "Marion_Moseby",
    "uid": 5379200,
    "tags": {
      "amenity": "restaurant",
      "name": "La Cumbre"
    }
  },
  {
    "type": "node",
    "id": 311975861,
    "lat": 40.4164723,
    "lon": -3.6717472,
    "timestamp": "2021-12-08T23:32:48Z",
    "version": 5,
    "changeset": 114720860,
    "user": "Iván_",
    "uid": 1773299,
    "tags": {
      "addr:city": "Madrid",
      "addr:country": "ES",
      "addr:housenumber": "50",
      "addr:postcode": "28009",
      "addr:street": "Calle del Alcalde Sáinz de Baranda",
      "amenity": "restaurant",
      "cuisine": "spanish",
      "name": "Bar Restaurante El Paleto",
      "phone": "+34 915 733 629",
      "website": "https://www.restauranteelpaleto.com/"
    }
  },
  {
    "type": "node",
    "id": 313245747,
    "lat": 40.4411054,
    "lon": -3.6564894,
    "timestamp": "2025-01-07T08:40:21Z",
    "version": 2,
    "changeset": 161086713,
    "user": "OSM-Madrid",
    "uid": 22355573,
    "tags": {
      "amenity": "restaurant",
      "name": "Magaly"
    }
  },
  {
    "type": "node",
    "id": 313711980,
    "lat": 40.4415091,
    "lon": -3.663289,
    "timestamp": "2022-01-01T15:42:13Z",
    "version": 3,
    "changeset": 115641176,
    "user": "BergMr",
    "uid": 14581449,
    "tags": {
      "amenity": "restaurant",
      "name": "La Lupa"
    }
  },
  {
    "type": "node",
    "id": 320851661,
    "lat": 40.4218419,
    "lon": -3.8408774,
    "timestamp": "2018-08-10T18:56:50Z",
    "version": 3,
    "changeset": 61548107,
    "user": "wheelmap_visitor",
    "uid": 290680,
    "tags": {
      "amenity": "restaurant",
      "created_by": "Potlatch 0.10f",
      "name": "Restaurante Monte Alina",
      "wheelchair": "yes"
    }
  },
  {
    "type": "node",
    "id": 324407644,
    "lat": 40.4366702,
    "lon": -3.6419218,
    "timestamp": "2015-05-24T10:50:04Z",
    "version": 3,
    "changeset": 31416687,
    "user": "Canellone",
    "uid": 2277975,
    "tags": {
      "amenity": "restaurant",
      "cuisine": "peruvian",
      "name": "Miguelón"
    }
  },
  {
    "type": "node",
    "id": 324407686,
    "lat": 40.4366606,
    "lon": -3.6436812,
    "timestamp": "2015-05-23T11:53:11Z",
    "version": 2,
    "changeset": 31395745,
    "user": "Canellone",
    "uid": 2277975,
    "tags": {
      "amenity": "restaurant",
      "name": "Los Parros"
    }
  },
  {
    "type": "node",
    "id": 324407687,
    "lat": 40.4377156,
    "lon": -3.6444047,
    "timestamp": "2024-10-18T09:40:36Z",
    "version": 4,
    "changeset": 158041588,
    "user": "SColchester",
    "uid": 2708355,
    "tags": {
      "amenity": "restaurant",
      "name": "El Rincón de E&C"
    }
  },
  {
    "type": "node",
    "id": 324407693,
    "lat": 40.4410967,
    "lon": -3.6440189,
    "timestamp": "2023-11-09T11:36:42Z",
    "version": 4,
    "changeset": 143818534,
    "user": "SColchester",
    "uid": 2708355,
    "tags": {
      "amenity": "restaurant",
      "name": "d'casa",
      "opening_hours": "Tu-Fr 12:00-16:00; PH,Su,Mo off; Sa 11:00-15:30"
    }
  },
  {
    "type": "node",
    "id": 324580483,
    "lat": 40.4226068,
    "lon": -3.6932565,
    "timestamp": "2015-03-30T12:22:29Z",
    "version": 5,
    "changeset": 29848832,
    "user": "carlosz22",
    "uid": 718437,
    "tags": {
      "amenity": "restaurant",
      "cuisine": "japanese",
      "name": "Sake Dining Himawari"
    }
  },
  {
    "type": "node",
    "id": 326267125,
    "lat": 40.4304667,
    "lon": -3.6834992,
    "timestamp": "2024-10-18T17:03:55Z",
    "version": 5,
    "changeset": 158060487,
    "user": "Davileci",
    "uid": 8123953,
    "tags": {
      "amenity": "restaurant",
      "brand": "Vips",
      "brand:wikidata": "Q66087862",
      "contact:website": "https://www.vips.es/restaurantes/vips-beatriz",
      "cuisine": "international",
      "name": "Vips Beatriz"
    }
  },
  {
    "type": "node",
    "id": 327047791,
    "lat": 40.4300331,
    "lon": -3.8101422,
    "timestamp": "2018-08-03T23:37:51Z",
    "version": 3,
    "changeset": 61343831,
    "user": "Marion_Moseby",
    "uid": 5379200,
    "tags": {
      "amenity": "restaurant",
      "cuisine": "korean",
      "name": "Barbacoa Koreana"
    }
  },
  {
    "type": "node",
    "id": 327477607,
    "lat": 40.4327522,
    "lon": -3.6781495,
    "timestamp": "2024-05-10T18:55:42Z",
    "version": 8,
    "changeset": 151160567,
    "user": "JavierSp",
    "uid": 3196761,
    "tags": {
      "addr:housenumber": "37",
      "addr:street": "Calle de Juan Bravo",
      "amenity": "restaurant",
      "cuisine": "spanish",
      "name": "Carbón",
      "old_name": "Carbón Negro",
      "opening_hours": "Mo-Th, Su 12:00-02:00; Fr, Sa 12:00-02:30",
      "phone": "+34 910 88 58 60",
      "website": "https://carbonnegro.com/"
    }
  },
  {
    "type": "node",
    "id": 329133065,
    "lat": 40.438892,
    "lon": -3.6632499,
    "timestamp": "2022-01-02T08:46:53Z",
    "version": 6,
    "changeset": 115660685,
    "user": "BergMr",
    "uid": 14581449,
    "tags": {
      "amenity": "restaurant",
      "name": "El Gato"
    }
  },
  {
    "type": "node",
    "id": 330166692,
    "lat": 40.4605477,
    "lon": -3.6868119,
    "timestamp": "2021-04-11T10:31:59Z",
    "version": 5,
    "changeset": 102731697,
    "user": "AlvaroRC",
    "uid": 3538570,
    "tags": {
      "amenity": "restaurant",
      "name": "El olvido"
    }
  },
  {
    "type": "node",
    "id": 333597737,
    "lat": 40.4317789,
    "lon": -3.702372,
    "timestamp": "2025-01-19T14:45:40Z",
    "version": 9,
    "changeset": 161527057,
    "user": "Bustikiller",
    "uid": 20600467,
    "tags": {
      "addr:city": "Madrid",
      "addr:housenumber": "6",
      "addr:postcode": "28010",
      "addr:street": "Calle de Olid",
      "amenity": "restaurant",
      "cuisine": "mexican",
      "name": "Mawey"
    }
  },
  {
    "type": "node",
    "id": 336507203,
    "lat": 40.4952889,
    "lon": -3.8776121,
    "timestamp": "2015-06-24T13:30:23Z",
    "version": 3,
    "changeset": 32183538,
    "user": "robertogeb",
    "uid": 491515,
    "tags": {
      "amenity": "restaurant",
      "name": "Erazo"
    }
  },
  {
    "type": "node",
    "id": 338836392,
    "lat": 40.4127198,
    "lon": -3.7017271,
    "timestamp": "2023-03-11T11:45:12Z",
    "version": 7,
    "changeset": 133550172,
    "user": "Hugoren Martinako",
    "uid": 3392826,
    "tags": {
      "addr:city": "Madrid",
      "addr:housenumber": "10",
      "addr:postcode": "28012",
      "addr:street": "Calle de los Cañizares",
      "amenity": "restaurant",
      "contact:email": "info@casapatas.com",
      "contact:phone": "(+34) 91 369 04 96",
      "cuisine": "spanish",
      "description": "Flamenco",
      "disused:amenity": "theatre",
      "name": "Casa Patas",
      "website": "https://casapatas.com/"
    }
  },
  {
    "type": "node",
    "id": 339161273,
    "lat": 40.4184768,
    "lon": -3.8308025,
    "timestamp": "2009-01-30T17:32:16Z",
    "version": 1,
    "changeset": 856087,
    "user": "tostadora",
    "uid": 38878,
    "tags": {
      "amenity": "restaurant",
      "created_by": "Potlatch 0.10f",
      "name": "Restaurante Córdoba"
    }
  },
  {
    "type": "node",
    "id": 339206137,
    "lat": 40.4551315,
    "lon": -3.6705485,
    "timestamp": "2009-01-30T20:42:29Z",
    "version": 1,
    "changeset": 856010,
    "user": "sergionaranja",
    "uid": 33103,
    "tags": {
      "amenity": "restaurant",
      "cuisine": "regional",
      "name": "Casa de Córdoba"
    }
  },
  {
    "type": "node",
    "id": 339391837,
    "lat": 40.4526218,
    "lon": -3.7006244,
    "timestamp": "2024-04-26T12:36:49Z",
    "version": 6,
    "changeset": 150537113,
    "user": "Hugoren Martinako",
    "uid": 3392826,
    "tags": {
      "addr:city": "Madrid",
      "addr:housenumber": "14",
      "addr:postcode": "28020",
      "addr:street": "Calle de Ávila",
      "amenity": "restaurant",
      "cuisine": "japanese",
      "name": "Masa Naomi",
      "opening_hours": "Tu-Sa 13:30-16:30,20:00-24:00",
      "payment:credit_cards": "yes",
      "payment:debit_cards": "yes",
      "phone": "+34 915 72 23 04",
      "website": "https://www.restaurantemasanaomi.com/"
    }
  },
  {
    "type": "node",
    "id": 339775116,
    "lat": 40.492169,
    "lon": -3.8779408,
    "timestamp": "2009-02-01T17:29:09Z",
    "version": 1,
    "changeset": 32656,
    "user": "tostadora",
    "uid": 38878,
    "tags": {
      "amenity": "restaurant",
      "created_by": "Potlatch 0.10f",
      "name": "Caserola"
    }
  },
  {
    "type": "node",
    "id": 342287155,
    "lat": 40.9198388,
    "lon": -3.8447889,
    "timestamp": "2023-03-12T11:25:36Z",
    "version": 3,
    "changeset": 133582392,
    "user": "Arturo Francisco Barbero",
    "uid": 12605644,
    "tags": {
      "address": "Calle Grande 29",
      "amenity": "restaurant",
      "cuisine": "regional",
      "email": "ruben@elcolorao.org",
      "name": "El Colorao",
      "phone": "+34 687 82 08 26",
      "website": "http://www.elcolorao.org/"
    }
  },
  {
    "type": "node",
    "id": 342287160,
    "lat": 40.9179975,
    "lon": -3.8434189,
    "timestamp": "2012-12-29T19:45:52Z",
    "version": 3,
    "changeset": 14455510,
    "user": "Remiguel",
    "uid": 45453,
    "tags": {
      "amenity": "restaurant",
      "name": "Casa Berna"
    }
  },
  {
    "type": "node",
    "id": 342287196,
    "lat": 40.9199537,
    "lon": -3.8435604,
    "timestamp": "2009-02-06T20:14:33Z",
    "version": 1,
    "changeset": 203055,
    "user": "Remiguel",
    "uid": 45453,
    "tags": {
      "amenity": "restaurant",
      "name": "El Mirador de La Alameda"
    }
  },
  {
    "type": "node",
    "id": 343497263,
    "lat": 40.9182857,
    "lon": -3.8422795,
    "timestamp": "2012-12-29T19:45:51Z",
    "version": 3,
    "changeset": 14455510,
    "user": "Remiguel",
    "uid": 45453,
    "tags": {
      "amenity": "restaurant",
      "name": "Taberna del Alamillo"
    }
  },
  {
    "type": "node",
    "id": 351106061,
    "lat": 40.4521239,
    "lon": -3.4723221,
    "timestamp": "2024-10-09T08:29:35Z",
    "version": 11,
    "changeset": 157660789,
    "user": "mrwishkas",
    "uid": 21754147,
    "tags": {
      "addr:housenumber": "44",
      "addr:street": "Carretera de Loeches",
      "amenity": "restaurant",
      "name": "El Fogon",
      "old_phone": "+34 91 147 82 29",
      "source": "survey"
    }
  },
  {
    "type": "node",
    "id": 353124387,
    "lat": 40.4564845,
    "lon": -3.4749795,
    "timestamp": "2023-11-15T18:18:54Z",
    "version": 6,
    "changeset": 144063090,
    "user": "elcolla",
    "uid": 20590107,
    "tags": {
      "amenity": "restaurant",
      "name": "Nará",
      "source": "survey"
    }
  },
  {
    "type": "node",
    "id": 353131770,
    "lat": 40.5091941,
    "lon": -3.6927889,
    "timestamp": "2023-08-02T12:48:36Z",
    "version": 6,
    "changeset": 139346442,
    "user": "rlavk",
    "uid": 19956425,
    "tags": {
      "addr:city": "Madrid",
      "addr:country": "ES",
      "addr:housenumber": "5",
      "addr:postcode": "28049",
      "addr:street": "Calle del Monasterio de Sobrado",
      "amenity": "restaurant",
      "name": "La NiÑata cervecería",
      "old_name": "La Tahona de Montecarmelo"
    }
  },
  {
    "type": "node",
    "id": 353133735,
    "lat": 40.5043246,
    "lon": -3.7069933,
    "timestamp": "2020-12-09T15:10:22Z",
    "version": 4,
    "changeset": 95561521,
    "user": "Luiyo",
    "uid": 316694,
    "tags": {
      "addr:city": "Madrid",
      "addr:housenumber": "24",
      "addr:street": "Avenida del Monasterio de El Escorial",
      "amenity": "restaurant",
      "cuisine": "galician",
      "name": "El Peregrino"
    }
  },
  {
    "type": "node",
    "id": 354813995,
    "lat": 40.5261547,
    "lon": -3.655565,
    "timestamp": "2014-08-31T11:22:25Z",
    "version": 3,
    "changeset": 25135573,
    "user": "Luiyo",
    "uid": 316694,
    "tags": {
      "amenity": "restaurant",
      "name": "El Pilar"
    }
  },
  {
    "type": "node",
    "id": 354814189,
    "lat": 40.5262446,
    "lon": -3.6554468,
    "timestamp": "2014-08-31T11:22:24Z",
    "version": 3,
    "changeset": 25135573,
    "user": "Luiyo",
    "uid": 316694,
    "tags": {
      "amenity": "restaurant",
      "name": "El Guerrero"
    }
  },
  {
    "type": "node",
    "id": 354814337,
    "lat": 40.5265044,
    "lon": -3.6551179,
    "timestamp": "2014-08-31T11:22:24Z",
    "version": 4,
    "changeset": 25135573,
    "user": "Luiyo",
    "uid": 316694,
    "tags": {
      "amenity": "restaurant",
      "name": "El Aprendiz de S."
    }
  },
  {
    "type": "node",
    "id": 359273272,
    "lat": 40.4548553,
    "lon": -3.67212,
    "timestamp": "2020-05-08T23:02:04Z",
    "version": 4,
    "changeset": 84919770,
    "user": "wheelmap_visitor",
    "uid": 290680,
    "tags": {
      "amenity": "restaurant",
      "cuisine": "regional",
      "name": "Asador Lekeitio",
      "wheelchair": "limited"
    }
  },
  {
    "type": "node",
    "id": 359306861,
    "lat": 40.4457819,
    "lon": -3.6855307,
    "timestamp": "2020-03-20T09:35:52Z",
    "version": 3,
    "changeset": 82425033,
    "user": "Emilio Gomez",
    "uid": 2904,
    "tags": {
      "amenity": "restaurant",
      "name": "Mayte Commodore",
      "wikidata": "Q28964438"
    }
  },
  {
    "type": "node",
    "id": 360781330,
    "lat": 40.5614296,
    "lon": -3.6199174,
    "timestamp": "2020-12-08T11:03:36Z",
    "version": 4,
    "changeset": 95481363,
    "user": "Jesús Gómez",
    "uid": 6389,
    "tags": {
      "addr:city": "San Sebastián de los Reyes",
      "addr:housenumber": "19",
      "addr:postcode": "28702",
      "addr:street": "Avenida de Tenerife",
      "amenity": "restaurant",
      "name": "La Figal de Pablo",
      "website": "https://lafigaldepablo.es/"
    }
  },
  {
    "type": "node",
    "id": 361067079,
    "lat": 40.5113157,
    "lon": -3.6711103,
    "timestamp": "2022-05-02T12:22:19Z",
    "version": 3,
    "changeset": 120459045,
    "user": "Hugoren Martinako",
    "uid": 3392826,
    "tags": {
      "addr:city": "Madrid",
      "addr:housenumber": "16",
      "addr:postcode": "28050",
      "addr:street": "Calle de Frómista",
      "amenity": "restaurant",
      "cuisine": "thai",
      "name": "Royal Thai",
      "old_name": "Wei",
      "phone": "+34 91 427 60 92",
      "website": "http://www.restauranteroyalthai.es"
    }
  },
  {
    "type": "node",
    "id": 363997551,
    "lat": 40.4264788,
    "lon": -3.70103,
    "timestamp": "2018-06-10T08:47:09Z",
    "version": 6,
    "changeset": 59706396,
    "user": "Luiyo",
    "uid": 316694,
    "tags": {
      "addr:city": "Madrid",
      "addr:housenumber": "1",
      "addr:postcode": "28004",
      "addr:street": "Calle de Barceló",
      "amenity": "restaurant",
      "contact:email": "contacto@ninjaramen.es",
      "contact:phone": "+34 914 939 994",
      "contact:website": "http://ninjaramen.es/",
      "cuisine": "japanese",
      "name": "Ninja Ramen",
      "old_name": "Moore's & Co"
    }
  },
  {
    "type": "node",
    "id": 365384667,
    "lat": 40.4548737,
    "lon": -3.8743421,
    "timestamp": "2021-10-02T00:10:04Z",
    "version": 5,
    "changeset": 111985370,
    "user": "Cuenqui",
    "uid": 3649461,
    "tags": {
      "amenity": "restaurant",
      "brand": "Vips",
      "brand:wikidata": "Q66087862",
      "cuisine": "international",
      "name": "Vips",
      "wheelchair": "yes"
    }
  },
  {
    "type": "node",
    "id": 365384669,
    "lat": 40.4549153,
    "lon": -3.8741978,
    "timestamp": "2021-10-02T00:10:04Z",
    "version": 4,
    "changeset": 111985370,
    "user": "Cuenqui",
    "uid": 3649461,
    "tags": {
      "amenity": "restaurant",
      "brand": "Ginos",
      "brand:wikidata": "Q98503664",
      "cuisine": "italian",
      "name": "Ginos",
      "wheelchair": "yes"
    }
  },
  {
    "type": "node",
    "id": 382992718,
    "lat": 40.4052724,
    "lon": -3.5179956,
    "timestamp": "2009-04-24T12:14:03Z",
    "version": 2,
    "changeset": 926023,
    "user": "jamesks",
    "uid": 2500,
    "tags": {
      "amenity": "restaurant",
      "name": "Palacio del Negralejo",
      "url": "http://negralejo.com/"
    }
  },
  {
    "type": "node",
    "id": 410081558,
    "lat": 40.2906041,
    "lon": -3.7585762,
    "timestamp": "2023-06-27T11:51:00Z",
    "version": 7,
    "changeset": 137832323,
    "user": "serrgiofdezz",
    "uid": 15494924,
    "tags": {
      "amenity": "restaurant",
      "name": "La Taberna de Pernales"
    }
  },
  {
    "type": "node",
    "id": 418216637,
    "lat": 40.4791886,
    "lon": -3.5813703,
    "timestamp": "2015-06-07T03:44:58Z",
    "version": 2,
    "changeset": 31780922,
    "user": "mor",
    "uid": 220932,
    "tags": {
      "amenity": "restaurant",
      "name": "Ría del Sella"
    }
  },
  {
    "type": "node",
    "id": 437130772,
    "lat": 40.4452944,
    "lon": -3.4839478,
    "timestamp": "2016-03-23T15:07:08Z",
    "version": 2,
    "changeset": 38022160,
    "user": "gpesquero",
    "uid": 3584,
    "tags": {
      "amenity": "restaurant",
      "name": "Asturias III"
    }
  },
  {
    "type": "node",
    "id": 443480585,
    "lat": 40.568558,
    "lon": -3.5033908,
    "timestamp": "2009-07-18T22:19:33Z",
    "version": 1,
    "changeset": 1867809,
    "user": "gpesquero",
    "uid": 3584,
    "tags": {
      "amenity": "restaurant",
      "name": "El Rey de Oros"
    }
  },
  {
    "type": "node",
    "id": 446247397,
    "lat": 40.3478745,
    "lon": -3.6938322,
    "timestamp": "2015-04-18T22:15:29Z",
    "version": 2,
    "changeset": 30317696,
    "user": "onkayo",
    "uid": 1977383,
    "tags": {
      "amenity": "restaurant",
      "name": "Gainza"
    }
  },
  {
    "type": "node",
    "id": 446268113,
    "lat": 40.3492857,
    "lon": -3.6997727,
    "timestamp": "2014-12-08T20:42:53Z",
    "version": 4,
    "changeset": 27342734,
    "user": "Uranzu_import",
    "uid": 2403132,
    "tags": {
      "addr:street": "Alcocer, 23",
      "amenity": "restaurant",
      "cuisine": "spanish",
      "name": "Peña Francia"
    }
  },
  {
    "type": "node",
    "id": 446268118,
    "lat": 40.348488,
    "lon": -3.7018541,
    "timestamp": "2018-01-24T13:56:33Z",
    "version": 4,
    "changeset": 55713617,
    "user": "rafaerti",
    "uid": 468314,
    "tags": {
      "amenity": "restaurant",
      "name": "El Asador de Enrique"
    }
  },
  {
    "type": "node",
    "id": 449219686,
    "lat": 40.4511971,
    "lon": -3.5833598,
    "timestamp": "2009-07-27T20:03:03Z",
    "version": 1,
    "changeset": 1958734,
    "user": "Davidegb",
    "uid": 43471,
    "tags": {
      "amenity": "restaurant",
      "name": "Restaurante Los Amigos"
    }
  },
  {
    "type": "node",
    "id": 449219687,
    "lat": 40.4514584,
    "lon": -3.5818492,
    "timestamp": "2009-07-27T20:03:03Z",
    "version": 1,
    "changeset": 1958734,
    "user": "Davidegb",
    "uid": 43471,
    "tags": {
      "amenity": "restaurant",
      "name": "Restaurante Casa Luis"
    }
  },
  {
    "type": "node",
    "id": 450923573,
    "lat": 40.4828587,
    "lon": -3.6704199,
    "timestamp": "2020-02-22T02:16:02Z",
    "version": 5,
    "changeset": 81337335,
    "user": "mor",
    "uid": 220932,
    "tags": {
      "amenity": "restaurant",
      "name": "Pepe's Mesón Restaurante"
    }
  },
  {
    "type": "node",
    "id": 453232707,
    "lat": 40.4158435,
    "lon": -3.702398,
    "timestamp": "2019-08-10T14:13:54Z",
    "version": 7,
    "changeset": 73220666,
    "user": "sanchi",
    "uid": 170106,
    "tags": {
      "amenity": "restaurant",
      "cuisine": "cuban",
      "name": "La Negra Tomasa",
      "phone": "+34 91 523 58 30",
      "source": "survey",
      "website": "https://www.lanegratomasa.com/",
      "wheelchair": "yes"
    }
  },
  {
    "type": "node",
    "id": 476373569,
    "lat": 40.4753341,
    "lon": -3.8720987,
    "timestamp": "2009-08-30T09:11:24Z",
    "version": 2,
    "changeset": 2310040,
    "user": "koenigworks9",
    "uid": 162306,
    "tags": {
      "amenity": "restaurant",
      "name": "Mood - Grupo Vips"
    }
  },
  {
    "type": "node",
    "id": 479220884,
    "lat": 40.4833104,
    "lon": -3.6676942,
    "timestamp": "2021-01-25T19:50:57Z",
    "version": 4,
    "changeset": 98141979,
    "user": "Hugoren Martinako",
    "uid": 3392826,
    "tags": {
      "addr:city": "Madrid",
      "addr:housenumber": "85",
      "addr:postcode": "28033",
      "addr:street": "Calle de Caleruega",
      "amenity": "restaurant",
      "name": "La Parrilla Del Pinar"
    }
  },
  {
    "type": "node",
    "id": 493788403,
    "lat": 40.4472205,
    "lon": -3.7030843,
    "timestamp": "2009-09-11T21:52:17Z",
    "version": 1,
    "changeset": 2451666,
    "user": "culubret",
    "uid": 170609,
    "tags": {
      "amenity": "restaurant"
    }
  },
  {
    "type": "node",
    "id": 496824390,
    "lat": 40.5269009,
    "lon": -3.6509007,
    "timestamp": "2017-01-14T15:36:34Z",
    "version": 3,
    "changeset": 45162931,
    "user": "Luiyo",
    "uid": 316694,
    "tags": {
      "amenity": "restaurant",
      "name": "El mercado de Alcobendas"
    }
  },
  {
    "type": "node",
    "id": 498742965,
    "lat": 40.4815783,
    "lon": -3.396781,
    "timestamp": "2022-01-26T23:14:10Z",
    "version": 5,
    "changeset": 116642535,
    "user": "5R-MFT",
    "uid": 3417876,
    "tags": {
      "amenity": "restaurant",
      "brand": "Vips",
      "brand:wikidata": "Q66087862",
      "cuisine": "international",
      "name": "Vips"
    }
  },
  {
    "type": "node",
    "id": 498742966,
    "lat": 40.4818007,
    "lon": -3.3961612,
    "timestamp": "2022-01-26T23:14:10Z",
    "version": 6,
    "changeset": 116642535,
    "user": "5R-MFT",
    "uid": 3417876,
    "tags": {
      "amenity": "restaurant",
      "brand": "Ginos",
      "brand:wikidata": "Q98503664",
      "cuisine": "italian",
      "name": "Ginos"
    }
  },
  {
    "type": "node",
    "id": 504753552,
    "lat": 40.4473368,
    "lon": -3.4808456,
    "timestamp": "2011-12-03T14:26:40Z",
    "version": 3,
    "changeset": 10025060,
    "user": "gpesquero",
    "uid": 3584,
    "tags": {
      "amenity": "restaurant",
      "cuisine": "wok",
      "name": "WOK Parrilla",
      "source": "knowledge"
    }
  },
  {
    "type": "node",
    "id": 505013213,
    "lat": 40.3548451,
    "lon": -3.6995041,
    "timestamp": "2015-03-09T13:21:54Z",
    "version": 2,
    "changeset": 29356018,
    "user": "rafaerti",
    "uid": 468314,
    "tags": {
      "amenity": "restaurant",
      "name": "Gallardo"
    }
  },
  {
    "type": "node",
    "id": 505013281,
    "lat": 40.3543029,
    "lon": -3.6986993,
    "timestamp": "2015-02-24T19:57:44Z",
    "version": 5,
    "changeset": 29076709,
    "user": "rafaerti",
    "uid": 468314,
    "tags": {
      "amenity": "restaurant",
      "name": "Casa Conel",
      "source": "PNOA",
      "source:date": "2009"
    }
  },
  {
    "type": "node",
    "id": 505013430,
    "lat": 40.3506214,
    "lon": -3.7044437,
    "timestamp": "2018-01-18T14:32:14Z",
    "version": 4,
    "changeset": 55551309,
    "user": "rafaerti",
    "uid": 468314,
    "tags": {
      "amenity": "restaurant",
      "name": "Renato"
    }
  },
  {
    "type": "node",
    "id": 505283690,
    "lat": 40.4055876,
    "lon": -3.8881823,
    "timestamp": "2019-03-17T03:52:49Z",
    "version": 2,
    "changeset": 68218814,
    "user": "mor",
    "uid": 220932,
    "tags": {
      "amenity": "restaurant",
      "cuisine": "argentinian",
      "name": "Nuevo Mundo"
    }
  },
  {
    "type": "node",
    "id": 505299141,
    "lat": 40.4050274,
    "lon": -3.8954814,
    "timestamp": "2018-03-27T15:28:02Z",
    "version": 3,
    "changeset": 57571282,
    "user": "Jesús Gómez",
    "uid": 6389,
    "tags": {
      "amenity": "restaurant",
      "name": "Seng"
    }
  },
  {
    "type": "node",
    "id": 510141905,
    "lat": 40.4163433,
    "lon": -3.7056737,
    "timestamp": "2025-02-05T10:26:03Z",
    "version": 11,
    "changeset": 162159119,
    "user": "wheelmap_visitor",
    "uid": 290680,
    "tags": {
      "amenity": "restaurant",
      "cuisine": "spanish",
      "name": "Museo del Jamón",
      "opening_hours": "PH,Mo-Su 08:00-02:00",
      "wheelchair": "no"
    }
  },
  {
    "type": "node",
    "id": 510812793,
    "lat": 40.4158038,
    "lon": -3.7060361,
    "timestamp": "2024-12-04T09:13:24Z",
    "version": 5,
    "changeset": 159910259,
    "user": "wheelmap_visitor",
    "uid": 290680,
    "tags": {
      "amenity": "restaurant",
      "name": "Chiquita",
      "wheelchair": "no"
    }
  },
  {
    "type": "node",
    "id": 510812824,
    "lat": 40.4141745,
    "lon": -3.707981,
    "timestamp": "2024-12-04T09:33:31Z",
    "version": 16,
    "changeset": 159911044,
    "user": "wheelmap_visitor",
    "uid": 290680,
    "tags": {
      "addr:housenumber": "17",
      "addr:street": "Calle de Cuchilleros",
      "amenity": "restaurant",
      "description:zh": "米其林2星 海明威 太阳照常升起 cochinilo",
      "name": "Botín",
      "name:es": "Botín",
      "name:zh": "世界上最古老的餐馆",
      "opening_hours": "Mo-Su 13:00-16:00, 20:00-00:00",
      "phone": "+34 91 366 4217",
      "website": "https://www.botin.es/",
      "wheelchair": "limited",
      "wikidata": "Q2263744",
      "wikipedia": "es:Sobrino de Botín"
    }
  },
  {
    "type": "node",
    "id": 510812830,
    "lat": 40.4144651,
    "lon": -3.7079513,
    "timestamp": "2024-12-04T09:34:13Z",
    "version": 5,
    "changeset": 159911075,
    "user": "wheelmap_visitor",
    "uid": 290680,
    "tags": {
      "addr:housenumber": "9",
      "addr:street": "Calle de Cuchilleros",
      "amenity": "restaurant",
      "contact:phone": "+34 91 366 20 18",
      "contact:website": "http://www.tabernadeladaniela.com/",
      "name": "La Taberna de la Daniela",
      "wheelchair": "no"
    }
  },
  {
    "type": "node",
    "id": 510812876,
    "lat": 40.4148583,
    "lon": -3.7081461,
    "timestamp": "2024-12-04T09:34:51Z",
    "version": 4,
    "changeset": 159911105,
    "user": "wheelmap_visitor",
    "uid": 290680,
    "tags": {
      "addr:housenumber": "1",
      "addr:street": "Calle de la Cava de San Miguel",
      "amenity": "restaurant",
      "name": "Las Cuevas de Luis Candelas",
      "wheelchair": "limited"
    }
  },
  {
    "type": "node",
    "id": 514745924,
    "lat": 40.4595156,
    "lon": -3.4636555,
    "timestamp": "2022-01-20T21:21:19Z",
    "version": 7,
    "changeset": 116403629,
    "user": "5R-MFT",
    "uid": 3417876,
    "tags": {
      "addr:housenumber": "173",
      "addr:street": "Avenida de la Constitución",
      "amenity": "restaurant",
      "contact:email": "restaurantedonjose@grupohostal.com",
      "contact:phone": "+34 91 675 26 44",
      "name": "Don José",
      "source": "survey",
      "website": "https://restaurantedonjose.com"
    }
  },
  {
    "type": "node",
    "id": 529705683,
    "lat": 40.5163,
    "lon": -3.8985666,
    "timestamp": "2019-07-27T09:32:07Z",
    "version": 5,
    "changeset": 72711963,
    "user": "Luiyo",
    "uid": 316694,
    "tags": {
      "amenity": "restaurant",
      "cuisine": "pizza",
      "name": "Kilómetros de pizza",
      "wheelchair": "yes"
    }
  },
  {
    "type": "node",
    "id": 530625157,
    "lat": 40.4850021,
    "lon": -3.3899962,
    "timestamp": "2019-07-17T16:35:41Z",
    "version": 4,
    "changeset": 72356846,
    "user": "Juan_Carlos_G_F-imports",
    "uid": 2802925,
    "tags": {
      "addr:city": "Alcalá de Henares",
      "addr:country": "ES",
      "amenity": "restaurant",
      "name": "Quemada"
    }
  },
  {
    "type": "node",
    "id": 540440723,
    "lat": 40.4470868,
    "lon": -3.4610246,
    "timestamp": "2020-04-05T17:56:50Z",
    "version": 4,
    "changeset": 83108450,
    "user": "gpesquero",
    "uid": 3584,
    "tags": {
      "amenity": "restaurant",
      "name": "Asturias II"
    }
  },
  {
    "type": "node",
    "id": 540441902,
    "lat": 40.4616328,
    "lon": -3.4587143,
    "timestamp": "2020-04-04T22:01:24Z",
    "version": 6,
    "changeset": 83084196,
    "user": "gpesquero",
    "uid": 3584,
    "tags": {
      "addr:housenumber": "66",
      "addr:street": "Calle Londres",
      "amenity": "restaurant",
      "cuisine": "pizza",
      "name": "Chacabuco",
      "phone": "+34 91 656 46 23",
      "source": "survey",
      "website": "https://www.restaurantechacabuco.com/"
    }
  },
  {
    "type": "node",
    "id": 540452286,
    "lat": 40.4514157,
    "lon": -3.4582738,
    "timestamp": "2011-10-18T15:57:23Z",
    "version": 2,
    "changeset": 9592295,
    "user": "samucres",
    "uid": 228684,
    "tags": {
      "amenity": "restaurant",
      "name": "Los Amigos"
    }
  },
  {
    "type": "node",
    "id": 540452287,
    "lat": 40.449509,
    "lon": -3.4613708,
    "timestamp": "2021-08-02T16:12:43Z",
    "version": 3,
    "changeset": 109042563,
    "user": "gpesquero",
    "uid": 3584,
    "tags": {
      "amenity": "restaurant",
      "name": "El Charro"
    }
  },
  {
    "type": "node",
    "id": 540452288,
    "lat": 40.4494073,
    "lon": -3.4612889,
    "timestamp": "2024-03-31T15:16:38Z",
    "version": 4,
    "changeset": 149395280,
    "user": "gpesquero",
    "uid": 3584,
    "tags": {
      "amenity": "restaurant",
      "name": "Bremaik",
      "old_name": "El Escondite",
      "source": "survey"
    }
  },
  {
    "type": "node",
    "id": 540452291,
    "lat": 40.4496934,
    "lon": -3.4555945,
    "timestamp": "2022-05-29T09:44:48Z",
    "version": 6,
    "changeset": 121647796,
    "user": "gpesquero",
    "uid": 3584,
    "tags": {
      "addr:housenumber": "73",
      "addr:street": "Calle del Hierro",
      "amenity": "restaurant",
      "name": "El Caserón"
    }
  },
  {
    "type": "node",
    "id": 540461144,
    "lat": 40.4522434,
    "lon": -3.4665481,
    "timestamp": "2020-04-05T17:56:50Z",
    "version": 4,
    "changeset": 83108450,
    "user": "gpesquero",
    "uid": 3584,
    "tags": {
      "amenity": "restaurant",
      "name": "New Huapango",
      "old_name": "Huapango",
      "source": "survey"
    }
  },
  {
    "type": "node",
    "id": 540461150,
    "lat": 40.4522123,
    "lon": -3.4667253,
    "timestamp": "2020-04-05T17:56:50Z",
    "version": 3,
    "changeset": 83108450,
    "user": "gpesquero",
    "uid": 3584,
    "tags": {
      "amenity": "restaurant",
      "name": "El Reclamo",
      "source": "survey"
    }
  },
  {
    "type": "node",
    "id": 544773330,
    "lat": 40.4326414,
    "lon": -3.7041461,
    "timestamp": "2025-02-23T17:43:27Z",
    "version": 9,
    "changeset": 162861699,
    "user": "Bustikiller",
    "uid": 20600467,
    "tags": {
      "addr:city": "Madrid",
      "addr:housenumber": "145",
      "addr:postcode": "28010",
      "addr:street": "Calle de Fuencarral",
      "amenity": "restaurant",
      "name": "Cañas y tapas"
    }
  },
  {
    "type": "node",
    "id": 567251971,
    "lat": 40.4349308,
    "lon": -3.7133349,
    "timestamp": "2019-10-11T16:46:43Z",
    "version": 3,
    "changeset": 75577206,
    "user": "kapazao_import",
    "uid": 8770019,
    "tags": {
      "addr:city": "Madrid",
      "addr:housenumber": "55",
      "addr:postcode": "28015",
      "addr:street": "Calle de Guzmán el Bueno",
      "amenity": "restaurant",
      "contact:facebook": "https://es-es.facebook.com/pages/NAJERA-RESTAURANTE/49368682638",
      "name": "Nájera",
      "phone": "+34 915 43 10 82"
    }
  },
  {
    "type": "node",
    "id": 567915177,
    "lat": 40.5450531,
    "lon": -3.6604689,
    "timestamp": "2009-11-21T15:01:34Z",
    "version": 1,
    "changeset": 3176648,
    "user": "elbisbe",
    "uid": 199840,
    "tags": {
      "amenity": "restaurant",
      "name": "La Espiga de Oro"
    }
  },
  {
    "type": "node",
    "id": 567915178,
    "lat": 40.5453496,
    "lon": -3.6592646,
    "timestamp": "2019-07-22T09:54:26Z",
    "version": 4,
    "changeset": 72506553,
    "user": "sanchi",
    "uid": 170106,
    "tags": {
      "addr:city": "Alcobendas",
      "addr:housenumber": "196",
      "addr:postcode": "28100",
      "addr:street": "Paseo de la Chopera",
      "amenity": "restaurant",
      "name": "Pasiones Argentinas",
      "phone": "+34 912 93 92 68"
    }
  },
  {
    "type": "node",
    "id": 573364767,
    "lat": 40.6782112,
    "lon": -3.9635136,
    "timestamp": "2019-03-06T22:27:35Z",
    "version": 10,
    "changeset": 67861507,
    "user": "b-jazz-bot",
    "uid": 9451067,
    "tags": {
      "addr:city": "Moralzarzal",
      "addr:housenumber": "30",
      "addr:postcode": "28411",
      "addr:street": "Calle de España",
      "amenity": "restaurant",
      "description": "Situado en una elegante villa con terraza ajardinada, tiene un exquisito cuidado por los detalles desde la vajilla, cristalería, cubertería... Tapices, cuadros y maderas nobles hacen el resto. Sus salones, situados en dos niveles, están caracterizados po",
      "description_1": "r el confort, la elegancia y la distinción, con un ambiente relajado y señorial. Su mobiliario es de estilo clásico y refinado. Nos ofrece una carta corta, renovada diariamente, de acuerdo con la temporada y el mercado. Mezcla de platos tradicionales y c",
      "description_2": "reativos. Desde guisos como \"Alubias de Tolosa, con su matanza\" o \"Guiso de patatas y cocochas de merluza a la vasca\" hasta la \"Ensalada de sushi de bacalao con vinagreta de sobrasada\".",
      "email": "cenador@infonegocio.com",
      "name": "El Cenador de Salvador",
      "phone": "+34 918 57 77 22",
      "website": "https://www.elcenadordesalvador.com/"
    }
  },
  {
    "type": "node",
    "id": 574646021,
    "lat": 40.4205502,
    "lon": -3.6783029,
    "timestamp": "2015-02-13T03:42:01Z",
    "version": 5,
    "changeset": 28812750,
    "user": "mor",
    "uid": 220932,
    "tags": {
      "addr:housenumber": "9",
      "addr:street": "Calle del Doctor Castelo",
      "amenity": "restaurant",
      "cuisine": "spanish",
      "description": "Comida gallega",
      "name": "Bar Restaurante Emaus",
      "website": "http://www.emausrestaurante.es/"
    }
  },
  {
    "type": "node",
    "id": 574679586,
    "lat": 40.4514599,
    "lon": -3.678433,
    "timestamp": "2022-09-03T15:06:52Z",
    "version": 8,
    "changeset": 125742010,
    "user": "gpesquero",
    "uid": 3584,
    "tags": {
      "addr:housenumber": "84",
      "addr:street": "Calle de Rodríguez Marín",
      "amenity": "restaurant",
      "contact:whatsapp": "+34 600 624 282",
      "cuisine": "german",
      "description": "Comida alemana. Tienda delicatessen",
      "email": "info@fassgrill.com",
      "mobile": "+34 600 624 282",
      "name": "Fass",
      "opening_hours": "Mo-Su 08:00-01:00",
      "phone": "+34 91 563 74 47",
      "website": "http://www.fassgrill.com/restaurante-chamartin/"
    }
  },
  {
    "type": "node",
    "id": 574681900,
    "lat": 40.4512149,
    "lon": -3.6772063,
    "timestamp": "2023-09-28T09:38:41Z",
    "version": 7,
    "changeset": 141855954,
    "user": "wille",
    "uid": 360183,
    "tags": {
      "addr:housenumber": "210",
      "addr:street": "Calle del Príncipe de Vergara",
      "amenity": "restaurant",
      "check_date": "2023-09-27",
      "name": "La Tragantía",
      "outdoor_seating": "yes",
      "phone": "+34 915636672"
    }
  },
  {
    "type": "node",
    "id": 574684937,
    "lat": 40.4493577,
    "lon": -3.6775549,
    "timestamp": "2016-04-11T01:04:32Z",
    "version": 3,
    "changeset": 38463572,
    "user": "gnuckx",
    "uid": 1949691,
    "tags": {
      "amenity": "restaurant",
      "name": "La Ancha"
    }
  },
  {
    "type": "node",
    "id": 576324152,
    "lat": 40.5087682,
    "lon": -3.667127,
    "timestamp": "2016-09-23T12:15:05Z",
    "version": 4,
    "changeset": 42372538,
    "user": "Cuenqui",
    "uid": 3649461,
    "tags": {
      "amenity": "restaurant",
      "cuisine": "burger",
      "name": "La Vaca Picada"
    }
  },
  {
    "type": "node",
    "id": 582470818,
    "lat": 40.4709742,
    "lon": -3.5813432,
    "timestamp": "2024-08-15T00:33:46Z",
    "version": 11,
    "changeset": 155263287,
    "user": "alrico88",
    "uid": 3377635,
    "tags": {
      "amenity": "restaurant",
      "check_date": "2024-08-15",
      "name": "BLT - Barra Libre de Tapas",
      "phone": "+34 646 13 80 36",
      "website": "https://barralibretapas.com/"
    }
  },
  {
    "type": "node",
    "id": 583524148,
    "lat": 40.4233171,
    "lon": -3.702338,
    "timestamp": "2016-06-17T20:14:55Z",
    "version": 5,
    "changeset": 40103527,
    "user": "mor",
    "uid": 220932,
    "tags": {
      "addr:city": "Madrid",
      "addr:country": "ES",
      "addr:housenumber": "45",
      "addr:postcode": "28004",
      "addr:street": "Calle del Barco",
      "amenity": "restaurant",
      "cuisine": "pizza",
      "old_name": "Pizza al Cuadrado"
    }
  },
  {
    "type": "node",
    "id": 587033324,
    "lat": 40.5920273,
    "lon": -4.1434981,
    "timestamp": "2021-04-06T16:40:09Z",
    "version": 3,
    "changeset": 102421750,
    "user": "setb",
    "uid": 13006363,
    "tags": {
      "amenity": "restaurant",
      "cuisine": "italian",
      "name": "081 Napoli",
      "outdoor_seating": "yes",
      "source": "survey"
    }
  },