[
  {
    "type": "node",
    "id": 181311099,
    "lat": 42.3167613,
    "lon": -7.8682441,
    "timestamp": "2021-12-23T16:22:55Z",
    "version": 3,
    "changeset": 115305329,
    "user": "Ourense99",
    "uid": 14695647,
    "tags": {
      "amenity": "restaurant",
      "name": "San Rosendo"
    }
  },
  {
    "type": "node",
    "id": 538374222,
    "lat": 42.777089,
    "lon": -7.4165453,
    "timestamp": "2024-10-24T12:35:48Z",
    "version": 4,
    "changeset": 158294824,
    "user": "Monchinho",
    "uid": 2788764,
    "tags": {
      "amenity": "restaurant",
      "cuisine": "regional",
      "indoor_seating": "yes",
      "name": "Mesón O Tapas",
      "outdoor_seating": "yes"
    }
  },
  {
    "type": "node",
    "id": 618958532,
    "lat": 42.6786306,
    "lon": -8.1661139,
    "timestamp": "2023-10-22T10:29:14Z",
    "version": 4,
    "changeset": 142961425,
    "user": "Monchinho",
    "uid": 2788764,
    "tags": {
      "amenity": "restaurant",
      "name": "Restaurante María José"
    }
  },
  {
    "type": "node",
    "id": 696027583,
    "lat": 42.9651657,
    "lon": -7.4574203,
    "timestamp": "2023-05-09T09:17:34Z",
    "version": 3,
    "changeset": 135885797,
    "user": "Unfosm",
    "uid": 6598525,
    "tags": {
      "amenity": "restaurant",
      "changing_table": "yes"
    }
  },
  {
    "type": "node",
    "id": 764910231,
    "lat": 42.9250441,
    "lon": -8.2835583,
    "timestamp": "2024-08-16T19:30:12Z",
    "version": 4,
    "changeset": 155344177,
    "user": "A_Ku",
    "uid": 3423733,
    "tags": {
      "amenity": "restaurant",
      "name": "Raxería A Esquipa",
      "phone": "+34 981 51 12 64"
    }
  },
  {
    "type": "node",
    "id": 765305690,
    "lat": 42.9265204,
    "lon": -8.1325506,
    "timestamp": "2015-11-07T23:31:35Z",
    "version": 2,
    "changeset": 35160400,
    "user": "ottokar55",
    "uid": 101355,
    "tags": {
      "amenity": "restaurant"
    }
  },
  {
    "type": "node",
    "id": 793915018,
    "lat": 42.7824104,
    "lon": -7.5212565,
    "timestamp": "2024-09-15T17:21:00Z",
    "version": 3,
    "changeset": 156657405,
    "user": "Blauwdruk",
    "uid": 4517210,
    "tags": {
      "amenity": "restaurant",
      "diet:vegetarian": "yes",
      "indoor_seating": "yes",
      "name": "Bar Morgade",
      "outdoor_seating": "yes"
    }
  },
  {
    "type": "node",
    "id": 793933052,
    "lat": 42.7835085,
    "lon": -7.5332688,
    "timestamp": "2024-09-15T17:21:14Z",
    "version": 2,
    "changeset": 156657417,
    "user": "Blauwdruk",
    "uid": 4517210,
    "tags": {
      "amenity": "restaurant",
      "indoor_seating": "yes",
      "name": "Mesón Casa Cruceiro",
      "outdoor_seating": "yes",
      "source": "survey",
      "source:date": "201006"
    }
  },
  {
    "type": "node",
    "id": 794486710,
    "lat": 42.783692,
    "lon": -7.5363206,
    "timestamp": "2024-09-15T17:21:19Z",
    "version": 3,
    "changeset": 156657417,
    "user": "Blauwdruk",
    "uid": 4517210,
    "tags": {
      "amenity": "restaurant",
      "indoor_seating": "yes",
      "name": "Mesón Mirallos",
      "outdoor_seating": "yes",
      "source": "survey",
      "source:date": "201006"
    }
  },
  {
    "type": "node",
    "id": 797461244,
    "lat": 42.8060475,
    "lon": -7.6179215,
    "timestamp": "2024-09-15T17:24:06Z",
    "version": 3,
    "changeset": 156657564,
    "user": "Blauwdruk",
    "uid": 4517210,
    "tags": {
      "amenity": "restaurant",
      "indoor_seating": "yes",
      "name": "Restaurante O´Mirador",
      "outdoor_seating": "yes"
    }
  },
  {
    "type": "node",
    "id": 802218127,
    "lat": 42.8734135,
    "lon": -7.8092318,
    "timestamp": "2025-03-17T19:31:10Z",
    "version": 6,
    "changeset": 163747394,
    "user": "mneko",
    "uid": 158194,
    "tags": {
      "addr:city": "Lestedo",
      "addr:country": "ES",
      "addr:postcode": "27216",
      "addr:street": "Parroquia de Lestedo (Camino de Santiago Km71)",
      "amenity": "restaurant",
      "beds": "10",
      "contact:phone": "+34 982183744",
      "internet_access": "no",
      "name": "Albergue A Calzada",
      "opening_hours": "Apr-Sep",
      "operator:type": "private",
      "tourism": "hostel"
    }
  },
  {
    "type": "node",
    "id": 802218146,
    "lat": 42.8629316,
    "lon": -7.7846861,
    "timestamp": "2019-05-05T18:27:13Z",
    "version": 3,
    "changeset": 69912294,
    "user": "Dariusz Doburzyñski",
    "uid": 9186721,
    "tags": {
      "amenity": "restaurant",
      "name": "Casa Mariluz"
    }
  },
  {
    "type": "node",
    "id": 802218222,
    "lat": 42.8653705,
    "lon": -7.7876425,
    "timestamp": "2010-07-05T15:25:54Z",
    "version": 1,
    "changeset": 5142841,
    "user": "sergionaranja",
    "uid": 33103,
    "tags": {
      "amenity": "restaurant",
      "name": "Conde de Waldemar"
    }
  },
  {
    "type": "node",
    "id": 802388967,
    "lat": 42.8758914,
    "lon": -7.8362913,
    "timestamp": "2024-09-16T16:02:57Z",
    "version": 2,
    "changeset": 156695210,
    "user": "Blauwdruk",
    "uid": 4517210,
    "tags": {
      "amenity": "restaurant",
      "indoor_seating": "yes",
      "name": "Mesón A Brea",
      "outdoor_seating": "yes"
    }
  },
  {
    "type": "node",
    "id": 803907719,
    "lat": 42.8728573,
    "lon": -7.8690051,
    "timestamp": "2023-09-21T10:06:41Z",
    "version": 5,
    "changeset": 141551046,
    "user": "Blauwdruk",
    "uid": 4517210,
    "tags": {
      "amenity": "restaurant",
      "cuisine": "regional",
      "diet:vegetarian": "no",
      "indoor_seating": "yes",
      "name": "Polbeira A Nosa Terra",
      "outdoor_seating": "yes",
      "wheelchair": "limited"
    }
  },
  {
    "type": "node",
    "id": 811060557,
    "lat": 42.8952706,
    "lon": -7.9770826,
    "timestamp": "2024-09-17T15:39:34Z",
    "version": 4,
    "changeset": 156735336,
    "user": "Blauwdruk",
    "uid": 4517210,
    "tags": {
      "amenity": "restaurant",
      "indoor_seating": "yes",
      "name": "Parrillada Ribeira Sacra",
      "outdoor_seating": "yes"
    }
  },
  {
    "type": "node",
    "id": 811145162,
    "lat": 42.9134173,
    "lon": -8.0124792,
    "timestamp": "2019-03-02T15:45:58Z",
    "version": 2,
    "changeset": 67716596,
    "user": "MapMakerGal",
    "uid": 7579660,
    "tags": {
      "amenity": "restaurant",
      "cuisine": "regional",
      "name": "Polbeira Ezequiel"
    }
  },
  {
    "type": "node",
    "id": 817796930,
    "lat": 42.9289559,
    "lon": -8.1637351,
    "timestamp": "2010-07-14T19:45:45Z",
    "version": 1,
    "changeset": 5221097,
    "user": "sergionaranja",
    "uid": 33103,
    "tags": {
      "amenity": "restaurant",
      "cuisine": "casera",
      "name": "Casa Florencio"
    }
  },
  {
    "type": "node",
    "id": 818921335,
    "lat": 42.9307097,
    "lon": -8.1307951,
    "timestamp": "2024-09-18T15:05:08Z",
    "version": 3,
    "changeset": 156778215,
    "user": "Blauwdruk",
    "uid": 4517210,
    "tags": {
      "amenity": "restaurant",
      "indoor_seating": "yes",
      "name": "Mesón Rural Ribadiso",
      "outdoor_seating": "yes"
    }
  },
  {
    "type": "node",
    "id": 821830481,
    "lat": 42.9265526,
    "lon": -8.2794114,
    "timestamp": "2010-07-17T12:53:23Z",
    "version": 1,
    "changeset": 5242258,
    "user": "sergionaranja",
    "uid": 33103,
    "tags": {
      "amenity": "restaurant",
      "name": "A Casa Verde"
    }
  },
  {
    "type": "node",
    "id": 823587642,
    "lat": 42.9612311,
    "lon": -7.7312212,
    "timestamp": "2024-08-15T13:27:44Z",
    "version": 4,
    "changeset": 155283138,
    "user": "jeslop",
    "uid": 275212,
    "tags": {
      "amenity": "restaurant",
      "cuisine": "local",
      "name": "Mesón Crecente",
      "phone": "+34 982 17 69 82"
    }
  },
  {
    "type": "node",
    "id": 842515698,
    "lat": 42.9956883,
    "lon": -7.5495038,
    "timestamp": "2024-10-26T14:05:22Z",
    "version": 5,
    "changeset": 158377926,
    "user": "Rodrigo Rega",
    "uid": 32529,
    "tags": {
      "amenity": "restaurant",
      "name": "La Iguana",
      "outdoor_seating": "yes"
    }
  },
  {
    "type": "node",
    "id": 842515728,
    "lat": 42.9976933,
    "lon": -7.5488681,
    "timestamp": "2024-03-03T15:55:08Z",
    "version": 4,
    "changeset": 148171812,
    "user": "Rodrigo Rega",
    "uid": 32529,
    "tags": {
      "amenity": "restaurant",
      "cuisine": "burger",
      "name": "La Urbana",
      "outdoor_seating": "yes"
    }
  },
  {
    "type": "node",
    "id": 843162842,
    "lat": 42.9948915,
    "lon": -7.5504632,
    "timestamp": "2024-12-14T09:02:38Z",
    "version": 11,
    "changeset": 160272210,
    "user": "Mannivu",
    "uid": 1950277,
    "tags": {
      "addr:city": "Lugo",
      "addr:housenumber": "69",
      "addr:postcode": "27002",
      "addr:street": "Avenida de Magoi",
      "amenity": "restaurant",
      "contact:email": "info@laperegrinagourmet.com",
      "contact:phone": "+34 982284436",
      "contact:website": "https://laperegrinagourmet.com",
      "cuisine": "burger;pizza;spanish",
      "name": "La Peregrina",
      "name:-2024": "Pizzbur",
      "name:2024-": "La Peregrina",
      "opening_hours": "Mo-Su 12:00-24:00; Fr,Sa 00:00-01:00,12:00-24:00",
      "opening_hours:kitchen": "Mo-Su 13:30-16:30,20:00-23:00"
    }
  },
  {
    "type": "node",
    "id": 850548115,
    "lat": 42.5198174,
    "lon": -8.1163979,
    "timestamp": "2010-08-09T08:10:28Z",
    "version": 1,
    "changeset": 5440937,
    "user": "gqjtcbit",
    "uid": 20129,
    "tags": {
      "amenity": "restaurant"
    }
  },
  {
    "type": "node",
    "id": 850549491,
    "lat": 42.5198191,
    "lon": -8.1163994,
    "timestamp": "2010-08-09T08:12:27Z",
    "version": 1,
    "changeset": 5440952,
    "user": "gqjtcbit",
    "uid": 20129,
    "tags": {
      "amenity": "restaurant"
    }
  },
  {
    "type": "node",
    "id": 1357879354,
    "lat": 42.9917572,
    "lon": -7.5531674,
    "timestamp": "2023-04-05T14:09:55Z",
    "version": 4,
    "changeset": 134540503,
    "user": "sanchi",
    "uid": 170106,
    "tags": {
      "addr:city": "Lugo",
      "addr:housenumber": "112",
      "addr:postcode": "27002",
      "addr:street": "Estrada da Granxa",
      "amenity": "restaurant",
      "cuisine": "american",
      "name": "Luca's Grill",
      "phone": "+34 982 24 70 66",
      "website": "https://lucasgrillburger.com"
    }
  },
  {
    "type": "node",
    "id": 1394852654,
    "lat": 42.5244523,
    "lon": -7.5099308,
    "timestamp": "2011-08-11T12:58:16Z",
    "version": 1,
    "changeset": 8985362,
    "user": "rpgmon",
    "uid": 504625,
    "tags": {
      "amenity": "restaurant",
      "name": "Restaurante O Grelo"
    }
  },
  {
    "type": "node",
    "id": 1437856424,
    "lat": 42.8729902,
    "lon": -7.8686424,
    "timestamp": "2023-02-21T13:03:13Z",
    "version": 4,
    "changeset": 132834976,
    "user": "Blauwdruk",
    "uid": 4517210,
    "tags": {
      "amenity": "restaurant",
      "indoor_seating": "yes",
      "internet_access": "wlan",
      "name": "Bar Castro",
      "outdoor_seating": "yes"
    }
  },
  {
    "type": "node",
    "id": 1493250529,
    "lat": 42.2132027,
    "lon": -8.2765247,
    "timestamp": "2025-01-28T11:57:11Z",
    "version": 2,
    "changeset": 161854866,
    "user": "Monchinho",
    "uid": 2788764,
    "tags": {
      "amenity": "restaurant",
      "name": "Imperio"
    }
  },
  {
    "type": "node",
    "id": 1539586518,
    "lat": 42.6081358,
    "lon": -7.773013,
    "timestamp": "2019-10-19T20:10:16Z",
    "version": 3,
    "changeset": 75938742,
    "user": "MapMakerGal",
    "uid": 7579660,
    "tags": {
      "amenity": "restaurant",
      "cuisine": "spanish"
    }
  },
  {
    "type": "node",
    "id": 1539724082,
    "lat": 42.6094444,
    "lon": -7.7712432,
    "timestamp": "2011-12-10T16:49:55Z",
    "version": 1,
    "changeset": 10081696,
    "user": "loischantada",
    "uid": 521309,
    "tags": {
      "amenity": "restaurant",
      "cuisine": "spanish",
      "name": "Bar Centro"
    }
  },
  {
    "type": "node",
    "id": 1539732398,
    "lat": 42.6089579,
    "lon": -7.7705124,
    "timestamp": "2019-10-19T20:10:16Z",
    "version": 2,
    "changeset": 75938742,
    "user": "MapMakerGal",
    "uid": 7579660,
    "tags": {
      "amenity": "restaurant",
      "name": "A Viñoteca"
    }
  },
  {
    "type": "node",
    "id": 1539744397,
    "lat": 42.6074686,
    "lon": -7.7694309,
    "timestamp": "2019-10-19T20:10:16Z",
    "version": 2,
    "changeset": 75938742,
    "user": "MapMakerGal",
    "uid": 7579660,
    "tags": {
      "amenity": "restaurant",
      "name": "Mesón O Cantón"
    }
  },
  {
    "type": "node",
    "id": 1539744399,
    "lat": 42.6073106,
    "lon": -7.7697598,
    "timestamp": "2019-10-19T20:10:16Z",
    "version": 2,
    "changeset": 75938742,
    "user": "MapMakerGal",
    "uid": 7579660,
    "tags": {
      "amenity": "restaurant",
      "name": "Mesón Lucus"
    }
  },
  {
    "type": "node",
    "id": 1539749401,
    "lat": 42.6087178,
    "lon": -7.7641219,
    "timestamp": "2024-09-26T13:29:46Z",
    "version": 4,
    "changeset": 157129158,
    "user": "Monchinho",
    "uid": 2788764,
    "tags": {
      "amenity": "restaurant",
      "name": "Mesón Jema"
    }
  },
  {
    "type": "node",
    "id": 1539749403,
    "lat": 42.6090064,
    "lon": -7.7661002,
    "timestamp": "2019-10-19T20:10:16Z",
    "version": 5,
    "changeset": 75938742,
    "user": "MapMakerGal",
    "uid": 7579660,
    "tags": {
      "amenity": "restaurant",
      "name": "Bar Penela",
      "name:en": "Café-Bar Restaurante PENELA",
      "name:es": "Café-Bar Restaurante PENELA"
    }
  },
  {
    "type": "node",
    "id": 1539767135,
    "lat": 42.6086565,
    "lon": -7.7699572,
    "timestamp": "2019-10-19T20:10:16Z",
    "version": 2,
    "changeset": 75938742,
    "user": "MapMakerGal",
    "uid": 7579660,
    "tags": {
      "amenity": "restaurant",
      "name": "Restaurante Mogay"
    }
  },
  {
    "type": "node",
    "id": 1540717953,
    "lat": 42.6110359,
    "lon": -7.7699089,
    "timestamp": "2019-10-19T20:10:16Z",
    "version": 2,
    "changeset": 75938742,
    "user": "MapMakerGal",
    "uid": 7579660,
    "tags": {
      "amenity": "restaurant",
      "name": "Restaurante Os Pendellos"
    }
  },
  {
    "type": "node",
    "id": 1540736536,
    "lat": 42.6114636,
    "lon": -7.7693574,
    "timestamp": "2019-10-19T20:10:16Z",
    "version": 3,
    "changeset": 75938742,
    "user": "MapMakerGal",
    "uid": 7579660,
    "tags": {
      "amenity": "restaurant",
      "name": "Mesón Mogay"
    }
  },
  {
    "type": "node",
    "id": 1540766748,
    "lat": 42.5925596,
    "lon": -7.7251909,
    "timestamp": "2017-03-10T21:40:44Z",
    "version": 2,
    "changeset": 46750492,
    "user": "ansuta",
    "uid": 3188422,
    "tags": {
      "addr:city": "Belesar",
      "amenity": "restaurant",
      "name": "Abacería O Batuxo"
    }
  },
  {
    "type": "node",
    "id": 1541590116,
    "lat": 42.6248352,
    "lon": -7.7389817,
    "timestamp": "2011-12-11T22:57:37Z",
    "version": 1,
    "changeset": 10094865,
    "user": "loischantada",
    "uid": 521309,
    "tags": {
      "amenity": "restaurant",
      "name": "Pazo Piñeiro"
    }
  },
  {
    "type": "node",
    "id": 1556376487,
    "lat": 42.564952,
    "lon": -7.6816663,
    "timestamp": "2024-08-21T08:49:09Z",
    "version": 3,
    "changeset": 155545285,
    "user": "Blauwdruk",
    "uid": 4517210,
    "tags": {
      "amenity": "restaurant",
      "diet:vegetarian": "yes",
      "indoor_seating": "yes",
      "name": "Restaurante Praia da Coba",
      "outdoor_seating": "yes"
    }
  },
  {
    "type": "node",
    "id": 1669214265,
    "lat": 42.8420885,
    "lon": -7.4173016,
    "timestamp": "2012-03-10T20:38:46Z",
    "version": 1,
    "changeset": 10936083,
    "user": "santiv123",
    "uid": 623255,
    "tags": {
      "amenity": "restaurant",
      "cuisine": "spanish",
      "name": "Casa Fornos"
    }
  },
  {
    "type": "node",
    "id": 1749025071,
    "lat": 42.6466104,
    "lon": -7.4811392,
    "timestamp": "2012-05-11T22:18:44Z",
    "version": 1,
    "changeset": 11572195,
    "user": "miralsol",
    "uid": 118239,
    "tags": {
      "amenity": "restaurant"
    }
  },
  {
    "type": "node",
    "id": 1842065904,
    "lat": 42.2663723,
    "lon": -7.903533,
    "timestamp": "2012-07-28T23:33:05Z",
    "version": 1,
    "changeset": 12529330,
    "user": "Gbrl-Sierra",
    "uid": 324057,
    "tags": {
      "amenity": "restaurant",
      "name": "Restaurante Rosiña"
    }
  },
  {
    "type": "node",
    "id": 1844334412,
    "lat": 42.3532426,
    "lon": -7.8544654,
    "timestamp": "2023-02-07T16:12:14Z",
    "version": 2,
    "changeset": 132213846,
    "user": "el_juanca",
    "uid": 18405584,
    "tags": {
      "amenity": "restaurant",
      "name": "Oira Playa",
      "survey:date": "2023-02-07"
    }
  },
  {
    "type": "node",
    "id": 1845108099,
    "lat": 42.3331707,
    "lon": -7.8617192,
    "timestamp": "2019-02-21T22:38:18Z",
    "version": 3,
    "changeset": 67445919,
    "user": "DNanín",
    "uid": 8675435,
    "tags": {
      "amenity": "restaurant",
      "name": "Restaurante Adega de San Cosme",
      "wheelchair": "limited"
    }
  },
  {
    "type": "node",
    "id": 1846560249,
    "lat": 42.3382688,
    "lon": -7.8618297,
    "timestamp": "2019-12-27T21:40:14Z",
    "version": 3,
    "changeset": 78942416,
    "user": "MapMakerGal",
    "uid": 7579660,
    "tags": {
      "amenity": "restaurant",
      "cuisine": "asian",
      "name": "Wok&Co",
      "wheelchair": "yes"
    }
  },
  {
    "type": "node",
    "id": 1850145493,
    "lat": 42.3412949,
    "lon": -7.8622032,
    "timestamp": "2018-11-23T16:10:47Z",
    "version": 2,
    "changeset": 64825869,
    "user": "jeslop",
    "uid": 275212,
    "tags": {
      "amenity": "restaurant",
      "cuisine": "italian",
      "name": "Mamma Mia"
    }
  },
  {
    "type": "node",
    "id": 1850145524,
    "lat": 42.342458,
    "lon": -7.8604627,
    "timestamp": "2019-06-22T20:54:18Z",
    "version": 2,
    "changeset": 71518301,
    "user": "MapMakerGal",
    "uid": 7579660,
    "tags": {
      "amenity": "restaurant",
      "name": "Abadía"
    }
  },
  {
    "type": "node",
    "id": 1850145530,
    "lat": 42.3431124,
    "lon": -7.8626917,
    "timestamp": "2012-08-03T16:32:07Z",
    "version": 1,
    "changeset": 12600309,
    "user": "Gbrl-Sierra",
    "uid": 324057,
    "tags": {
      "amenity": "restaurant"
    }
  },
  {
    "type": "node",
    "id": 1850145540,
    "lat": 42.3411029,
    "lon": -7.8622979,
    "timestamp": "2018-11-23T16:10:48Z",
    "version": 2,
    "changeset": 64825869,
    "user": "jeslop",
    "uid": 275212,
    "tags": {
      "amenity": "restaurant",
      "cuisine": "mexican",
      "name": "Charro Mex"
    }
  },
  {
    "type": "node",
    "id": 1850181601,
    "lat": 42.3419943,
    "lon": -7.8620911,
    "timestamp": "2019-12-27T21:40:14Z",
    "version": 2,
    "changeset": 78942416,
    "user": "MapMakerGal",
    "uid": 7579660,
    "tags": {
      "amenity": "restaurant",
      "cuisine": "spanish",
      "name": "Moliere"
    }
  },
  {
    "type": "node",
    "id": 1854109387,
    "lat": 42.6091274,
    "lon": -7.764462,
    "timestamp": "2019-10-31T21:58:50Z",
    "version": 2,
    "changeset": 76469025,
    "user": "MapMakerGal",
    "uid": 7579660,
    "tags": {
      "amenity": "restaurant",
      "cuisine": "spanish",
      "name": "Restaurante Mariño"
    }
  },
  {
    "type": "node",
    "id": 1876850691,
    "lat": 42.9653917,
    "lon": -7.4546759,
    "timestamp": "2012-08-21T22:33:13Z",
    "version": 1,
    "changeset": 12814634,
    "user": "miralsol",
    "uid": 118239,
    "tags": {
      "amenity": "restaurant"
    }
  },
  {
    "type": "node",
    "id": 1881406353,
    "lat": 42.5347795,
    "lon": -8.0074011,
    "timestamp": "2012-08-24T19:34:42Z",
    "version": 1,
    "changeset": 12848604,
    "user": "Gbrl-Sierra",
    "uid": 324057,
    "tags": {
      "amenity": "restaurant"
    }
  },
  {
    "type": "node",
    "id": 1890115029,
    "lat": 42.2704956,
    "lon": -7.6591826,
    "timestamp": "2019-11-05T22:23:47Z",
    "version": 3,
    "changeset": 76669931,
    "user": "MapMakerGal",
    "uid": 7579660,
    "tags": {
      "amenity": "restaurant",
      "name": "Castelo de Maceda"
    }
  },
  {
    "type": "node",
    "id": 1895352820,
    "lat": 42.078266,
    "lon": -7.714692,
    "timestamp": "2016-02-18T18:45:46Z",
    "version": 2,
    "changeset": 37294763,
    "user": "polkillas",
    "uid": 42055,
    "tags": {
      "amenity": "restaurant",
      "name": "Restaurante Antela"
    }
  },
  {
    "type": "node",
    "id": 1903043040,
    "lat": 42.2750027,
    "lon": -8.14644,
    "timestamp": "2024-10-21T13:05:32Z",
    "version": 2,
    "changeset": 158169248,
    "user": "Monchinho",
    "uid": 2788764,
    "tags": {
      "amenity": "restaurant",
      "name": "Mesón A Lareira"
    }
  },
  {
    "type": "node",
    "id": 1913986687,
    "lat": 42.4405542,
    "lon": -7.9140508,
    "timestamp": "2012-09-14T11:57:10Z",
    "version": 1,
    "changeset": 13106440,
    "user": "Gbrl-Sierra",
    "uid": 324057,
    "tags": {
      "amenity": "restaurant"
    }
  },
  {
    "type": "node",
    "id": 1946598979,
    "lat": 42.3999828,
    "lon": -7.8550069,
    "timestamp": "2012-10-04T19:32:02Z",
    "version": 1,
    "changeset": 13364952,
    "user": "Gbrl-Sierra",
    "uid": 324057,
    "tags": {
      "amenity": "restaurant"
    }
  },
  {
    "type": "node",
    "id": 1946599109,
    "lat": 42.4000502,
    "lon": -7.8574799,
    "timestamp": "2012-10-04T19:32:05Z",
    "version": 1,
    "changeset": 13364952,
    "user": "Gbrl-Sierra",
    "uid": 324057,
    "tags": {
      "amenity": "restaurant"
    }
  },
  {
    "type": "node",
    "id": 1946599169,
    "lat": 42.3992615,
    "lon": -7.8577285,
    "timestamp": "2014-04-13T01:50:46Z",
    "version": 2,
    "changeset": 21656598,
    "user": "Santi6",
    "uid": 1981992,
    "tags": {
      "amenity": "restaurant"
    }
  },
  {
    "type": "node",
    "id": 1946599204,
    "lat": 42.3965244,
    "lon": -7.8508441,
    "timestamp": "2014-04-25T08:05:56Z",
    "version": 2,
    "changeset": 21924843,
    "user": "odce72",
    "uid": 1244396,
    "tags": {
      "amenity": "restaurant",
      "name": "Ruta de Santiago"
    }
  },
  {
    "type": "node",
    "id": 1946599217,
    "lat": 42.3981685,
    "lon": -7.8548192,
    "timestamp": "2012-10-04T19:32:08Z",
    "version": 1,
    "changeset": 13364952,
    "user": "Gbrl-Sierra",
    "uid": 324057,
    "tags": {
      "amenity": "restaurant"
    }
  },
  {
    "type": "node",
    "id": 2059577970,
    "lat": 42.2072261,
    "lon": -8.2674971,
    "timestamp": "2022-02-25T14:43:06Z",
    "version": 2,
    "changeset": 117851946,
    "user": "Monchinho",
    "uid": 2788764,
    "tags": {
      "amenity": "restaurant",
      "name": "Área de Servizo Quintáns"
    }
  },
  {
    "type": "node",
    "id": 2291957623,
    "lat": 42.5298372,
    "lon": -7.503712,
    "timestamp": "2018-09-06T10:57:32Z",
    "version": 4,
    "changeset": 62339001,
    "user": "edvac",
    "uid": 121415,
    "tags": {
      "amenity": "restaurant",
      "internet_access": "wlan",
      "internet_access:fee": "no",
      "name": "Riosol",
      "name:es": "Riosol",
      "outdoor_seating": "yes",
      "smoking": "outside"
    }
  },
  {
    "type": "node",
    "id": 2294931472,
    "lat": 42.3456775,
    "lon": -7.8623185,
    "timestamp": "2023-01-02T22:03:46Z",
    "version": 4,
    "changeset": 130805033,
    "user": "Friendly_Ghost",
    "uid": 10875409,
    "tags": {
      "amenity": "restaurant",
      "name": "Romántica"
    }
  },
  {
    "type": "node",
    "id": 2295239651,
    "lat": 42.43653,
    "lon": -7.748816,
    "timestamp": "2013-05-07T21:34:30Z",
    "version": 1,
    "changeset": 16019907,
    "user": "WingedStone",
    "uid": 35018,
    "tags": {
      "amenity": "restaurant",
      "name": "O remanso dos patos"
    }
  },
  {
    "type": "node",
    "id": 2424128866,
    "lat": 42.9949739,
    "lon": -7.5512867,
    "timestamp": "2024-05-31T18:13:39Z",
    "version": 2,
    "changeset": 152093083,
    "user": "Rodrigo Rega",
    "uid": 32529,
    "tags": {
      "amenity": "restaurant",
      "check_date": "2024-05-31",
      "cuisine": "spanish",
      "name": "Gambrinus"
    }
  },
  {
    "type": "node",
    "id": 2432416136,
    "lat": 42.2510118,
    "lon": -7.8645158,
    "timestamp": "2014-04-23T06:42:43Z",
    "version": 2,
    "changeset": 21878884,
    "user": "Barrocas",
    "uid": 1131231,
    "tags": {
      "amenity": "restaurant"
    }
  },
  {
    "type": "node",
    "id": 2463326618,
    "lat": 42.6314235,
    "lon": -7.6719653,
    "timestamp": "2013-09-18T21:02:42Z",
    "version": 1,
    "changeset": 17913700,
    "user": "JMarinho",
    "uid": 1749439,
    "tags": {
      "addr:city": "O Savinhao",
      "addr:postcode": "27547",
      "amenity": "restaurant",
      "cuisine": "regional",
      "name": "A Cantina de Vilelos"
    }
  },
  {
    "type": "node",
    "id": 2467473516,
    "lat": 42.80742,
    "lon": -7.6177731,
    "timestamp": "2021-04-10T16:31:29Z",
    "version": 7,
    "changeset": 102706558,
    "user": "mtmail",
    "uid": 8339,
    "tags": {
      "addr:city": "Portomarín",
      "addr:housenumber": "2",
      "addr:postcode": "27170",
      "amenity": "restaurant",
      "cuisine": "galician",
      "email": "pensionperez@gmail.com",
      "name": "Restaurante Pérez",
      "note": "Cocina gallega casera",
      "phone": "+34 982545040",
      "wheelchair": "yes"
    }
  },
  {
    "type": "node",
    "id": 2467767516,
    "lat": 42.9771408,
    "lon": -7.5172663,
    "timestamp": "2016-08-15T20:29:00Z",
    "version": 3,
    "changeset": 41475992,
    "user": "Arias Millán",
    "uid": 2801496,
    "tags": {
      "amenity": "restaurant",
      "name": "Torre de Núñez",
      "toilets:wheelchair": "yes",
      "wheelchair": "yes"
    }
  },
  {
    "type": "node",
    "id": 2549285780,
    "lat": 42.3284841,
    "lon": -8.0105471,
    "timestamp": "2014-04-28T22:00:10Z",
    "version": 2,
    "changeset": 22010930,
    "user": "odce72",
    "uid": 1244396,
    "tags": {
      "amenity": "restaurant",
      "name": "Mesón Boavista"
    }
  },
  {
    "type": "node",
    "id": 2587573912,
    "lat": 42.786435,
    "lon": -7.880157,
    "timestamp": "2013-12-20T08:54:58Z",
    "version": 1,
    "changeset": 19546128,
    "user": "bulebule",
    "uid": 1827805,
    "tags": {
      "amenity": "restaurant",
      "name": "Restaurante Val"
    }
  },
  {
    "type": "node",
    "id": 2630165160,
    "lat": 42.1118975,
    "lon": -8.2568693,
    "timestamp": "2017-10-17T23:47:48Z",
    "version": 3,
    "changeset": 53027304,
    "user": "zermes",
    "uid": 2678365,
    "tags": {
      "addr:city": "Melgaço",
      "addr:housenumber": "357",
      "addr:postcode": "4960-562",
      "addr:street": "Rua Doutor Augusto César Esteves",
      "amenity": "restaurant",
      "name": "Pizzaria Luigi 2",
      "phone": "251401130"
    }
  },
  {
    "type": "node",
    "id": 2688825067,
    "lat": 42.1087531,
    "lon": -8.263044,
    "timestamp": "2016-01-25T00:13:12Z",
    "version": 4,
    "changeset": 36786913,
    "user": "achaves",
    "uid": 2537637,
    "tags": {
      "amenity": "restaurant",
      "name": "Pizzaria Escorpião",
      "phone": "+351251401131"
    }
  },
  {
    "type": "node",
    "id": 2750752761,
    "lat": 42.9286442,
    "lon": -8.1562863,
    "timestamp": "2024-09-18T15:05:45Z",
    "version": 4,
    "changeset": 156778297,
    "user": "Blauwdruk",
    "uid": 4517210,
    "tags": {
      "amenity": "restaurant",
      "indoor_seating": "yes",
      "name": "Pulpería Encontro",
      "outdoor_seating": "yes"
    }
  },
  {
    "type": "node",
    "id": 2750752764,
    "lat": 42.7712144,
    "lon": -7.4667136,
    "timestamp": "2024-09-15T17:20:27Z",
    "version": 2,
    "changeset": 156657375,
    "user": "Blauwdruk",
    "uid": 4517210,
    "tags": {
      "amenity": "restaurant",
      "indoor_seating": "yes",
      "name": "Taberna",
      "outdoor_seating": "yes"
    }
  },
  {
    "type": "node",
    "id": 2779280770,
    "lat": 42.4518937,
    "lon": -7.924747,
    "timestamp": "2014-04-09T15:02:29Z",
    "version": 2,
    "changeset": 21590821,
    "user": "odce72",
    "uid": 1244396,
    "tags": {
      "amenity": "restaurant",
      "cuisine": "regional",
      "name": "Casa Testa"
    }
  },
  {
    "type": "node",
    "id": 2822534615,
    "lat": 42.113172,
    "lon": -8.2593027,
    "timestamp": "2022-06-18T18:45:40Z",
    "version": 3,
    "changeset": 122557068,
    "user": "AntonioLago",
    "uid": 11626760,
    "tags": {
      "amenity": "restaurant",
      "name": "Adega Sabino",
      "outdoor_seating": "yes"
    }
  },
  {
    "type": "node",
    "id": 2870961291,
    "lat": 42.9598775,
    "lon": -7.7283585,
    "timestamp": "2024-08-14T17:40:56Z",
    "version": 2,
    "changeset": 155252483,
    "user": "Rodrigo Rega",
    "uid": 32529,
    "tags": {
      "amenity": "restaurant",
      "name": "Taberna Rodrigo"
    }
  },
  {
    "type": "node",
    "id": 2883887904,
    "lat": 42.9943555,
    "lon": -7.5539742,
    "timestamp": "2021-02-16T16:17:39Z",
    "version": 2,
    "changeset": 99394237,
    "user": "Johnbo",
    "uid": 915796,
    "tags": {
      "addr:city": "Lugo",
      "addr:postcode": "27002",
      "addr:street": "Rúa Alfonso X o Sabio",
      "amenity": "restaurant",
      "cuisine": "regional",
      "name": "Cafeteria Monterrey"
    }
  },
  {
    "type": "node",
    "id": 2895015134,
    "lat": 42.9520014,
    "lon": -7.4605425,
    "timestamp": "2014-06-02T08:29:41Z",
    "version": 1,
    "changeset": 22688805,
    "user": "jenizaro",
    "uid": 1944744,
    "tags": {
      "amenity": "restaurant",
      "cuisine": "regional",
      "name": "Santa Mariña"
    }
  },
  {
    "type": "node",
    "id": 2931043653,
    "lat": 42.9513881,
    "lon": -7.4866333,
    "timestamp": "2022-12-29T16:54:01Z",
    "version": 5,
    "changeset": 130654839,
    "user": "Rodrigo Rega",
    "uid": 32529,
    "tags": {
      "addr:city": "Lugo",
      "addr:postcode": "27161",
      "amenity": "restaurant",
      "capacity": "60",
      "cuisine": "regional",
      "name": "Mazo de Santa Comba",
      "nohousenumber": "yes",
      "opening_hours": "Mo 12:00-16:00; We-Su 12:00-16:00,20:00-23:00",
      "phone": "+34 982304577",
      "smoking": "outside",
      "website": "https://mazodesantacomba.com/"
    }
  },
  {
    "type": "node",
    "id": 2996291075,
    "lat": 42.3109318,
    "lon": -7.8011254,
    "timestamp": "2014-08-04T17:46:42Z",
    "version": 1,
    "changeset": 24540483,
    "user": "xavi5",
    "uid": 2201799,
    "tags": {
      "amenity": "restaurant",
      "name": "Hotel-Restaurante Pazo de Monterrei"
    }
  },
  {
    "type": "node",
    "id": 3033569858,
    "lat": 42.9946343,
    "lon": -7.5505386,
    "timestamp": "2024-10-29T09:39:04Z",
    "version": 6,
    "changeset": 158489340,
    "user": "kapazao_import",
    "uid": 8770019,
    "tags": {
      "addr:city": "Lugo",
      "addr:housenumber": "134",
      "addr:postcode": "27002",
      "addr:street": "Avenida de Magoi",
      "amenity": "restaurant",
      "contact:facebook": "https://www.facebook.com/people/Puro-cubano/100063815522752/",
      "contact:phone": "+34 982 32 79 05",
      "cuisine": "cuban",
      "level": "1",
      "name": "Puro cubano",
      "old_name": "Oh mi Habana"
    }
  },
  {
    "type": "node",
    "id": 3074720346,
    "lat": 42.1675019,
    "lon": -7.9395059,
    "timestamp": "2014-09-13T10:00:13Z",
    "version": 1,
    "changeset": 25407845,
    "user": "paumoso",
    "uid": 2320470,
    "tags": {
      "amenity": "restaurant",
      "cuisine": "regional",
      "name": "O molino do Chirlo"
    }
  },
  {
    "type": "node",
    "id": 3151532012,
    "lat": 42.330552,
    "lon": -7.8631411,
    "timestamp": "2023-02-08T20:06:41Z",
    "version": 5,
    "changeset": 132274187,
    "user": "sanchi",
    "uid": 170106,
    "tags": {
      "addr:city": "Ourense",
      "addr:housenumber": "18",
      "addr:postcode": "32005",
      "addr:street": "Rúa da Coruña",
      "amenity": "restaurant",
      "cuisine": "pizza",
      "name": "Rocko Pizza",
      "phone": "+34988244444",
      "website": "https://www.rockopizza.com/"
    }
  },
  {
    "type": "node",
    "id": 3151721395,
    "lat": 42.6914488,
    "lon": -8.1523084,
    "timestamp": "2019-11-05T16:35:43Z",
    "version": 2,
    "changeset": 76658402,
    "user": "MapMakerGal",
    "uid": 7579660,
    "tags": {
      "amenity": "restaurant",
      "cuisine": "regional",
      "name": "Fogar de Breogán"
    }
  },
  {
    "type": "node",
    "id": 3282032366,
    "lat": 42.9909238,
    "lon": -7.5384002,
    "timestamp": "2015-01-11T13:47:57Z",
    "version": 1,
    "changeset": 28062466,
    "user": "castedo",
    "uid": 1943496,
    "tags": {
      "amenity": "restaurant",
      "cuisine": "regional",
      "name": "Casa María"
    }
  },
  {
    "type": "node",
    "id": 3665044576,
    "lat": 42.9562161,
    "lon": -7.4408244,
    "timestamp": "2015-07-24T20:09:49Z",
    "version": 1,
    "changeset": 32859138,
    "user": "polkillas",
    "uid": 42055,
    "tags": {
      "amenity": "restaurant",
      "name": "Parrillada Río Chamoso"
    }
  },
  {
    "type": "node",
    "id": 3703408948,
    "lat": 42.3433738,
    "lon": -7.8578036,
    "timestamp": "2023-02-08T20:06:41Z",
    "version": 5,
    "changeset": 132274187,
    "user": "sanchi",
    "uid": 170106,
    "tags": {
      "addr:city": "Ourense",
      "addr:housenumber": "16 B",
      "addr:street": "Rúa Doutor Temes",
      "amenity": "restaurant",
      "cuisine": "pizza",
      "name": "Rebusca 46",
      "phone": "+34 988 101 941"
    }
  },
  {
    "type": "node",
    "id": 3768658228,
    "lat": 42.671557,
    "lon": -8.1478417,
    "timestamp": "2015-10-02T09:30:27Z",
    "version": 1,
    "changeset": 34384811,
    "user": "rudi_2008",
    "uid": 88134,
    "tags": {
      "amenity": "restaurant",
      "name": "Bar, Restaurante"
    }
  },
  {
    "type": "node",
    "id": 3774820300,
    "lat": 42.9927336,
    "lon": -7.542492,
    "timestamp": "2024-09-04T10:26:37Z",
    "version": 3,
    "changeset": 156179079,
    "user": "pecege3",
    "uid": 18748253,
    "tags": {
      "amenity": "restaurant",
      "name": "Beach Solpor Humanidades - Lugo"
    }
  },
  {
    "type": "node",
    "id": 3778503594,
    "lat": 42.9749793,
    "lon": -7.5350237,
    "timestamp": "2022-01-17T14:29:30Z",
    "version": 2,
    "changeset": 116257109,
    "user": "Monchinho",
    "uid": 2788764,
    "tags": {
      "amenity": "restaurant",
      "cuisine": "regional",
      "name": "Mesón Casa Julio"
    }
  },
  {
    "type": "node",
    "id": 3781335454,
    "lat": 42.8877724,
    "lon": -7.7013145,
    "timestamp": "2015-10-13T13:33:47Z",
    "version": 2,
    "changeset": 34611769,
    "user": "C-P-M",
    "uid": 1580969,
    "tags": {
      "amenity": "restaurant",
      "name": "Casa O Fidalgo"
    }
  },
  {
    "type": "node",
    "id": 3782603311,
    "lat": 42.9782836,
    "lon": -8.1362272,
    "timestamp": "2015-10-11T22:29:17Z",
    "version": 1,
    "changeset": 34579458,
    "user": "ottokar55",
    "uid": 101355,
    "tags": {
      "amenity": "restaurant",
      "name": "Mesón A Mella"
    }
  },
  {
    "type": "node",
    "id": 3782924231,
    "lat": 42.3832069,
    "lon": -7.5682772,
    "timestamp": "2017-04-09T12:34:15Z",
    "version": 2,
    "changeset": 47592029,
    "user": "ansuta",
    "uid": 3188422,
    "tags": {
      "addr:housenumber": "6",
      "addr:postcode": "32740",
      "addr:street": "Plaza da Fonte",
      "amenity": "restaurant",
      "name": "O Curtiñeiro",
      "phone": "+34619020701"
    }
  },
  {
    "type": "node",
    "id": 3782924234,
    "lat": 42.3830458,
    "lon": -7.571131,
    "timestamp": "2024-09-16T15:25:28Z",
    "version": 3,
    "changeset": 156693670,
    "user": "wryneck",
    "uid": 5380433,
    "tags": {
      "amenity": "restaurant",
      "name": "A Cachoperia"
    }
  },
  {
    "type": "node",
    "id": 3785764199,
    "lat": 42.9221571,
    "lon": -8.2757631,
    "timestamp": "2015-10-14T06:04:05Z",
    "version": 1,
    "changeset": 34626297,
    "user": "ottokar55",
    "uid": 101355,
    "tags": {
      "amenity": "restaurant",
      "internet_access": "wlan",
      "internet_access:fee": "no",
      "name": "Albergue Turístico Salceda"
    }
  },
  {
    "type": "node",
    "id": 3785764200,
    "lat": 42.9993166,
    "lon": -8.1352263,
    "timestamp": "2023-01-11T21:23:37Z",
    "version": 3,
    "changeset": 131162632,
    "user": "ydubras",
    "uid": 17421650,
    "tags": {
      "amenity": "restaurant",
      "name": "Casa Moncho"
    }
  },
  {
    "type": "node",
    "id": 3823570424,
    "lat": 42.9312663,
    "lon": -8.1269184,
    "timestamp": "2022-07-05T13:40:08Z",
    "version": 2,
    "changeset": 123236317,
    "user": "ross-map",
    "uid": 8215303,
    "tags": {
      "amenity": "restaurant",
      "name": "Bar Manuel"
    }
  },
  {
    "type": "node",
    "id": 3859703426,
    "lat": 42.3375272,
    "lon": -7.8641431,
    "timestamp": "2018-12-03T12:37:02Z",
    "version": 2,
    "changeset": 65123629,
    "user": "juangarcia13",
    "uid": 8833916,
    "tags": {
      "addr:city": "Ourense",
      "addr:postcode": "32001",
      "addr:street": "Rúa Hermanos Villar",
      "amenity": "restaurant",
      "cuisine": "regional",
      "name": "Casa de María ANdrea",
      "opening_hours": "Mo-Su 10:00-22:00"
    }
  },
  {
    "type": "node",
    "id": 3859703432,
    "lat": 42.335678,
    "lon": -7.8631273,
    "timestamp": "2019-09-17T20:39:12Z",
    "version": 3,
    "changeset": 74598407,
    "user": "Iván_",
    "uid": 1773299,
    "tags": {
      "amenity": "restaurant",
      "name": "Tapa negra"
    }
  },
  {
    "type": "node",
    "id": 3925459881,
    "lat": 42.913203,
    "lon": -8.0116282,
    "timestamp": "2024-09-17T15:40:05Z",
    "version": 8,
    "changeset": 156735399,
    "user": "Blauwdruk",
    "uid": 4517210,
    "tags": {
      "addr:city": "Melide",
      "addr:country": "ES",
      "addr:housenumber": "2",
      "addr:postcode": "15800",
      "addr:province": "A Coruña",
      "addr:street": "Rúa Camiño Vello de Santiago",
      "amenity": "restaurant",
      "cuisine": "regional",
      "diet:vegetarian": "no",
      "email": "garnachamelide@gmail.com",
      "indoor_seating": "yes",
      "internet_access": "yes",
      "internet_access:fee": "no",
      "name": "Pulperia a Garnacha",
      "outdoor_seating": "yes",
      "phone": "+34 981 507 347",
      "smoking": "no",
      "source": "survey",
      "website": "https://pulperiaagarnacha.com/"
    }
  },
  {
    "type": "node",
    "id": 3934492490,
    "lat": 42.5569649,
    "lon": -7.3932506,
    "timestamp": "2023-12-09T15:36:22Z",
    "version": 3,
    "changeset": 144938967,
    "user": "Monchinho",
    "uid": 2788764,
    "tags": {
      "amenity": "restaurant",
      "name": "Avenida"
    }
  },
  {
    "type": "node",
    "id": 3940383827,
    "lat": 42.7886567,
    "lon": -7.5687307,
    "timestamp": "2024-09-15T17:21:44Z",
    "version": 2,
    "changeset": 156657417,
    "user": "Blauwdruk",
    "uid": 4517210,
    "tags": {
      "amenity": "restaurant",
      "indoor_seating": "yes",
      "name": "Restaurante Mercadoiro",
      "outdoor_seating": "yes"
    }
  },
  {
    "type": "node",
    "id": 3981542819,
    "lat": 42.7325441,
    "lon": -7.3253444,
    "timestamp": "2021-08-17T18:59:49Z",
    "version": 3,
    "changeset": 109829597,
    "user": "edvac",
    "uid": 121415,
    "tags": {
      "amenity": "restaurant",
      "cuisine": "spanish;regional",
      "name": "Tras do Convento",
      "outdoor_seating": "yes",
      "smoking": "outside",
      "source": "survey"
    }
  },
  {
    "type": "node",
    "id": 4029763091,
    "lat": 42.9136336,
    "lon": -8.0168336,
    "timestamp": "2016-02-27T13:17:08Z",
    "version": 1,
    "changeset": 37481047,
    "user": "edvac",
    "uid": 121415,
    "tags": {
      "amenity": "restaurant",
      "cuisine": "regional",
      "internet_access": "wlan",
      "internet_access:fee": "no",
      "microbrewery": "no",
      "name": "Adega Mandil",
      "outdoor_seating": "yes",
      "smoking": "no",
      "wheelchair": "no"
    }
  },
  {
    "type": "node",
    "id": 4030032678,
    "lat": 42.9134911,
    "lon": -8.0116146,
    "timestamp": "2019-03-02T15:46:00Z",
    "version": 2,
    "changeset": 67716596,
    "user": "MapMakerGal",
    "uid": 7579660,
    "tags": {
      "addr:city": "Melide",
      "addr:housenumber": "25",
      "addr:postcode": "15800",
      "addr:street": "Avenida de Lugo",
      "amenity": "restaurant",
      "cuisine": "italian",
      "name": "Pizzería Xoldra",
      "smoking": "no",
      "takeaway": "yes"
    }
  },
  {
    "type": "node",
    "id": 4033473192,
    "lat": 42.529927,
    "lon": -7.5047852,
    "timestamp": "2016-02-29T19:15:27Z",
    "version": 1,
    "changeset": 37528251,
    "user": "edvac",
    "uid": 121415,
    "tags": {
      "amenity": "restaurant",
      "cuisine": "regional",
      "name": "El cortijo",
      "smoking": "no"
    }
  },
  {
    "type": "node",
    "id": 4076043189,
    "lat": 42.1140063,
    "lon": -8.2594438,
    "timestamp": "2016-03-23T23:17:10Z",
    "version": 1,
    "changeset": 38030763,
    "user": "achaves",
    "uid": 2537637,
    "tags": {
      "addr:city": "Melgaço",
      "addr:country": "PT",
      "addr:housenumber": "30",
      "addr:street": "Rua Direita",
      "amenity": "restaurant",
      "cuisine": "portuguese",
      "name": "Cantinho do Adro"
    }
  },
  {
    "type": "node",
    "id": 4076043201,
    "lat": 42.1157904,
    "lon": -8.2614915,
    "timestamp": "2016-03-23T23:17:11Z",
    "version": 1,
    "changeset": 38030763,
    "user": "achaves",
    "uid": 2537637,
    "tags": {
      "amenity": "restaurant",
      "cuisine": "portuguese",
      "name": "Panorama"
    }
  },
  {
    "type": "node",
    "id": 4115156339,
    "lat": 42.8884377,
    "lon": -7.5215311,
    "timestamp": "2016-04-15T19:53:10Z",
    "version": 2,
    "changeset": 38601987,
    "user": "Rodrigo Rega",
    "uid": 32529,
    "tags": {
      "amenity": "restaurant",
      "cuisine": "fish;fine_dining;breakfast;grill;spanish;diner;seafood",
      "internet_access": "wlan",
      "name": "Restaurante A Fervenza",
      "website": "https://www.afervenza.com"
    }
  },
  {
    "type": "node",
    "id": 4203026815,
    "lat": 42.2893191,
    "lon": -7.8319761,
    "timestamp": "2016-05-23T20:44:10Z",
    "version": 1,
    "changeset": 39519224,
    "user": "Michampinion",
    "uid": 1465379,
    "tags": {
      "amenity": "restaurant",
      "name": "Restaurante Reboredo"
    }
  },
  {
    "type": "node",
    "id": 4254678097,
    "lat": 42.8786259,
    "lon": -7.9282252,
    "timestamp": "2024-09-17T15:39:00Z",
    "version": 2,
    "changeset": 156735263,
    "user": "Blauwdruk",
    "uid": 4517210,
    "tags": {
      "amenity": "restaurant",
      "indoor_seating": "yes",
      "name": "Die Zwei Deutschen",
      "outdoor_seating": "yes"
    }
  },
  {
    "type": "node",
    "id": 4277363089,
    "lat": 42.0278183,
    "lon": -8.15999,
    "timestamp": "2023-03-16T20:12:46Z",
    "version": 4,
    "changeset": 133763990,
    "user": "hvalentim",
    "uid": 705092,
    "tags": {
      "amenity": "restaurant",
      "name": "O Laboreiro"
    }
  },
  {
    "type": "node",
    "id": 4293033792,
    "lat": 42.260801,
    "lon": -7.3808236,
    "timestamp": "2020-11-12T19:38:59Z",
    "version": 3,
    "changeset": 94015543,
    "user": "mglbranco",
    "uid": 1712325,
    "tags": {
      "amenity": "restaurant",
      "name": "Café Bar Gerardo"
    }
  },
  {
    "type": "node",
    "id": 4319902089,
    "lat": 42.4236511,
    "lon": -8.0982925,
    "timestamp": "2016-07-25T17:19:24Z",
    "version": 1,
    "changeset": 41017954,
    "user": "eva-p",
    "uid": 4211308,
    "tags": {
      "amenity": "restaurant",
      "name": "Café Restaurante A Maquía"
    }
  },
  {
    "type": "node",
    "id": 4321191816,
    "lat": 42.8079939,
    "lon": -7.6149162,
    "timestamp": "2024-09-16T06:43:13Z",
    "version": 2,
    "changeset": 156673392,
    "user": "Blauwdruk",
    "uid": 4517210,
    "tags": {
      "amenity": "restaurant",
      "indoor_seating": "yes",
      "name": "El Italiano",
      "outdoor_seating": "yes"
    }
  },
  {
    "type": "node",
    "id": 4321656818,
    "lat": 42.4234582,
    "lon": -8.0986064,
    "timestamp": "2023-02-28T13:01:45Z",
    "version": 2,
    "changeset": 133127806,
    "user": "5R-MFT",
    "uid": 3417876,
    "tags": {
      "amenity": "restaurant",
      "name": "A Maquia",
      "opening_hours": "Mo, We-Su 10:00-00:00; Tu 10:00-16:00"
    }
  },
  {
    "type": "node",
    "id": 4344149933,
    "lat": 42.5143305,
    "lon": -7.5200207,
    "timestamp": "2024-01-28T12:08:43Z",
    "version": 6,
    "changeset": 146775743,
    "user": "kapazao_import",
    "uid": 8770019,
    "tags": {
      "addr:city": "Monforte de Lemos",
      "addr:housenumber": "62",
      "addr:street": "Rúa Duquesa de Alba",
      "amenity": "restaurant",
      "capacity": "50",
      "cuisine": "fine_dining",
      "name": "Manuel's Bistro",
      "opening_hours": "21:00-23:59",
      "phone": "+34 982 402747",
      "smoking": "outside",
      "takeaway": "no",
      "website": "http://www.donmanuelbistro.com/bistro.html"
    }
  },
  {
    "type": "node",
    "id": 4344171139,
    "lat": 42.5215623,
    "lon": -7.5147448,
    "timestamp": "2016-08-10T09:47:26Z",
    "version": 1,
    "changeset": 41363744,
    "user": "RobWolves",
    "uid": 4392809,
    "tags": {
      "addr:city": "Monforte De Lemos",
      "addr:street": "Rua das Hortas",
      "amenity": "restaurant",
      "cuisine": "regional",
      "name": "Restaurante Cardenal",
      "smoking": "outside"
    }
  },
  {
    "type": "node",
    "id": 4344172165,
    "lat": 42.5214466,
    "lon": -7.513861,
    "timestamp": "2020-11-19T10:37:24Z",
    "version": 2,
    "changeset": 94429577,
    "user": "Rodrigo Rega",
    "uid": 32529,
    "tags": {
      "addr:city": "Monforte De Lemos",
      "addr:housenumber": "13",
      "addr:street": "Rúa do Cardeal Rodrigo de Castro",
      "amenity": "restaurant",
      "name": "Polar",
      "smoking": "outside"
    }
  },
  {
    "type": "node",
    "id": 4344195328,
    "lat": 42.5239394,
    "lon": -7.510181,
    "timestamp": "2016-08-10T10:07:33Z",
    "version": 1,
    "changeset": 41364087,
    "user": "RobWolves",
    "uid": 4392809,
    "tags": {
      "addr:city": "Monforte de Lemos",
      "addr:postcode": "27400",
      "addr:street": "Plaza Luis de Góngora y Argote",
      "amenity": "restaurant",
      "cuisine": "fine_dining",
      "name": "Restaurante de Parador"
    }
  },
  {
    "type": "node",
    "id": 4344204423,
    "lat": 42.5863102,
    "lon": -7.6394075,
    "timestamp": "2024-01-28T12:08:43Z",
    "version": 5,
    "changeset": 146775743,
    "user": "kapazao_import",
    "uid": 8770019,
    "tags": {
      "addr:city": "Escairón",
      "addr:street": "Praza de España",
      "amenity": "restaurant",
      "cuisine": "regional",
      "name": "Meson de Maruxa",
      "opening_hours": "8:30-23:59",
      "smoking": "outside"
    }
  },
  {
    "type": "node",
    "id": 4344220894,
    "lat": 42.5857886,
    "lon": -7.638968,
    "timestamp": "2019-07-14T09:25:13Z",
    "version": 2,
    "changeset": 72227510,
    "user": "MapMakerGal",
    "uid": 7579660,
    "tags": {
      "addr:city": "Escairón",
      "addr:housenumber": "11",
      "addr:street": "Praza de España",
      "amenity": "restaurant",
      "cuisine": "regional",
      "name": "Hotel O Ruso",
      "tourism": "hotel"
    }
  },
  {
    "type": "node",
    "id": 4344490406,
    "lat": 42.5229242,
    "lon": -7.5140296,
    "timestamp": "2023-08-17T10:07:21Z",
    "version": 3,
    "changeset": 140004719,
    "user": "Blecefe",
    "uid": 18798793,
    "tags": {
      "addr:city": "Monforte De Lemos",
      "addr:housenumber": "9",
      "addr:postcode": "27400",
      "addr:street": "Bajo, Praza Doutor Goyanes",
      "amenity": "restaurant",
      "cuisine": "regional",
      "name": "Canton de Bailen",
      "smoking": "outside",
      "website": "https://www.elcantondebailen.com/"
    }
  },
  {
    "type": "node",
    "id": 4363429491,
    "lat": 42.7465025,
    "lon": -8.0491008,
    "timestamp": "2019-07-13T07:30:14Z",
    "version": 3,
    "changeset": 72203834,
    "user": "sanchi",
    "uid": 170106,
    "tags": {
      "amenity": "restaurant",
      "name:gl": "Merendeiro do Arnego",
      "phone": "+34 986788059"
    }
  },
  {
    "type": "node",
    "id": 4382314942,
    "lat": 42.5192564,
    "lon": -7.5054022,
    "timestamp": "2016-09-03T15:28:40Z",
    "version": 1,
    "changeset": 41890970,
    "user": "edvac",
    "uid": 121415,
    "tags": {
      "amenity": "restaurant",
      "cuisine": "regional",
      "name": "Zürich",
      "smoking": "no",
      "source": "survey"
    }
  },
  {
    "type": "node",
    "id": 4404177692,
    "lat": 42.441248,
    "lon": -7.7966962,
    "timestamp": "2016-09-16T13:10:30Z",
    "version": 1,
    "changeset": 42202655,
    "user": "Chano Amado",
    "uid": 3790387,
    "tags": {
      "amenity": "restaurant",
      "cuisine": "fish;breakfast;grill;ice_cream;local;coffee_shop;steak_house;chicken;spanish;diner;barbecue;tapas",
      "name": "Mesón O Fabas",
      "name:es": "Mesón O Fabas",
      "opening_hours": "Mo-Su 10:00-22:00"
    }
  },
  {
    "type": "node",
    "id": 4406137291,
    "lat": 42.9908326,
    "lon": -7.5379339,
    "timestamp": "2020-06-24T22:51:52Z",
    "version": 3,
    "changeset": 87106380,
    "user": "Iago",
    "uid": 326947,
    "tags": {
      "addr:housenumber": "312",
      "addr:street": "Avenida de Madrid",
      "amenity": "restaurant",
      "contact:email": "reservas@casapacorestaurante.com",
      "contact:phone": "+34 982231039",
      "contact:website": "http://casapacorestaurante.com/",
      "cuisine": "spanish",
      "name": "Casa Paco",
      "name:es": "Casa Paco"
    }
  },
  {
    "type": "node",
    "id": 4422184889,
    "lat": 42.3512006,
    "lon": -7.8767374,
    "timestamp": "2022-03-10T18:19:51Z",
    "version": 5,
    "changeset": 118334575,
    "user": "sanchi",
    "uid": 170106,
    "tags": {
      "addr:city": "Ourense",
      "addr:housenumber": "4",
      "addr:postcode": "32001",
      "addr:street": "Rúa Beato Sabastián Aparicio",
      "amenity": "restaurant",
      "capacity": "200",
      "cuisine": "spanish;seafood;steak_house",
      "delivery": "no",
      "name": "Pulperìa Asador A Feira",
      "opening_hours": "Mo-Su 12:00-00:00",
      "phone": "+34988686628",
      "smoking": "separated",
      "takeaway": "no",
      "website": "https://www.restauranteafeira.com/"
    }
  },
  {
    "type": "node",
    "id": 4438927773,
    "lat": 42.2703165,
    "lon": -7.6493011,
    "timestamp": "2019-07-11T20:36:54Z",
    "version": 2,
    "changeset": 72152060,
    "user": "MapMakerGal",
    "uid": 7579660,
    "tags": {
      "amenity": "restaurant",
      "cuisine": "fish_and_chips",
      "name": "Polbeira"
    }
  },
  {
    "type": "node",
    "id": 4513951735,
    "lat": 42.931621,
    "lon": -7.6340367,
    "timestamp": "2016-11-21T16:59:21Z",
    "version": 1,
    "changeset": 43851769,
    "user": "EvaRivasPozo",
    "uid": 4871171,
    "tags": {
      "amenity": "restaurant",
      "cuisine": "regional",
      "name": "O' Picato"
    }
  },
  {
    "type": "node",
    "id": 4516833750,
    "lat": 42.6657153,
    "lon": -8.1157645,
    "timestamp": "2025-02-01T16:05:46Z",
    "version": 7,
    "changeset": 162016689,
    "user": "bread user",
    "uid": 19721493,
    "tags": {
      "addr:city": "Lalín",
      "addr:housenumber": "66",
      "addr:postcode": "36500",
      "addr:street": "Ponte",
      "air_conditioning": "yes",
      "amenity": "restaurant",
      "cuisine": "regional",
      "diet:vegan": "no",
      "diet:vegetarian": "yes",
      "indoor_seating": "yes",
      "name": "Parrillada Montoto",
      "opening_hours": "Mo off; Tu-Fr 08:30+; Sa,Su 09:30+",
      "outdoor_seating": "yes",
      "smoking": "outside"
    }
  },
  {
    "type": "node",
    "id": 4519590489,
    "lat": 42.0610002,
    "lon": -7.4620205,
    "timestamp": "2016-11-24T20:53:06Z",
    "version": 1,
    "changeset": 43931724,
    "user": "arte2002",
    "uid": 662113,
    "tags": {
      "amenity": "restaurant",
      "cuisine": "spanish",
      "name": "La Picota",
      "outdoor_seating": "yes"
    }
  },
  {
    "type": "node",
    "id": 4527379330,
    "lat": 42.2901525,
    "lon": -7.8356844,
    "timestamp": "2017-02-26T22:14:18Z",
    "version": 2,
    "changeset": 46427456,
    "user": "fropi",
    "uid": 1063525,
    "tags": {
      "amenity": "restaurant",
      "name": "Lalega"
    }
  },
  {
    "type": "node",
    "id": 4533039656,
    "lat": 42.5909761,
    "lon": -8.070356,
    "timestamp": "2016-12-02T01:30:37Z",
    "version": 1,
    "changeset": 44102021,
    "user": "arte2002",
    "uid": 662113,
    "tags": {
      "amenity": "restaurant"
    }
  },
  {
    "type": "node",
    "id": 4602517464,
    "lat": 42.7726085,
    "lon": -7.362671,
    "timestamp": "2017-06-28T14:29:50Z",
    "version": 2,
    "changeset": 49891232,
    "user": "jeslop",
    "uid": 275212,
    "tags": {
      "amenity": "restaurant",
      "cuisine": "spanish",
      "name": "Valle Aguiada"
    }
  },
  {
    "type": "node",
    "id": 4625157386,
    "lat": 42.6677651,
    "lon": -8.1188569,
    "timestamp": "2020-06-02T14:27:36Z",
    "version": 3,
    "changeset": 86085273,
    "user": "MapMakerGal",
    "uid": 7579660,
    "tags": {
      "addr:city": "Lalín",
      "addr:housenumber": "33",
      "addr:postcode": "36500",
      "addr:street": "Avd de Cruces",
      "amenity": "restaurant",
      "cuisine": "regional",
      "name": "Restaurante Suso",
      "outdoor_seating": "yes",
      "smoking": "no"
    }
  },
  {
    "type": "node",
    "id": 4686798126,
    "lat": 42.0601662,
    "lon": -7.4575187,
    "timestamp": "2017-02-15T12:20:35Z",
    "version": 1,
    "changeset": 46105041,
    "user": "fropi",
    "uid": 1063525,
    "tags": {
      "amenity": "restaurant",
      "name": "Restaurante Blanco Conde"
    }
  },
  {
    "type": "node",
    "id": 4693307428,
    "lat": 42.3313052,
    "lon": -8.0277477,
    "timestamp": "2017-02-19T10:01:35Z",
    "version": 1,
    "changeset": 46210745,
    "user": "edvac",
    "uid": 121415,
    "tags": {
      "addr:city": "Cenlle",
      "addr:country": "ES",
      "addr:province": "Ourense",
      "addr:street": "Laias",
      "amenity": "restaurant",
      "contact:phone": "+34 988280072",
      "cuisine": "regional",
      "name": "O Veleiro",
      "smoking": "outside"
    }
  },
  {
    "type": "node",
    "id": 4697373773,
    "lat": 42.159862,
    "lon": -7.6106903,
    "timestamp": "2020-11-14T16:45:53Z",
    "version": 2,
    "changeset": 94113080,
    "user": "MapMakerGal",
    "uid": 7579660,
    "tags": {
      "amenity": "restaurant",
      "name": "Mesón Manuel"
    }
  },
  {
    "type": "node",
    "id": 4783213732,
    "lat": 42.3537554,
    "lon": -7.9106007,
    "timestamp": "2022-02-17T14:27:20Z",
    "version": 2,
    "changeset": 117524439,
    "user": "Monchinho",
    "uid": 2788764,
    "tags": {
      "amenity": "restaurant",
      "name": "Tapería Muíño"
    }
  },
  {
    "type": "node",
    "id": 4783456550,
    "lat": 42.3740146,
    "lon": -7.4181267,
    "timestamp": "2025-04-13T16:19:30Z",
    "version": 4,
    "changeset": 164902865,
    "user": "Monchinho",
    "uid": 2788764,
    "tags": {
      "addr:housenumber": "22",
      "addr:street": "Avenida de Ourense",
      "amenity": "restaurant",
      "cuisine": "regional",
      "name": "Restaurante A Nosa Xente",
      "website": "https://anosaxentepallon2.com/"
    }
  },
  {
    "type": "node",
    "id": 4786088221,
    "lat": 42.3929334,
    "lon": -7.4396252,
    "timestamp": "2019-08-05T17:30:48Z",
    "version": 2,
    "changeset": 73034481,
    "user": "xavi5",
    "uid": 2201799,
    "tags": {
      "addr:street": "OU-903",
      "amenity": "restaurant",
      "name": "Casa Lelo",
      "name:es": "Casa Lelo"
    }
  },
  {
    "type": "node",
    "id": 4829049389,
    "lat": 42.3350235,
    "lon": -7.8592804,
    "timestamp": "2018-10-03T10:32:19Z",
    "version": 2,
    "changeset": 63154559,
    "user": "jeslop",
    "uid": 275212,
    "tags": {
      "amenity": "restaurant",
      "name": "A Granxa"
    }
  },
  {
    "type": "node",
    "id": 4829158859,
    "lat": 42.3340453,
    "lon": -7.8596966,
    "timestamp": "2019-10-12T16:22:52Z",
    "version": 2,
    "changeset": 75604596,
    "user": "MapMakerGal",
    "uid": 7579660,
    "tags": {
      "amenity": "restaurant"
    }
  },
  {
    "type": "node",
    "id": 4886180601,
    "lat": 42.5229102,
    "lon": -7.5152676,
    "timestamp": "2017-05-30T18:59:20Z",
    "version": 1,
    "changeset": 49112229,
    "user": "Nemigo",
    "uid": 650671,
    "tags": {
      "amenity": "restaurant",
      "name": "Trespés"
    }
  },
  {
    "type": "node",
    "id": 4897068353,
    "lat": 42.4181659,
    "lon": -7.4745494,
    "timestamp": "2023-11-09T05:01:29Z",
    "version": 5,
    "changeset": 143806028,
    "user": "b-jazz-bot",
    "uid": 9451067,
    "tags": {
      "amenity": "restaurant",
      "name": "Algueira Vinos S.L.",
      "website": "https://www.adegaalgueira.com/"
    }
  },
  {
    "type": "node",
    "id": 4900035821,
    "lat": 42.9500024,
    "lon": -7.8162756,
    "timestamp": "2024-08-14T13:26:39Z",
    "version": 8,
    "changeset": 155241150,
    "user": "A_Ku",
    "uid": 3423733,
    "tags": {
      "amenity": "restaurant",
      "cuisine": "spanish",
      "diet:vegetarian": "no",
      "indoor_seating": "yes",
      "name": "Cantina Ferreira",
      "name:es": "Cantina Ferreira",
      "opening_hours": "PH,Mo-Su 13:00-23:00",
      "outdoor_seating": "yes",
      "phone": "+34 608 987 085",
      "wheelchair": "yes"
    }
  },
  {
    "type": "node",
    "id": 4910185423,
    "lat": 42.0334984,
    "lon": -7.9741396,
    "timestamp": "2021-11-22T15:56:44Z",
    "version": 3,
    "changeset": 114104163,
    "user": "MapMakerGal",
    "uid": 7579660,
    "tags": {
      "amenity": "restaurant",
      "name": "Orellas",
      "name:es": "Orellas"
    }
  },
  {
    "type": "node",
    "id": 4940568722,
    "lat": 42.8088895,
    "lon": -7.6144839,
    "timestamp": "2017-06-28T14:50:17Z",
    "version": 1,
    "changeset": 49893246,
    "user": "Marion_Moseby",
    "uid": 5379200,
    "tags": {
      "amenity": "restaurant",
      "name": "Pazo de Berbetoros",
      "name:es": "Pazo de Berbetoros"
    }
  },
  {
    "type": "node",
    "id": 4940684928,
    "lat": 42.8074609,
    "lon": -7.6155995,
    "timestamp": "2024-09-16T06:43:15Z",
    "version": 2,
    "changeset": 156673392,
    "user": "Blauwdruk",
    "uid": 4517210,
    "tags": {
      "amenity": "restaurant",
      "indoor_seating": "yes",
      "name": "Arenas Porto",
      "name:es": "Arenas Porto",
      "outdoor_seating": "yes"
    }
  },
  {
    "type": "node",
    "id": 4940698021,
    "lat": 42.8077124,
    "lon": -7.6152954,
    "timestamp": "2024-09-16T06:43:14Z",
    "version": 2,
    "changeset": 156673392,
    "user": "Blauwdruk",
    "uid": 4517210,
    "tags": {
      "amenity": "restaurant",
      "indoor_seating": "yes",
      "name": "Xoanes",
      "name:es": "Xoanes",
      "outdoor_seating": "yes"
    }
  },
  {
    "type": "node",
    "id": 4944502228,
    "lat": 42.9267967,
    "lon": -8.1614182,
    "timestamp": "2024-09-18T15:06:13Z",
    "version": 6,
    "changeset": 156778297,
    "user": "Blauwdruk",
    "uid": 4517210,
    "tags": {
      "addr:city": "Arzúa",
      "addr:postcode": "15810",
      "addr:street": "Rúa da Cima do Lugar",
      "air_conditioning": "yes",
      "amenity": "restaurant",
      "cuisine": "pizza;coffee_shop;italian;mediterranean;european",
      "indoor_seating": "yes",
      "internet_access": "wlan",
      "name": "Il Fornaccio",
      "outdoor_seating": "yes",
      "phone": "+34981518505",
      "toilets": "yes"
    }
  },
  {
    "type": "node",
    "id": 4944505534,
    "lat": 42.9267512,
    "lon": -8.1626314,
    "timestamp": "2019-03-02T15:45:51Z",
    "version": 2,
    "changeset": 67716596,
    "user": "MapMakerGal",
    "uid": 7579660,
    "tags": {
      "amenity": "restaurant",
      "name": "O'Furancho D'Santiso",
      "name:es": "O'Furancho D'Santiso"
    }
  },
  {
    "type": "node",
    "id": 4944671521,
    "lat": 42.9268808,
    "lon": -8.1621635,
    "timestamp": "2019-03-02T15:45:53Z",
    "version": 2,
    "changeset": 67716596,
    "user": "MapMakerGal",
    "uid": 7579660,
    "tags": {
      "amenity": "restaurant",
      "name": "Venus",
      "name:es": "Venus"
    }
  },
  {
    "type": "node",
    "id": 4945344028,
    "lat": 42.9255039,
    "lon": -8.2729587,
    "timestamp": "2024-08-16T14:22:11Z",
    "version": 4,
    "changeset": 155330378,
    "user": "A_Ku",
    "uid": 3423733,
    "tags": {
      "amenity": "restaurant",
      "check_date": "2023-08-20",
      "cuisine": "regional",
      "name": "Bar O Curro",
      "opening_hours": "Mo-Sa 07:00-17:00",
      "phone": "+34 881 02 69 14"
    }
  },
  {
    "type": "node",
    "id": 4955572815,
    "lat": 42.3376519,
    "lon": -7.8644189,
    "timestamp": "2018-12-03T12:37:01Z",
    "version": 2,
    "changeset": 65123629,
    "user": "juangarcia13",
    "uid": 8833916,
    "tags": {
      "addr:city": "Ourense",
      "addr:postcode": "32001",
      "addr:street": "Rúa de San Miguel",
      "amenity": "restaurant",
      "capacity": "40",
      "cuisine": "regional;steak_house;spanish",
      "name": "Restaurante Monterrey",
      "opening_hours": "Mo-Su 09:00-21:00"
    }
  },
  {
    "type": "node",
    "id": 5032535895,
    "lat": 42.3405816,
    "lon": -7.8609154,
    "timestamp": "2019-08-12T10:18:06Z",
    "version": 2,
    "changeset": 73260854,
    "user": "sanchi",
    "uid": 170106,
    "tags": {
      "addr:street": "Calle de Ramón Cabanillas, 8, 32004 Orense, Ourense",
      "amenity": "restaurant",
      "name": "Restaurante Chino Gran Pekin",
      "opening_hours": "Mo-Su 11:30-16:30, 19:45-00:00",
      "phone": "+34 988 22 12 13",
      "website": "https://granpekin.com/"
    }
  },
  {
    "type": "node",
    "id": 5046774659,
    "lat": 42.7758361,
    "lon": -7.41227,
    "timestamp": "2017-08-20T19:11:43Z",
    "version": 1,
    "changeset": 51284408,
    "user": "edvac",
    "uid": 121415,
    "tags": {
      "amenity": "restaurant",
      "name": "Casa del barrio",
      "source": "survey"
    }
  },
  {
    "type": "node",
    "id": 5050385124,
    "lat": 42.7771374,
    "lon": -7.411459,
    "timestamp": "2025-04-02T09:45:20Z",
    "version": 4,
    "changeset": 164411780,
    "user": "edvac",
    "uid": 121415,
    "tags": {
      "amenity": "restaurant",
      "cuisine": "regional",
      "indoor_seating": "yes",
      "level": "0",
      "name": "Santiago",
      "outdoor_seating": "yes",
      "smoking": "outside"
    }
  },
  {
    "type": "node",
    "id": 5050385131,
    "lat": 42.7770687,
    "lon": -7.4114865,
    "timestamp": "2025-04-02T09:45:20Z",
    "version": 3,
    "changeset": 164411780,
    "user": "edvac",
    "uid": 121415,
    "tags": {
      "amenity": "restaurant",
      "cuisine": "regional",
      "indoor_seating": "yes",
      "name": "Mesón Roberto",
      "outdoor_seating": "yes",
      "smoking": "outside",
      "source": "survey"
    }
  },
  {
    "type": "node",
    "id": 5067148958,
    "lat": 42.7786328,
    "lon": -7.4109315,
    "timestamp": "2025-03-27T11:08:30Z",
    "version": 4,
    "changeset": 164158664,
    "user": "edvac",
    "uid": 121415,
    "tags": {
      "amenity": "restaurant",
      "check_date": "2024-10-29",
      "cuisine": "regional",
      "description": "Pulpería",
      "name": "Pulpería Luis",
      "takeaway": "yes",
      "toilets": "customers",
      "toilets:wheelchair": "yes",
      "wheelchair": "yes"
    }
  },
  {
    "type": "node",
    "id": 5071568492,
    "lat": 42.2997965,
    "lon": -7.5950309,
    "timestamp": "2022-01-21T14:48:25Z",
    "version": 3,
    "changeset": 116434986,
    "user": "Monchinho",
    "uid": 2788764,
    "tags": {
      "amenity": "restaurant",
      "name": "Restaurante Alto do Rodicio"
    }
  },
  {
    "type": "node",
    "id": 5207074617,
    "lat": 42.3377389,
    "lon": -7.8636984,
    "timestamp": "2023-04-15T13:30:10Z",
    "version": 4,
    "changeset": 134929445,
    "user": "wheelmap_visitor",
    "uid": 290680,
    "tags": {
      "addr:city": "Ourense",
      "addr:postcode": "32001",
      "addr:street": "Rúa de San Miguel",
      "amenity": "restaurant",
      "cuisine": "regional;steak_house;spanish",
      "name": "Pingallo",
      "opening_hours": "Mo-Su 09:00-21:00",
      "smoking": "no",
      "wheelchair": "limited"
    }
  },
  {
    "type": "node",
    "id": 5339182595,
    "lat": 42.9939722,
    "lon": -7.5531718,
    "timestamp": "2018-01-14T16:09:59Z",
    "version": 1,
    "changeset": 55435345,
    "user": "Iago",
    "uid": 326947,
    "tags": {
      "amenity": "restaurant",
      "name": "Tía Julia"
    }
  },
  {
    "type": "node",
    "id": 5340669224,
    "lat": 42.104626,
    "lon": -8.2867751,
    "timestamp": "2018-01-15T11:58:36Z",
    "version": 1,
    "changeset": 55460121,
    "user": "Daniel Goncalves",
    "uid": 7464231,
    "tags": {
      "amenity": "restaurant",
      "cuisine": "portuguese",
      "name": "Adega do sossego"
    }
  },
  {
    "type": "node",
    "id": 5420148221,
    "lat": 42.9129556,
    "lon": -8.011412,
    "timestamp": "2019-03-02T15:46:00Z",
    "version": 2,
    "changeset": 67716596,
    "user": "MapMakerGal",
    "uid": 7579660,
    "tags": {
      "amenity": "restaurant",
      "name": "Pizzeria Atenas"
    }
  },
  {
    "type": "node",
    "id": 5455039471,
    "lat": 42.5166824,
    "lon": -7.5160237,
    "timestamp": "2018-03-04T19:28:37Z",
    "version": 1,
    "changeset": 56879457,
    "user": "Jorge Rivas",
    "uid": 104877,
    "tags": {
      "amenity": "restaurant",
      "name": "Restaurante JM"
    }
  },
  {
    "type": "node",
    "id": 5605045958,
    "lat": 42.4177216,
    "lon": -7.6859326,
    "timestamp": "2024-09-16T09:26:06Z",
    "version": 3,
    "changeset": 156679027,
    "user": "etgg",
    "uid": 714908,
    "tags": {
      "amenity": "restaurant",
      "name": "Restaurante dos Abades"
    }
  },
  {
    "type": "node",
    "id": 5607473837,
    "lat": 42.4108416,
    "lon": -7.7271287,
    "timestamp": "2022-01-18T10:04:19Z",
    "version": 2,
    "changeset": 116290552,
    "user": "Robertotrs",
    "uid": 14876432,
    "tags": {
      "amenity": "restaurant",
      "name": "O Afiador"
    }
  },
  {
    "type": "node",
    "id": 5607473838,
    "lat": 42.4109215,
    "lon": -7.7272111,
    "timestamp": "2022-01-18T10:04:19Z",
    "version": 2,
    "changeset": 116290552,
    "user": "Robertotrs",
    "uid": 14876432,
    "tags": {
      "amenity": "restaurant",
      "name": "Campanario"
    }
  },
  {
    "type": "node",
    "id": 5607473840,
    "lat": 42.4107823,
    "lon": -7.7270276,
    "timestamp": "2022-01-18T10:04:19Z",
    "version": 2,
    "changeset": 116290552,
    "user": "Robertotrs",
    "uid": 14876432,
    "tags": {
      "amenity": "restaurant",
      "name": "Os Corsos"
    }
  },
  {
    "type": "node",
    "id": 5607505787,
    "lat": 42.4118651,
    "lon": -7.7266884,
    "timestamp": "2018-05-09T20:53:09Z",
    "version": 2,
    "changeset": 58832349,
    "user": "Creando",
    "uid": 132740,
    "tags": {
      "amenity": "restaurant",
      "name": "Olegario"
    }
  },
  {
    "type": "node",
    "id": 5609333805,
    "lat": 42.3357576,
    "lon": -7.8629165,
    "timestamp": "2018-05-10T12:21:16Z",
    "version": 1,
    "changeset": 58848967,
    "user": "Creando",
    "uid": 132740,
    "tags": {
      "amenity": "restaurant",
      "name": "Bacelo"
    }
  },
  {
    "type": "node",
    "id": 5609594652,
    "lat": 42.335262,
    "lon": -7.864856,
    "timestamp": "2018-05-10T14:34:38Z",
    "version": 1,
    "changeset": 58852512,
    "user": "Creando",
    "uid": 132740,
    "tags": {
      "amenity": "restaurant",
      "name": "Aldea da Grella"
    }
  },
  {
    "type": "node",
    "id": 5609594654,
    "lat": 42.3352432,
    "lon": -7.865555,
    "timestamp": "2018-05-10T14:34:38Z",
    "version": 1,
    "changeset": 58852512,
    "user": "Creando",
    "uid": 132740,
    "tags": {
      "amenity": "restaurant",
      "cuisine": "chinese",
      "name": "Gran Muralla"
    }
  },
  {
    "type": "node",
    "id": 5611391817,
    "lat": 42.3754005,
    "lon": -7.4160977,
    "timestamp": "2021-09-29T16:14:56Z",
    "version": 2,
    "changeset": 111875282,
    "user": "MapMakerGal",
    "uid": 7579660,
    "tags": {
      "amenity": "restaurant",
      "name": "Caldelas Sacra"
    }
  },
  {
    "type": "node",
    "id": 5644400824,
    "lat": 42.9140465,
    "lon": -8.0162616,
    "timestamp": "2023-06-11T12:41:50Z",
    "version": 2,
    "changeset": 137203449,
    "user": "Monchinho",
    "uid": 2788764,
    "tags": {
      "amenity": "restaurant",
      "name": "Dúas Rúas"
    }
  },
  {
    "type": "node",
    "id": 5761765161,
    "lat": 42.3866081,
    "lon": -7.4884427,
    "timestamp": "2023-09-21T20:23:53Z",
    "version": 2,
    "changeset": 141576724,
    "user": "Hugoren Martinako",
    "uid": 3392826,
    "tags": {
      "amenity": "restaurant",
      "email": "info@casagrandecristosende.es",
      "fixme:es": "revisar etiquetado con web",
      "name": "Casa Grande de Cristosende",
      "phone": "+34 988 207 529",
      "tourism": "hostel",
      "website": "https://www.casagrandecristosende.es/"
    }
  },
  {
    "type": "node",
    "id": 5844443613,
    "lat": 42.7649019,
    "lon": -8.2561123,
    "timestamp": "2018-08-20T18:08:09Z",
    "version": 1,
    "changeset": 61831827,
    "user": "Luiyo",
    "uid": 316694,
    "tags": {
      "amenity": "restaurant"
    }
  },
  {
    "type": "node",
    "id": 5844861550,
    "lat": 42.2871689,
    "lon": -8.1448661,
    "timestamp": "2024-11-15T20:26:24Z",
    "version": 2,
    "changeset": 159186122,
    "user": "Robin Raw",
    "uid": 22175771,
    "tags": {
      "amenity": "restaurant",
      "cuisine": "coffee_shop;burger;regional",
      "name": "La Comanda"
    }
  },
  {
    "type": "node",
    "id": 5844861575,
    "lat": 42.2875946,
    "lon": -8.1432408,
    "timestamp": "2022-12-15T20:11:12Z",
    "version": 3,
    "changeset": 130129662,
    "user": "insbdp00",
    "uid": 1856039,
    "tags": {
      "addr:city": "Ribadavia",
      "addr:housenumber": "1",
      "addr:postcode": "32400",
      "addr:street": "Rúa Merelles Caula",
      "amenity": "restaurant",
      "cuisine": "tapas",
      "name": "Terral - Vinoteca & Tapería",
      "phone": "+34 657 618 964"
    }
  },
  {
    "type": "node",
    "id": 5851420407,
    "lat": 42.1889575,
    "lon": -7.8043259,
    "timestamp": "2018-08-23T13:13:37Z",
    "version": 1,
    "changeset": 61921327,
    "user": "DNanín",
    "uid": 8675435,
    "tags": {
      "amenity": "restaurant",
      "name": "Portovello"
    }
  },
  {
    "type": "node",
    "id": 5851420408,
    "lat": 42.1884681,
    "lon": -7.8041975,
    "timestamp": "2024-06-28T10:28:37Z",
    "version": 2,
    "changeset": 153286012,
    "user": "Monchinho",
    "uid": 2788764,
    "tags": {
      "amenity": "restaurant",
      "name": "A Cea da Costa"
    }
  },
  {
    "type": "node",
    "id": 5851420410,
    "lat": 42.1933429,
    "lon": -7.7919966,
    "timestamp": "2018-08-23T13:13:37Z",
    "version": 1,
    "changeset": 61921327,
    "user": "DNanín",
    "uid": 8675435,
    "tags": {
      "amenity": "restaurant",
      "name": "Limia"
    }
  },
  {
    "type": "node",
    "id": 5851420411,
    "lat": 42.1925447,
    "lon": -7.7929601,
    "timestamp": "2018-08-23T13:13:37Z",
    "version": 1,
    "changeset": 61921327,
    "user": "DNanín",
    "uid": 8675435,
    "tags": {
      "amenity": "restaurant",
      "name": "O Mirador"
    }
  },
  {
    "type": "node",
    "id": 5916152292,
    "lat": 42.190018,
    "lon": -7.8015506,
    "timestamp": "2024-10-01T17:29:02Z",
    "version": 2,
    "changeset": 157349989,
    "user": "aitorfreire",
    "uid": 391464,
    "tags": {
      "addr:street": "Rúa da Cruz",
      "amenity": "restaurant",
      "email": "info@opepinho.com",
      "name": "O Pepiño de Allariz",
      "phone": "+34 988 442 530"
    }
  },
  {
    "type": "node",
    "id": 5952193385,
    "lat": 42.3344045,
    "lon": -7.4896796,
    "timestamp": "2018-10-03T18:33:05Z",
    "version": 1,
    "changeset": 63170471,
    "user": "ainoah",
    "uid": 3815665,
    "tags": {
      "amenity": "restaurant",
      "name": "Hotel Restaurante Vallilongo"
    }
  },
  {
    "type": "node",
    "id": 5969235585,
    "lat": 42.1895976,
    "lon": -7.8011241,
    "timestamp": "2018-10-09T13:48:33Z",
    "version": 1,
    "changeset": 63347368,
    "user": "JoelMorella",
    "uid": 4698069,
    "tags": {
      "amenity": "restaurant",
      "name": "Fio de liño"
    }
  },
  {
    "type": "node",
    "id": 5983489018,
    "lat": 42.9854489,
    "lon": -7.5818445,
    "timestamp": "2018-10-20T19:29:44Z",
    "version": 2,
    "changeset": 63712643,
    "user": "Rodrigo Rega",
    "uid": 32529,
    "tags": {
      "addr:postcode": "27294",
      "addr:street": "Estrada Vella de Santiago",
      "amenity": "restaurant",
      "cuisine": "regional",
      "internet_access": "wlan",
      "name": "Taberna do Xesús",
      "opening_hours": "Tu-Su 10:00-00:00",
      "phone": "+34 982254184"
    }
  },
  {
    "type": "node",
    "id": 6028170571,
    "lat": 42.609,
    "lon": -8.1319189,
    "timestamp": "2018-10-31T20:31:31Z",
    "version": 1,
    "changeset": 64059112,
    "user": "edvac",
    "uid": 121415,
    "tags": {
      "amenity": "restaurant",
      "cuisine": "regional",
      "name": "Casa do Patrón",
      "smoking": "no",
      "source": "local_knowledge"
    }
  },
  {
    "type": "node",
    "id": 6039178119,
    "lat": 42.3467383,
    "lon": -7.8685273,
    "timestamp": "2025-04-21T17:56:34Z",
    "version": 4,
    "changeset": 165252213,
    "user": "Monchinho",
    "uid": 2788764,
    "tags": {
      "addr:city": "Ourense",
      "addr:postcode": "32001",
      "addr:street": "Avenida das Caldas",
      "amenity": "restaurant",
      "cuisine": "pizza;italian;regional;burger",
      "name": "Piko Loko",
      "opening_hours": "Mo-Su 09:00-23:00",
      "outdoor_seating": "yes",
      "smoking": "outside",
      "takeaway": "yes"
    }
  },
  {
    "type": "node",
    "id": 6068673743,
    "lat": 42.7628619,
    "lon": -8.0187894,
    "timestamp": "2018-11-17T14:59:37Z",
    "version": 1,
    "changeset": 64598074,
    "user": "mglbranco",
    "uid": 1712325,
    "tags": {
      "amenity": "restaurant",
      "description": "Viños e comidas.",
      "name": "Casa Costa"
    }
  },
  {
    "type": "node",
    "id": 6068673947,
    "lat": 42.7619647,
    "lon": -8.0188061,
    "timestamp": "2018-11-17T14:59:39Z",
    "version": 1,
    "changeset": 64598074,
    "user": "mglbranco",
    "uid": 1712325,
    "tags": {
      "amenity": "restaurant",
      "name": "Casa Olivia"
    }
  },
  {
    "type": "node",
    "id": 6093006207,
    "lat": 42.7937839,
    "lon": -8.170741,
    "timestamp": "2023-11-15T12:44:11Z",
    "version": 2,
    "changeset": 144050271,
    "user": "Tolemia",
    "uid": 20586745,
    "tags": {
      "amenity": "restaurant",
      "name": "Casa Castro"
    }
  },
  {
    "type": "node",
    "id": 6093006326,
    "lat": 42.7944605,
    "lon": -8.1700409,
    "timestamp": "2023-11-14T16:19:31Z",
    "version": 3,
    "changeset": 144017325,
    "user": "jeslop",
    "uid": 275212,
    "tags": {
      "addr:city": "Vila De Cruces",
      "addr:housenumber": "19",
      "addr:postcode": "36590",
      "addr:street": "Rúa de Manuel Iglesias",
      "amenity": "restaurant",
      "cuisine": "coffee_shop;spanish;gallega",
      "name": "Casa Don Din",
      "phone": "+34 986 59 26 08"
    }
  },
  {
    "type": "node",
    "id": 6112686674,
    "lat": 42.9148788,
    "lon": -8.0162724,
    "timestamp": "2018-12-03T10:18:55Z",
    "version": 1,
    "changeset": 65119510,
    "user": "mglbranco",
    "uid": 1712325,
    "tags": {
      "amenity": "restaurant",
      "name": "Casa Concha de Senín"
    }
  },
  {
    "type": "node",
    "id": 6186619185,
    "lat": 42.3374133,
    "lon": -7.8639096,
    "timestamp": "2020-04-25T17:28:51Z",
    "version": 4,
    "changeset": 84115337,
    "user": "Heitor Real",
    "uid": 631452,
    "tags": {
      "addr:street": "Praza Eironciño dos Cabaleiros",
      "amenity": "restaurant",
      "name": "O Queixo Mesón"
    }
  },
  {
    "type": "node",
    "id": 6187853985,
    "lat": 42.3430763,
    "lon": -7.8726439,
    "timestamp": "2019-01-06T14:10:29Z",
    "version": 1,
    "changeset": 66070849,
    "user": "xoconde",
    "uid": 6454270,
    "tags": {
      "amenity": "restaurant",
      "internet_access": "wlan",
      "name": "Mesón do Manolo"
    }
  },
  {
    "type": "node",
    "id": 6226094915,
    "lat": 42.1867765,
    "lon": -7.7983945,
    "timestamp": "2019-01-21T22:58:45Z",
    "version": 1,
    "changeset": 66520845,
    "user": "DNanín",
    "uid": 8675435,
    "tags": {
      "amenity": "restaurant",
      "name": "Alarico"
    }
  },
  {
    "type": "node",
    "id": 6445068050,
    "lat": 42.4621496,
    "lon": -7.5853791,
    "timestamp": "2019-05-10T16:51:20Z",
    "version": 2,
    "changeset": 70117314,
    "user": "Elías Gago",
    "uid": 8064494,
    "tags": {
      "amenity": "restaurant",
      "name": "Restaurante Parada"
    }
  },
  {
    "type": "node",
    "id": 6472250793,
    "lat": 42.7774483,
    "lon": -7.4138159,
    "timestamp": "2019-05-14T10:32:30Z",
    "version": 1,
    "changeset": 70226818,
    "user": "MariaMh",
    "uid": 9944958,
    "tags": {
      "amenity": "restaurant",
      "name": "A travesia dos soños"
    }
  },
  {
    "type": "node",
    "id": 6483968419,
    "lat": 42.5225072,
    "lon": -7.5135678,
    "timestamp": "2019-05-19T14:46:22Z",
    "version": 1,
    "changeset": 70412493,
    "user": "GeoffJones",
    "uid": 16065,
    "tags": {
      "addr:city": "Monforte De Lemos",
      "addr:postcode": "27400",
      "amenity": "restaurant",
      "name": "Taperia",
      "outdoor_seating": "no"
    }
  },
  {
    "type": "node",
    "id": 6567718285,
    "lat": 42.0740516,
    "lon": -7.7321496,
    "timestamp": "2019-06-24T12:27:57Z",
    "version": 1,
    "changeset": 71559581,
    "user": "walo",
    "uid": 149606,
    "tags": {
      "amenity": "restaurant",
      "name": "Avenida"
    }
  },
  {
    "type": "node",
    "id": 6578512776,
    "lat": 42.3536924,
    "lon": -7.8652019,
    "timestamp": "2019-06-29T13:59:17Z",
    "version": 1,
    "changeset": 71736447,
    "user": "RodriguezM",
    "uid": 1854134,
    "tags": {
      "amenity": "restaurant",
      "name": "Novo Milenio"
    }
  },
  {
    "type": "node",
    "id": 6578515583,
    "lat": 42.3515461,
    "lon": -7.8660695,
    "timestamp": "2022-02-17T15:54:35Z",
    "version": 2,
    "changeset": 117527855,
    "user": "Monchinho",
    "uid": 2788764,
    "tags": {
      "amenity": "restaurant",
      "name": "A Despensa Galega"
    }
  },
  {
    "type": "node",
    "id": 6580423255,
    "lat": 42.3512168,
    "lon": -7.865844,
    "timestamp": "2019-06-30T21:34:32Z",
    "version": 1,
    "changeset": 71766091,
    "user": "RodriguezM",
    "uid": 1854134,
    "tags": {
      "amenity": "restaurant",
      "name": "Rapizz"
    }
  },
  {
    "type": "node",
    "id": 6646437888,
    "lat": 42.4231619,
    "lon": -7.88772,
    "timestamp": "2021-05-09T08:09:13Z",
    "version": 3,
    "changeset": 104387617,
    "user": "Xevi",
    "uid": 100124,
    "tags": {
      "amenity": "restaurant",
      "name": "Supermercado Restaurante"
    }
  },
  {
    "type": "node",
    "id": 6654729489,
    "lat": 42.4142695,
    "lon": -7.4788506,
    "timestamp": "2020-01-11T04:13:12Z",
    "version": 3,
    "changeset": 79441841,
    "user": "b-jazz-bot",
    "uid": 9451067,
    "tags": {
      "amenity": "restaurant",
      "cuisine": "spanish",
      "email": "abasacra@yahoo.es",
      "name": "A Cantina de Doade",
      "phone": "+34 982 19 87 17",
      "website": "https://www.restauranteacantina.es/"
    }
  },
  {
    "type": "node",
    "id": 6695724185,
    "lat": 42.3827568,
    "lon": -7.5684672,
    "timestamp": "2024-09-16T15:25:28Z",
    "version": 2,
    "changeset": 156693670,
    "user": "wryneck",
    "uid": 5380433,
    "tags": {
      "addr:housenumber": "2",
      "addr:street": "Plaza do Baquilleiro",
      "amenity": "restaurant",
      "name": "Casa Mercedes"
    }
  },
  {
    "type": "node",
    "id": 6696507185,
    "lat": 42.2752256,
    "lon": -7.5031131,
    "timestamp": "2019-11-05T22:28:08Z",
    "version": 4,
    "changeset": 76670047,
    "user": "MapMakerGal",
    "uid": 7579660,
    "tags": {
      "addr:housenumber": "20",
      "addr:street": "Plaza Montederramo",
      "amenity": "restaurant",
      "name": "Casa Elvira"
    }
  },
  {
    "type": "node",
    "id": 6698894332,
    "lat": 42.1532976,
    "lon": -7.9584658,
    "timestamp": "2019-10-25T17:31:39Z",
    "version": 2,
    "changeset": 76222193,
    "user": "MapMakerGal",
    "uid": 7579660,
    "tags": {
      "amenity": "restaurant",
      "name": "O Forno do Lito"
    }
  },
  {
    "type": "node",
    "id": 6713118485,
    "lat": 42.6083962,
    "lon": -7.7701158,
    "timestamp": "2019-08-15T21:47:40Z",
    "version": 1,
    "changeset": 73393130,
    "user": "JMSB113",
    "uid": 4866290,
    "tags": {
      "amenity": "restaurant",
      "name": "A Faragulla"
    }
  },
  {
    "type": "node",
    "id": 6723911539,
    "lat": 42.7903044,
    "lon": -7.6173476,
    "timestamp": "2019-08-19T14:39:01Z",
    "version": 1,
    "changeset": 73502073,
    "user": "formigo",
    "uid": 2816227,
    "tags": {
      "amenity": "restaurant",
      "name": "Restaurante Río Loyo"
    }
  },
  {
    "type": "node",
    "id": 6778834700,
    "lat": 42.3339874,
    "lon": -7.8631356,
    "timestamp": "2022-02-17T13:57:21Z",
    "version": 4,
    "changeset": 117523025,
    "user": "Monchinho",
    "uid": 2788764,
    "tags": {
      "addr:city": "Ourense",
      "addr:housenumber": "2-22",
      "addr:street": "Libertad",
      "amenity": "restaurant",
      "description": "vegano",
      "diet:vegan": "only",
      "name": "Lusco Fusco"
    }
  },
  {
    "type": "node",
    "id": 6804109167,
    "lat": 42.3362292,
    "lon": -7.8623389,
    "timestamp": "2019-11-05T13:18:00Z",
    "version": 2,
    "changeset": 76648573,
    "user": "MapMakerGal",
    "uid": 7579660,
    "tags": {
      "amenity": "restaurant",
      "name": "Glabistró"
    }
  },
  {
    "type": "node",
    "id": 7063621760,
    "lat": 42.8059449,
    "lon": -7.6172763,
    "timestamp": "2024-09-15T17:24:04Z",
    "version": 2,
    "changeset": 156657564,
    "user": "Blauwdruk",
    "uid": 4517210,
    "tags": {
      "addr:city": "Portomarín",
      "addr:housenumber": "11",
      "addr:postcode": "27170",
      "addr:street": "Avenida de Sarria",
      "amenity": "restaurant",
      "indoor_seating": "yes",
      "name": "Restaurante Pons Minea",
      "outdoor_seating": "yes",
      "phone": "+34686456931",
      "smoking": "outside",
      "wheelchair": "yes"
    }
  },
  {
    "type": "node",
    "id": 7257444086,
    "lat": 42.9286289,
    "lon": -8.161817,
    "timestamp": "2020-03-16T15:50:16Z",
    "version": 2,
    "changeset": 82264732,
    "user": "sanchi",
    "uid": 170106,
    "tags": {
      "addr:housenumber": "14",
      "addr:postcode": "15810",
      "addr:street": "Rúa Fraga do Rei",
      "amenity": "restaurant",
      "name": "Casa Chelo",
      "opening_hours": "Su-Fr 13:00-16:00, 20:00-22:30",
      "phone": "+34 981 50 82 48"
    }
  },
  {
    "type": "node",
    "id": 7274710691,
    "lat": 42.9270996,
    "lon": -8.1607855,
    "timestamp": "2023-11-02T19:16:47Z",
    "version": 3,
    "changeset": 143546222,
    "user": "b-jazz-bot",
    "uid": 9451067,
    "tags": {
      "addr:city": "Arzúa",
      "addr:housenumber": "38",
      "addr:postcode": "15810",
      "addr:street": "Rúa de Lugo",
      "amenity": "restaurant",
      "cuisine": "regional",
      "name": "Restaurante Casa Teodora",
      "opening_hours": "Mo-Sa 13:00-15:45,19:30-22:30",
      "phone": "+34 981 50 00 83",
      "website": "https://www.casateodora.com/"
    }
  },
  {
    "type": "node",
    "id": 7389706119,
    "lat": 42.3398223,
    "lon": -7.8682402,
    "timestamp": "2020-04-11T20:24:43Z",
    "version": 2,
    "changeset": 83410653,
    "user": "gpesquero",
    "uid": 3584,
    "tags": {
      "amenity": "restaurant",
      "name": "Río",
      "source": "survey"
    }
  },
  {
    "type": "node",
    "id": 7389706122,
    "lat": 42.3389169,
    "lon": -7.8720017,
    "timestamp": "2020-04-22T13:48:16Z",
    "version": 3,
    "changeset": 83945155,
    "user": "charobo",
    "uid": 11038064,
    "tags": {
      "addr:city": "Ourense",
      "addr:housenumber": "7",
      "addr:street": "Rúa Vila Real",
      "amenity": "restaurant",
      "name": "Vila Real",
      "phone": "+34 988 248 502",
      "source": "survey"
    }
  },
  {
    "type": "node",
    "id": 7572273523,
    "lat": 42.1571668,
    "lon": -8.282493,
    "timestamp": "2023-09-10T15:46:19Z",
    "version": 3,
    "changeset": 141069447,
    "user": "Mateusz Konieczny - bot account",
    "uid": 3199858,
    "tags": {
      "addr:city": "A Cañiza",
      "addr:housenumber": "9",
      "addr:postcode": "36883",
      "addr:street": "Estrada A Cañiza - Arbo",
      "amenity": "restaurant",
      "cuisine": "regional",
      "name": "Arela",
      "opening_hours": "Mo-Su 08:00-23:00",
      "phone": "+34 608727766",
      "website": "http://www.arelagalicia.com/"
    }
  },
  {
    "type": "node",
    "id": 7603500086,
    "lat": 42.7837475,
    "lon": -7.4185807,
    "timestamp": "2024-09-25T13:05:57Z",
    "version": 2,
    "changeset": 157082136,
    "user": "edvac",
    "uid": 121415,
    "tags": {
      "amenity": "restaurant",
      "cuisine": "regional",
      "diet:vegan": "yes",
      "diet:vegetarian": "yes",
      "level": "-1",
      "name": "Restaurante Roma",
      "outdoor_seating": "yes",
      "smoking": "outside",
      "toilets:access": "customers"
    }
  },
  {
    "type": "node",
    "id": 7617512785,
    "lat": 42.8071799,
    "lon": -7.6169537,
    "timestamp": "2020-06-13T08:59:59Z",
    "version": 1,
    "changeset": 86593618,
    "user": "Emilio Eugenio",
    "uid": 3842919,
    "tags": {
      "addr:housenumber": "16",
      "addr:postcode": "21170",
      "addr:street": "Rúa Benigno Quiroga",
      "amenity": "restaurant",
      "cuisine": "breakfast;fish;friture;grill;local;regional;seafood",
      "name": "Casa Cruz",
      "opening_hours": "Mo-Su 07:00-23:30",
      "phone": "+34982545140",
      "website": "http://www.casacruzportomarin.com"
    }
  },
  {
    "type": "node",
    "id": 7675048553,
    "lat": 42.8415446,
    "lon": -7.7337879,
    "timestamp": "2023-11-05T20:19:56Z",
    "version": 2,
    "changeset": 143664916,
    "user": "Monchinho",
    "uid": 2788764,
    "tags": {
      "amenity": "restaurant",
      "name": "Bar Taberna do Camiño"
    }
  },
  {
    "type": "node",
    "id": 7675048554,
    "lat": 42.8408844,
    "lon": -7.7351527,
    "timestamp": "2023-11-05T20:19:56Z",
    "version": 2,
    "changeset": 143664916,
    "user": "Monchinho",
    "uid": 2788764,
    "tags": {
      "amenity": "restaurant",
      "name": "Mesón Labrador"
    }
  },
  {
    "type": "node",
    "id": 7676516285,
    "lat": 42.3750439,
    "lon": -7.4152597,
    "timestamp": "2021-09-29T16:14:56Z",
    "version": 2,
    "changeset": 111875282,
    "user": "MapMakerGal",
    "uid": 7579660,
    "tags": {
      "amenity": "restaurant",
      "name": "Mesón Os Carballos"
    }
  },
  {
    "type": "node",
    "id": 7734754188,
    "lat": 42.4698006,
    "lon": -7.9833965,
    "timestamp": "2023-04-04T12:12:56Z",
    "version": 2,
    "changeset": 134493283,
    "user": "Humphrey B",
    "uid": 17481490,
    "tags": {
      "amenity": "restaurant",
      "name": "Braseria Bahia"
    }
  },
  {
    "type": "node",
    "id": 7754911169,
    "lat": 42.9264127,
    "lon": -8.1625371,
    "timestamp": "2024-09-18T15:06:14Z",
    "version": 3,
    "changeset": 156778297,
    "user": "Blauwdruk",
    "uid": 4517210,
    "tags": {
      "addr:city": "Arzúa",
      "amenity": "restaurant",
      "indoor_seating": "yes",
      "name": "Casa Nené",
      "outdoor_seating": "yes"
    }
  },
  {
    "type": "node",
    "id": 7928631385,
    "lat": 42.2150054,
    "lon": -7.7939751,
    "timestamp": "2025-04-20T14:50:29Z",
    "version": 3,
    "changeset": 165198214,
    "user": "Monchinho",
    "uid": 2788764,
    "tags": {
      "amenity": "restaurant",
      "name": "O Xardín da Ledicia",
      "phone": "+34 644 213 253",
      "website": "http://www.inpeccatum.beer/oxardindaledicia"
    }
  },
  {
    "type": "node",
    "id": 7930551733,
    "lat": 42.4615185,
    "lon": -7.5855947,
    "timestamp": "2020-09-22T08:16:16Z",
    "version": 1,
    "changeset": 91274663,
    "user": "Elías Gago",
    "uid": 8064494,
    "tags": {
      "addr:housenumber": "12",
      "addr:street": "Rúa do Progreso",
      "amenity": "restaurant",
      "name": "Berso",
      "phone": "+34 982 25 78 16"
    }
  },
  {
    "type": "node",
    "id": 7976756114,
    "lat": 42.5773668,
    "lon": -7.790852,
    "timestamp": "2023-09-20T10:09:35Z",
    "version": 4,
    "changeset": 141505595,
    "user": "Mateusz Konieczny - bot account",
    "uid": 3199858,
    "tags": {
      "air_conditioning": "yes",
      "amenity": "restaurant",
      "bar": "yes",
      "cuisine": "regional",
      "diet:meat": "yes",
      "internet_access": "wlan",
      "name": "Altamira",
      "outdoor_seating": "yes",
      "phone": "+34 982 44 16 12",
      "wheelchair": "yes"
    }
  },
  {
    "type": "node",
    "id": 8112636271,
    "lat": 42.2599088,
    "lon": -7.3862405,
    "timestamp": "2020-11-12T22:19:24Z",
    "version": 2,
    "changeset": 94021343,
    "user": "mglbranco",
    "uid": 1712325,
    "tags": {
      "amenity": "restaurant",
      "name": "Restaurante Vilaceleiros"
    }
  },
  {
    "type": "node",
    "id": 8117334625,
    "lat": 42.3712102,
    "lon": -7.3015312,
    "timestamp": "2020-11-13T22:19:17Z",
    "version": 1,
    "changeset": 94088487,
    "user": "mglbranco",
    "uid": 1712325,
    "tags": {
      "amenity": "restaurant"
    }
  },
  {
    "type": "node",
    "id": 8118690218,
    "lat": 42.1606275,
    "lon": -7.6096069,
    "timestamp": "2020-11-14T16:45:53Z",
    "version": 2,
    "changeset": 94113080,
    "user": "MapMakerGal",
    "uid": 7579660,
    "tags": {
      "amenity": "restaurant",
      "name": "Casa Carmiña",
      "name:en": "Carmiña's house"
    }
  },
  {
    "type": "node",
    "id": 8141967017,
    "lat": 42.6613203,
    "lon": -8.112113,
    "timestamp": "2024-01-28T17:29:27Z",
    "version": 5,
    "changeset": 146788509,
    "user": "kapazao_import",
    "uid": 8770019,
    "tags": {
      "addr:city": "Lalín",
      "addr:housenumber": "2",
      "addr:postcode": "36500",
      "addr:street": "Praza da Igrexa",
      "amenity": "restaurant",
      "contact:facebook": "https://www.facebook.com/CasaCurras",
      "cuisine": "regional",
      "name": "Casa Currás",
      "phone": "+34 986781251"
    }
  },
  {
    "type": "node",
    "id": 8653378698,
    "lat": 42.4063902,
    "lon": -8.0159407,
    "timestamp": "2021-04-21T21:00:39Z",
    "version": 1,
    "changeset": 103364332,
    "user": "Cartoska",
    "uid": 10605945,
    "tags": {
      "amenity": "restaurant",
      "cuisine": "seafood",
      "name": "O Barazal"
    }
  },
  {
    "type": "node",
    "id": 8842954365,
    "lat": 42.4525203,
    "lon": -7.7340292,
    "timestamp": "2021-06-17T19:49:37Z",
    "version": 1,
    "changeset": 106549960,
    "user": "Ieronimus",
    "uid": 4685540,
    "tags": {
      "amenity": "restaurant",
      "name": "Bar Barra"
    }
  },
  {
    "type": "node",
    "id": 8864074487,
    "lat": 42.3895991,
    "lon": -7.5890874,
    "timestamp": "2021-06-24T20:26:49Z",
    "version": 1,
    "changeset": 106921405,
    "user": "ddsaimon",
    "uid": 1893271,
    "tags": {
      "amenity": "restaurant",
      "cuisine": "regional",
      "name": "Restaurante A Mirada Máxica",
      "outdoor_seating": "yes"
    }
  },
  {
    "type": "node",
    "id": 8999377787,
    "lat": 42.7293893,
    "lon": -7.3272098,
    "timestamp": "2021-08-11T18:21:48Z",
    "version": 1,
    "changeset": 109531736,
    "user": "edvac",
    "uid": 121415,
    "tags": {
      "amenity": "restaurant",
      "cuisine": "spanish;regional",
      "name": "Albaroque",
      "outdoor_seating": "yes",
      "smoking": "outside"
    }
  },
  {
    "type": "node",
    "id": 9015147917,
    "lat": 42.3445569,
    "lon": -7.8639056,
    "timestamp": "2021-08-17T18:25:08Z",
    "version": 1,
    "changeset": 109828205,
    "user": "Mutantkilla",
    "uid": 8738892,
    "tags": {
      "amenity": "restaurant",
      "name": "Le Coq"
    }
  },
  {
    "type": "node",
    "id": 9216124443,
    "lat": 42.9860181,
    "lon": -7.5891772,
    "timestamp": "2021-11-14T16:25:05Z",
    "version": 2,
    "changeset": 113769992,
    "user": "Rodrigo Rega",
    "uid": 32529,
    "tags": {
      "amenity": "restaurant",
      "name": "El Castro"
    }
  },
  {
    "type": "node",
    "id": 9496619819,
    "lat": 42.2876017,
    "lon": -8.1436008,
    "timestamp": "2022-02-10T21:41:21Z",
    "version": 1,
    "changeset": 117263725,
    "user": "sustiputo",
    "uid": 7157675,
    "tags": {
      "amenity": "restaurant",
      "name": "Barús"
    }
  },
  {
    "type": "node",
    "id": 9496619919,
    "lat": 42.5168442,
    "lon": -7.5159389,
    "timestamp": "2022-02-10T21:41:24Z",
    "version": 1,
    "changeset": 117263725,
    "user": "sustiputo",
    "uid": 7157675,
    "tags": {
      "amenity": "restaurant",
      "name": "Edulis"
    }
  },
  {
    "type": "node",
    "id": 9496620117,
    "lat": 42.3214552,
    "lon": -8.108282,
    "timestamp": "2023-02-12T19:45:43Z",
    "version": 2,
    "changeset": 132460593,
    "user": "Monchinho",
    "uid": 2788764,
    "tags": {
      "amenity": "restaurant",
      "name": "Casal de Armán"
    }
  },
  {
    "type": "node",
    "id": 9568451117,
    "lat": 42.5582683,
    "lon": -7.6773022,
    "timestamp": "2022-12-07T17:05:07Z",
    "version": 2,
    "changeset": 129829771,
    "user": "Monchinho",
    "uid": 2788764,
    "tags": {
      "amenity": "restaurant",
      "name": "Mesón A Cova"
    }
  },
  {
    "type": "node",
    "id": 9828804466,
    "lat": 42.1147682,
    "lon": -8.2551742,
    "timestamp": "2022-06-18T18:45:40Z",
    "version": 1,
    "changeset": 122557068,
    "user": "AntonioLago",
    "uid": 11626760,
    "tags": {
      "amenity": "restaurant",
      "cuisine": "portuguese",
      "name": "Tasquinha de Melgaço"
    }
  },
  {
    "type": "node",
    "id": 9931736318,
    "lat": 42.0331138,
    "lon": -7.9770233,
    "timestamp": "2022-08-04T12:44:49Z",
    "version": 1,
    "changeset": 124479690,
    "user": "alburo",
    "uid": 16698528,
    "tags": {
      "amenity": "restaurant",
      "name": "Anadia"
    }
  },
  {
    "type": "node",
    "id": 9970525934,
    "lat": 42.6599807,
    "lon": -8.1122771,
    "timestamp": "2022-08-23T10:25:29Z",
    "version": 2,
    "changeset": 125264209,
    "user": "zinhokis",
    "uid": 16805729,
    "tags": {
      "addr:city": "Lalín",
      "addr:country": "ES",
      "addr:housenumber": "3",
      "addr:postcode": "36500",
      "addr:province": "Pontevedra",
      "addr:street": "Pintor Laxeiro",
      "amenity": "restaurant",
      "cuisine": "regional",
      "email": "restaurantecabanas@gmail.com",
      "microbrewery": "no",
      "name": "Restaurante Cabanas",
      "opening_hours": "Tu-Su 13:30-15:30; Th-Sa 20:30-23:00",
      "outdoor_seating": "yes",
      "phone": "+34986782317",
      "reservation": "yes",
      "smoking": "outside",
      "website": "https://restaurantecabanas.com/"
    }
  },
  {
    "type": "node",
    "id": 9975473269,
    "lat": 42.6598351,
    "lon": -8.11232,
    "timestamp": "2023-09-04T15:32:10Z",
    "version": 2,
    "changeset": 140811638,
    "user": "bread user",
    "uid": 19721493,
    "tags": {
      "addr:city": "Lalín",
      "addr:country": "ES",
      "addr:housenumber": "4",
      "addr:postcode": "36500",
      "addr:province": "Pontevedra",
      "addr:street": "Pintor Laxeiro",
      "amenity": "restaurant",
      "cuisine": "regional",
      "name": "Bar O Polo",
      "opening_hours": "Tu-Fr 09:30-11:30+; Sa 10:00-11:30+; Su 10:00-03:00",
      "outdoor_seating": "yes",
      "payment:cash": "yes",
      "phone": "+34986780261",
      "reservation": "yes",
      "takeaway": "yes"
    }
  },
  {
    "type": "node",
    "id": 9990651518,
    "lat": 42.4550686,
    "lon": -7.732094,
    "timestamp": "2023-11-02T14:34:47Z",
    "version": 3,
    "changeset": 143535112,
    "user": "Monchinho",
    "uid": 2788764,
    "tags": {
      "amenity": "restaurant",
      "name": "Acea do Búbal"
    }
  },
  {
    "type": "node",
    "id": 10243263387,
    "lat": 42.9878758,
    "lon": -8.1764503,
    "timestamp": "2022-12-06T20:06:45Z",
    "version": 1,
    "changeset": 129796715,
    "user": "Blauwdruk",
    "uid": 4517210,
    "tags": {
      "addr:city": "Boimorto",
      "addr:housenumber": "1",
      "addr:postcode": "15818",
      "addr:street": "Lugar A Cabrita",
      "amenity": "restaurant",
      "bar": "yes",
      "cuisine": "barbeque;spanish",
      "internet_access": "wlan",
      "name": "A Cabrita",
      "opening_hours": "Mo-Su 11:00-00:00",
      "outdoor_seating": "yes",
      "phone": "+34 981 19 33 08",
      "takeaway": "yes",
      "wheelchair": "yes"
    }
  },
  {
    "type": "node",
    "id": 10272859555,
    "lat": 42.9508631,
    "lon": -7.498847,
    "timestamp": "2024-10-18T23:49:36Z",
    "version": 2,
    "changeset": 158071293,
    "user": "Rodrigo Rega",
    "uid": 32529,
    "tags": {
      "addr:city": "Lugo",
      "addr:postcode": "27161",
      "addr:street": "Lugar de Santa Comba",
      "amenity": "restaurant",
      "cuisine": "regional;spanish",
      "name": "Parrillada Santa Comba",
      "phone": "+34 982304062",
      "website": "https://parrilladasantacomba.com/"
    }
  },